%time,field.header.seq,field.header.stamp,field.header.frame_id,field.FFJ4_set_point,field.FFJ4_position_gain,field.FFJ4_process_value,field.FFJ4_process_value_dot,field.FFJ4_error,field.FFJ4_command,field.FFJ1,field.FFJ2,field.FFJ3,field.FFJ4,field.FFJ1_dot,field.FFJ2_dot,field.FFJ3_dot,field.FFJ4_dot,field.FFJ1_tao,field.FFJ2_tao,field.FFJ3_tao,field.FFJ4_tao,field.pac0,field.pac1,field.pdc0,field.tac0,field.tdc0,field.el0,field.el1,field.el2,field.el3,field.el4,field.el5,field.el6,field.el7,field.el8,field.el9,field.el10,field.el11,field.el12,field.el13,field.el14,field.el15,field.el16,field.el17,field.el18,field.dt,field.time,field.test_time2,field.FFJ0_set_point,field.FFJ0_position_gain,field.FFJ0_process_value,field.FFJ0_process_value_dot,field.FFJ0_error,field.FFJ0_command,field.FFJ3_set_point,field.FFJ3_position_gain,field.FFJ3_process_value,field.FFJ3_process_value_dot,field.FFJ3_error,field.FFJ3_command,field.MFJ1,field.MFJ2,field.MFJ3,field.MFJ4,field.MFJ1_dot,field.MFJ2_dot,field.MFJ3_dot,field.MFJ4_dot,field.MFJ1_tao,field.MFJ2_tao,field.MFJ3_tao,field.MFJ4_tao,field.Mpac0,field.Mpac1,field.Mpdc0,field.Mtac0,field.Mtdc0,field.Mel0,field.Mel1,field.Mel2,field.Mel3,field.Mel4,field.Mel5,field.Mel6,field.Mel7,field.Mel8,field.Mel9,field.Mel10,field.Mel11,field.Mel12,field.Mel13,field.Mel14,field.Mel15,field.Mel16,field.Mel17,field.Mel18
1508405707157284340,118,1508405707156978221,plot_matl,0.0,0.0,1.40129846432e-45,4.59163467805e-41,6.64634639741e-25,4.58729065281e-41,0.349065840244,0.30633226037,1.32984662056,-0.00348053243943,0.0153453322127,0.0153453322127,-0.0175591055304,0.00195502093993,-100.041046143,-100.041046143,-139.001937866,-0.573424637318,2021,2061,2222,2038,2038,2916,3376,3405,3248,3345,3080,2905,3037,2956,3126,2742,3331,3353,3186,3271,2915,3264,3321,3051,0.010010279,1.179982319,1.181212922,0.680678427219,4500.0,0.655398130417,0.0335982739925,-0.025280283764,113.761283875,1.34390354156,6000.0,1.3297008276,0.0230206232518,-0.014202660881,77.4708633423,0.349065840244,0.0216827709228,0.00840198807418,0.000813452526927,-0.00151387392543,-0.00151387392543,-0.000942801940255,0.0091585163027,-0.405269175768,-0.405269175768,-2.39695858955,0.447395443916,2033,2025,2541,2034,2034,2928,3427,3440,3253,3376,3102,3063,3165,3157,3245,2860,3411,3419,3248,3370,3134,3355,3391,3197
1508405707167270794,119,1508405707166981776,plot_matl,0.0,0.0,1.40129846432e-45,4.59163467805e-41,6.64634639741e-25,4.58729065281e-41,0.349065840244,0.30363330245,1.32967483997,-0.0035325884819,-0.00989214796573,-0.00989214796573,0.023326266557,0.00259017501958,-100.149154663,-100.149154663,-138.934692383,-0.384516090155,2021,2064,2222,2038,2038,2916,3376,3391,3235,3333,3071,2897,3028,2951,3119,2737,3323,3353,3186,3271,2915,3264,3321,3051,0.010004661,1.18998639,1.190554659,0.680678427219,4500.0,0.654048621655,0.00667429808527,-0.0266297664493,119.833946228,1.34390354156,6000.0,1.32963955402,-0.0144885042682,-0.0142639959231,89.4019241333,0.349065840244,0.0216827709228,0.00845596659929,0.000679176591802,-0.00250190473162,-0.00250190473162,-0.00139461026993,-0.0143412640318,-0.290797591209,-0.290797591209,-2.69267773628,0.54309207201,2030,2026,2541,2034,2034,2928,3427,3425,3242,3366,3094,3056,3158,3149,3238,2856,3406,3419,3248,3370,3134,3355,3391,3197
1508405707177215131,120,1508405707176984745,plot_matl,0.0,0.0,1.40129846432e-45,4.59163467805e-41,6.64634639741e-25,4.58729065281e-41,0.349065840244,0.30363330245,1.32967483997,-0.0035325884819,-0.00989214796573,-0.00989214796573,0.023326266557,0.00259017501958,-100.149154663,-100.149154663,-138.934692383,-0.384516090155,2020,2066,2222,2038,2038,2916,3376,3391,3235,3333,3071,2897,3028,2951,3119,2737,3323,3349,3180,3265,2908,3261,3319,3047,0.010001836,1.199989168,1.20022032,0.680678427219,4500.0,0.652699172497,-0.0198311693966,-0.027979247272,125.906616211,1.34390354156,6000.0,1.32965993881,0.0243466123939,-0.0142435608432,78.6907424927,0.349065840244,0.0216827709228,0.00845596659929,0.000679176591802,-0.00250190473162,-0.00250190473162,-0.00139461026993,-0.0143412640318,-0.290797591209,-0.290797591209,-2.69267773628,0.54309207201,2033,2022,2542,2034,2034,2928,3427,3425,3242,3366,3094,3056,3158,3149,3238,2856,3406,3415,3241,3367,3130,3351,3388,3193
1508405707187426597,121,1508405707187010668,plot_matl,0.0,0.0,1.40129846432e-45,4.59163467805e-41,6.64634639741e-25,4.58729065281e-41,0.349065840244,0.30363330245,1.32967483997,-0.0035325884819,-0.00989214796573,-0.00989214796573,0.023326266557,0.00259017501958,-100.149154663,-100.149154663,-138.934692383,-0.384516090155,2019,2061,2222,2038,2038,2915,3374,3388,3233,3331,3070,2895,3027,2949,3117,2737,3323,3349,3180,3265,2908,3261,3319,3047,0.010026816,1.210015803,1.213244736,0.680678427219,4500.0,0.654048621655,0.0065481220372,-0.0266297664493,119.833946228,1.34390354156,6000.0,1.32964241505,-0.014186677523,-0.0142610995099,89.5297012329,0.349065840244,0.0216827709228,0.00845596659929,0.000679176591802,-0.00250190473162,-0.00250190473162,-0.00139461026993,-0.0143412640318,-0.290797591209,-0.290797591209,-2.69267773628,0.54309207201,2028,2024,2542,2034,2034,2925,3424,3422,3241,3364,3091,3055,3158,3149,3236,2856,3406,3415,3241,3367,3130,3351,3388,3193
1508405707197260788,122,1508405707197007569,plot_matl,0.0,0.0,1.40129846432e-45,4.59163467805e-41,6.64634639741e-25,4.58729065281e-41,0.349065840244,0.30363330245,1.32967483997,-0.0035325884819,-0.00989214796573,-0.00989214796573,0.023326266557,0.00259017501958,-100.149154663,-100.149154663,-138.934692383,-0.384516090155,2011,2060,2222,2038,2038,2915,3374,3388,3233,3331,3070,2895,3027,2949,3117,2736,3322,3348,3178,3265,2909,3258,3318,3047,0.009997808,1.220013086,1.219732576,0.680678427219,4500.0,0.654048621655,0.00587091175839,-0.0266297664493,119.833946228,1.34390354156,6000.0,1.32955801487,-0.0123183326796,-0.0143455090001,89.5394592285,0.349065840244,0.0216827709228,0.00845596659929,0.000679176591802,-0.00250190473162,-0.00250190473162,-0.00139461026993,-0.0143412640318,-0.290797591209,-0.290797591209,-2.69267773628,0.54309207201,2026,2020,2543,2034,2034,2925,3424,3422,3241,3364,3091,3055,3158,3149,3236,2855,3405,3414,3242,3364,3130,3352,3388,3191
1508405707207339401,123,1508405707206979680,plot_matl,0.0,0.0,1.40129846432e-45,4.59163467805e-41,6.64634639741e-25,4.58729065281e-41,0.349065840244,0.30498278141,1.32956695557,-0.00349689298309,0.0031759981066,0.0031759981066,-0.012554815039,-0.00767938327044,-99.8895874023,-99.8895874023,-138.998886108,-0.280592471361,2021,2058,2222,2034,2034,2913,3373,3389,3231,3331,3069,2894,3028,2949,3117,2736,3322,3348,3178,3265,2909,3258,3318,3047,0.009968833,1.229983901,1.226166459,0.680678427219,4500.0,0.654048621655,0.00682398909703,-0.0266297664493,119.833946228,1.34390354156,6000.0,1.32963466644,0.0253340285271,-0.0142688630149,78.2419128418,0.349065840244,0.0216827709228,0.00841847155243,0.000792565464508,-0.00121786713134,-0.00121786713134,-0.00100250355899,-0.0162773765624,-0.19511012733,-0.19511012733,-1.17880630493,0.660664916039,2025,2027,2543,2033,2033,2924,3422,3422,3242,3363,3092,3052,3157,3149,3236,2855,3405,3414,3242,3364,3130,3352,3388,3191
1508405707217378603,124,1508405707217000346,plot_matl,0.0,0.0,1.40129846432e-45,4.59163467805e-41,6.64634639741e-25,4.58729065281e-41,0.349065840244,0.30498278141,1.32956695557,-0.00349689298309,0.0031759981066,0.0031759981066,-0.012554815039,-0.00767938327044,-99.8895874023,-99.8895874023,-138.998886108,-0.280592471361,2013,2058,2222,2034,2034,2913,3373,3389,3231,3331,3069,2894,3028,2950,3118,2736,3324,3347,3179,3267,2909,3259,3318,3047,0.010022877,1.240005707,1.242836748,0.680678427219,4500.0,0.654048621655,0.00682398909703,-0.0266297664493,119.833946228,1.34390354156,6000.0,1.32963466644,0.0253340285271,-0.0142688630149,78.2419128418,0.349065840244,0.0216827709228,0.00841847155243,0.000792565464508,-0.00121786713134,-0.00121786713134,-0.00100250355899,-0.0162773765624,-0.19511012733,-0.19511012733,-1.17880630493,0.660664916039,2023,2025,2543,2033,2033,2924,3422,3422,3242,3363,3092,3052,3157,3146,3237,2855,3404,3412,3242,3365,3129,3350,3387,3191
1508405707227199184,125,1508405707226978491,plot_matl,0.0,0.0,1.40129846432e-45,4.59163467805e-41,6.64634639741e-25,4.58729065281e-41,0.349065840244,0.30498278141,1.32956695557,-0.00349689298309,0.0031759981066,0.0031759981066,-0.012554815039,-0.00767938327044,-99.8895874023,-99.8895874023,-138.998886108,-0.280592471361,2014,2056,2222,2034,2034,2912,3372,3386,3231,3331,3069,2894,3028,2950,3118,2736,3324,3347,3179,3267,2909,3259,3318,3048,0.009977264,1.249983802,1.247158,0.680678427219,4500.0,0.652699172497,-0.0205901935697,-0.027979247272,125.906616211,1.34390354156,6000.0,1.32969653606,0.0242682080716,-0.0142070390284,77.8966217041,0.349065840244,0.0216827709228,0.00841847155243,0.000792565464508,-0.00121786713134,-0.00121786713134,-0.00100250355899,-0.0162773765624,-0.19511012733,-0.19511012733,-1.17880630493,0.660664916039,2030,2024,2541,2039,2039,2924,3422,3424,3241,3363,3091,3052,3157,3146,3237,2855,3404,3412,3242,3365,3129,3350,3387,3190
1508405707237388193,126,1508405707236997773,plot_matl,0.0,0.0,1.40129846432e-45,4.59163467805e-41,6.64634639741e-25,4.58729065281e-41,0.349065840244,0.30498278141,1.32956695557,-0.00349689298309,0.0031759981066,0.0031759981066,-0.012554815039,-0.00767938327044,-99.8895874023,-99.8895874023,-138.998886108,-0.280592471361,2013,2056,2222,2034,2034,2912,3372,3386,3231,3331,3069,2894,3025,2947,3118,2736,3321,3349,3178,3265,2908,3259,3318,3048,0.010018917,1.260002903,1.262383542,0.680678427219,4500.0,0.654048621655,0.00630348501727,-0.0266297664493,119.833946228,1.34390354156,6000.0,1.3297804594,0.022742183879,-0.0141230681911,77.8615570068,0.349065840244,0.0216827709228,0.00841847155243,0.000792565464508,-0.00121786713134,-0.00121786713134,-0.00100250355899,-0.0162773765624,-0.19511012733,-0.19511012733,-1.17880630493,0.660664916039,2029,2028,2541,2039,2039,2924,3422,3424,3241,3363,3091,3052,3155,3147,3236,2856,3403,3410,3240,3364,3129,3350,3387,3190
1508405707247478586,127,1508405707247035111,plot_matl,0.0,0.0,1.40129846432e-45,4.59163467805e-41,6.64634639741e-25,4.58729065281e-41,0.349065840244,0.30363330245,1.32980537415,-0.00350927235559,-0.0105041591451,-0.0105041591451,0.0222174189985,0.0024294173345,-99.9078292847,-99.9078292847,-139.071762085,-0.290549099445,2014,2053,2222,2034,2034,2913,3372,3388,3233,3331,3069,2894,3025,2947,3118,2736,3321,3349,3178,3265,2908,3260,3317,3047,0.010036687,1.270040126,1.274659249,0.680678427219,4500.0,0.654048621655,0.00517596444115,-0.0266297664493,119.833946228,1.34390354156,6000.0,1.3297804594,0.022742183879,-0.0141230681911,77.8615570068,0.349065840244,0.0216827709228,0.00845170579851,0.000803945411462,-0.00254677748308,-0.00254677748308,-0.00178530171979,0.00809846445918,-0.317176729441,-0.317176729441,-0.549004018307,0.293600559235,2023,2020,2542,2038,2038,2925,3423,3424,3239,3363,3091,3052,3155,3147,3236,2856,3403,3410,3240,3364,3129,3350,3385,3193
1508405707257325147,128,1508405707256977454,plot_matl,0.0,0.0,1.40129846432e-45,4.59163467805e-41,6.64634639741e-25,4.58729065281e-41,0.349065840244,0.30363330245,1.32980537415,-0.00350927235559,-0.0105041591451,-0.0105041591451,0.0222174189985,0.0024294173345,-99.9078292847,-99.9078292847,-139.071762085,-0.290549099445,2016,2054,2222,2034,2034,2913,3372,3388,3233,3332,3070,2894,3025,2947,3116,2735,3322,3347,3180,3265,2908,3260,3317,3047,0.009941757,1.279982269,1.272544896,0.680678427219,4500.0,0.654048621655,0.00423976359889,-0.0266297664493,119.833946228,1.34390354156,6000.0,1.32987546921,0.0209218487144,-0.0140280937776,78.1647796631,0.349065840244,0.0216827709228,0.00845170579851,0.000803945411462,-0.00254677748308,-0.00254677748308,-0.00178530171979,0.00809846445918,-0.317176729441,-0.317176729441,-0.549004018307,0.293600559235,2027,2029,2542,2038,2038,2925,3423,3424,3239,3362,3090,3054,3157,3148,3237,2855,3405,3413,3241,3364,3129,3350,3385,3193
1508405707267096019,129,1508405707266970389,plot_matl,0.0,0.0,1.40129846432e-45,4.59163467805e-41,6.64634639741e-25,4.58729065281e-41,0.349065840244,0.30363330245,1.32980537415,-0.00350927235559,-0.0105041591451,-0.0105041591451,0.0222174189985,0.0024294173345,-99.9078292847,-99.9078292847,-139.071762085,-0.290549099445,2018,2055,2223,2035,2035,2913,3373,3388,3233,3332,3070,2894,3025,2947,3116,2735,3322,3347,3180,3263,2908,3258,3313,3047,0.009991565,1.289974764,1.288911885,0.680678427219,4500.0,0.654048621655,0.00440930528566,-0.0266297664493,119.833946228,1.34390354156,6000.0,1.32978630066,-0.0162503793836,-0.0141172315925,90.11302948,0.349065840244,0.0216827709228,0.00845170579851,0.000803945411462,-0.00254677748308,-0.00254677748308,-0.00178530171979,0.00809846445918,-0.317176729441,-0.317176729441,-0.549004018307,0.293600559235,2030,2023,2542,2040,2040,2925,3422,3424,3239,3362,3090,3054,3157,3148,3237,2855,3405,3413,3241,3365,3128,3353,3386,3195
1508405707277106203,130,1508405707276994738,plot_matl,0.0,0.0,1.40129846432e-45,4.59163467805e-41,6.64634639741e-25,4.58729065281e-41,0.349065840244,0.30363330245,1.32980537415,-0.00350927235559,-0.0105041591451,-0.0105041591451,0.0222174189985,0.0024294173345,-99.9078292847,-99.9078292847,-139.071762085,-0.290549099445,2021,2059,2223,2035,2035,2913,3373,3389,3233,3332,3067,2894,3028,2948,3117,2734,3319,3347,3180,3263,2908,3258,3313,3047,0.010023799,1.299998769,1.30309387,0.680678427219,4500.0,0.654048621655,0.00415332522243,-0.0266297664493,119.833946228,1.34390354156,6000.0,1.32967865467,-0.0140770142898,-0.0142248552293,89.6827926636,0.349065840244,0.0216827709228,0.00845170579851,0.000803945411462,-0.00254677748308,-0.00254677748308,-0.00178530171979,0.00809846445918,-0.317176729441,-0.317176729441,-0.549004018307,0.293600559235,2028,2028,2542,2040,2040,2925,3422,3422,3240,3361,3090,3053,3156,3146,3239,2854,3406,3413,3241,3365,3128,3353,3386,3195
1508405707287101243,131,1508405707286969877,plot_matl,0.0,0.0,1.40129846432e-45,4.59163467805e-41,6.64634639741e-25,4.58729065281e-41,0.349065840244,0.30498278141,1.32969713211,-0.00352611625567,0.0019747975748,0.0019747975748,-0.0144384391606,0.00282342871651,-99.8932342529,-99.8932342529,-139.121490479,-0.263440549374,2015,2060,2222,2033,2033,2913,3373,3389,3233,3332,3067,2894,3028,2948,3117,2734,3319,3348,3177,3264,2908,3261,3317,3046,0.009974853,1.309973927,1.306705743,0.680678427219,4500.0,0.655398130417,0.0291530620307,-0.025280283764,113.761283875,1.34390354156,6000.0,1.32969748974,0.0246350187808,-0.0142060806975,77.7466201782,0.349065840244,0.0240919683129,0.00848509650677,0.000678499171045,0.0232562422752,0.0232562422752,0.0128056611866,0.0106942774728,-0.167460605502,-0.167460605502,-0.615471959114,-0.0737671777606,2025,2028,2541,2038,2038,2925,3422,3422,3240,3361,3090,3053,3156,3146,3239,2854,3406,3411,3242,3363,3130,3351,3388,3192
1508405707297197201,132,1508405707297007703,plot_matl,0.0,0.0,1.40129846432e-45,4.59163467805e-41,6.64634639741e-25,4.58729065281e-41,0.349065840244,0.30498278141,1.32969713211,-0.00352611625567,0.0019747975748,0.0019747975748,-0.0144384391606,0.00282342871651,-99.8932342529,-99.8932342529,-139.121490479,-0.263440549374,2012,2055,2222,2033,2033,2914,3374,3388,3230,3333,3071,2894,3028,2949,3117,2734,3319,3348,3177,3264,2908,3261,3317,3046,0.010040606,1.320013029,1.325359992,0.680678427219,4500.0,0.655398130417,0.0277783144265,-0.025280283764,113.761283875,1.34390354156,6000.0,1.32978129387,-0.0161171201617,-0.0141222812235,89.5309524536,0.349065840244,0.0240919683129,0.00848509650677,0.000678499171045,0.0232562422752,0.0232562422752,0.0128056611866,0.0106942774728,-0.167460605502,-0.167460605502,-0.615471959114,-0.0737671777606,2028,2029,2541,2038,2038,2924,3423,3424,3241,3364,3090,3053,3156,3147,3236,2854,3406,3411,3242,3363,3130,3351,3388,3192
1508405707307262074,133,1508405707307010534,plot_matl,0.0,0.0,1.40129846432e-45,4.59163467805e-41,6.64634639741e-25,4.58729065281e-41,0.349065840244,0.30498278141,1.32969713211,-0.00352611625567,0.0019747975748,0.0019747975748,-0.0144384391606,0.00282342871651,-99.8932342529,-99.8932342529,-139.121490479,-0.263440549374,2021,2060,2222,2033,2033,2914,3374,3388,3230,3333,3071,2894,3028,2949,3117,2734,3322,3346,3178,3263,2909,3258,3316,3048,0.01000277,1.330016416,1.33036841,0.680678427219,4500.0,0.652699172497,-0.0258477237076,-0.027979247272,125.906616211,1.34390354156,6000.0,1.32995390892,0.0195015016943,-0.0139496233314,77.8370056152,0.349065840244,0.0240919683129,0.00848509650677,0.000678499171045,0.0232562422752,0.0232562422752,0.0128056611866,0.0106942774728,-0.167460605502,-0.167460605502,-0.615471959114,-0.0737671777606,2041,2031,2542,2038,2038,2924,3423,3424,3241,3364,3090,3053,3156,3147,3236,2854,3402,3413,3241,3363,3129,3351,3387,3192
1508405707317221257,134,1508405707317001026,plot_matl,0.0,0.0,1.40129846432e-45,4.59163467805e-41,6.64634639741e-25,4.58729065281e-41,0.349065840244,0.30498278141,1.32969713211,-0.00352611625567,0.0019747975748,0.0019747975748,-0.0144384391606,0.00282342871651,-99.8932342529,-99.8932342529,-139.121490479,-0.263440549374,2016,2049,2222,2034,2034,2913,3371,3388,3231,3332,3069,2893,3026,2949,3117,2734,3322,3346,3178,3263,2909,3258,3316,3048,0.009986428,1.340004774,1.338181352,0.680678427219,4500.0,0.652699172497,-0.0258477237076,-0.027979247272,125.906616211,1.34390354156,6000.0,1.32995390892,0.0195015016943,-0.0139496233314,77.8370056152,0.349065840244,0.0240919683129,0.00848509650677,0.000678499171045,0.0232562422752,0.0232562422752,0.0128056611866,0.0106942774728,-0.167460605502,-0.167460605502,-0.615471959114,-0.0737671777606,2029,2018,2542,2039,2039,2923,3422,3422,3240,3363,3090,3052,3156,3147,3236,2854,3402,3413,3241,3363,3129,3351,3387,3192
1508405707327278324,135,1508405707326977349,plot_matl,0.0,0.0,1.40129846432e-45,4.59163467805e-41,6.64634639741e-25,4.58729065281e-41,0.349065840244,0.30498278141,1.3299536705,-0.00355348712765,0.00138548098039,0.00138548098039,-0.0196015033871,-0.00635755807161,-100.122215271,-100.122215271,-138.685409546,-0.174639433622,2016,2049,2222,2034,2034,2913,3371,3388,3231,3332,3069,2893,3026,2949,3117,2734,3322,3346,3178,3263,2909,3258,3316,3048,0.009976663,1.349981463,1.346849505,0.680678427219,4500.0,0.652699172497,-0.0258477237076,-0.027979247272,125.906616211,1.34390354156,6000.0,1.33002960682,0.0179498977959,-0.013873886317,77.5135192871,0.349065840244,0.0216827709228,0.00845884066075,0.000696474162396,-0.00166738394182,-0.00166738394182,-0.00206174212508,-0.0141122201458,-0.0851455852389,-0.0851455852389,-1.28371357918,-0.372710317373,2029,2018,2542,2039,2039,2923,3422,3422,3240,3363,3090,3052,3156,3147,3236,2854,3402,3413,3241,3363,3129,3351,3387,3192
1508405707337397803,136,1508405707336991442,plot_matl,0.0,0.0,1.40129846432e-45,4.59163467805e-41,6.64634639741e-25,4.58729065281e-41,0.349065840244,0.30498278141,1.3299536705,-0.00355348712765,0.00138548098039,0.00138548098039,-0.0196015033871,-0.00635755807161,-100.122215271,-100.122215271,-138.685409546,-0.174639433622,2020,2056,2222,2031,2031,2913,3373,3388,3229,3331,3070,2893,3026,2949,3118,2735,3323,3348,3179,3265,2909,3260,3315,3047,0.010015268,1.359996452,1.362076448,0.680678427219,4500.0,0.652699172497,-0.0216353163123,-0.027979247272,125.906616211,1.34390354156,6000.0,1.33005785942,0.0174156539142,-0.0138456840068,77.7638626099,0.349065840244,0.0216827709228,0.00845884066075,0.000696474162396,-0.00166738394182,-0.00166738394182,-0.00206174212508,-0.0141122201458,-0.0851455852389,-0.0851455852389,-1.28371357918,-0.372710317373,2039,2032,2542,2034,2034,2923,3425,3421,3241,3362,3090,3052,3156,3147,3237,2853,3403,3411,3242,3363,3132,3350,3385,3193
1508405707347099947,137,1508405707346970642,plot_matl,0.0,0.0,1.40129846432e-45,4.59163467805e-41,6.64634639741e-25,4.58729065281e-41,0.349065840244,0.30498278141,1.3299536705,-0.00355348712765,0.00138548098039,0.00138548098039,-0.0196015033871,-0.00635755807161,-100.122215271,-100.122215271,-138.685409546,-0.174639433622,2020,2057,2222,2031,2031,2913,3373,3388,3229,3331,3070,2893,3028,2947,3116,2735,3323,3347,3179,3265,2909,3260,3315,3047,0.009977876,1.369974936,1.366969012,0.680678427219,4500.0,0.652699172497,-0.0216353163123,-0.027979247272,125.906616211,1.34390354156,6000.0,1.33005785942,0.0174156539142,-0.0138456840068,77.7638626099,0.349065840244,0.0216827709228,0.00845884066075,0.000696474162396,-0.00166738394182,-0.00166738394182,-0.00206174212508,-0.0141122201458,-0.0851455852389,-0.0851455852389,-1.28371357918,-0.372710317373,2033,2028,2542,2034,2034,2923,3425,3421,3241,3362,3090,3052,3155,3148,3238,2854,3405,3412,3241,3364,3129,3350,3385,3193
1508405707357407553,138,1508405707357009827,plot_matl,0.0,0.0,1.40129846432e-45,4.59163467805e-41,6.64634639741e-25,4.58729065281e-41,0.349065840244,0.30498278141,1.3299536705,-0.00355348712765,0.00138548098039,0.00138548098039,-0.0196015033871,-0.00635755807161,-100.122215271,-100.122215271,-138.685409546,-0.174639433622,2013,2051,2222,2032,2032,2912,3371,3388,3231,3331,3070,2893,3028,2947,3116,2735,3323,3347,3179,3265,2909,3257,3315,3047,0.010040603,1.380015117,1.385603214,0.680678427219,4500.0,0.652699172497,-0.0221041571349,-0.027979247272,125.906616211,1.34390354156,6000.0,1.33005857468,-0.0216429643333,-0.0138450050727,89.1393203735,0.349065840244,0.0216827709228,0.00845884066075,0.000696474162396,-0.00166738394182,-0.00166738394182,-0.00206174212508,-0.0141122201458,-0.0851455852389,-0.0851455852389,-1.28371357918,-0.372710317373,2025,2024,2542,2036,2036,2924,3424,3422,3239,3362,3090,3052,3155,3148,3238,2854,3405,3412,3241,3364,3129,3349,3386,3194
1508405707367391140,139,1508405707366982696,plot_matl,0.0,0.0,1.40129846432e-45,4.59163467805e-41,6.64634639741e-25,4.58729065281e-41,0.349065840244,0.30498278141,1.3301063776,-0.00354153383523,0.00250871526077,0.00250871526077,0.0164315160364,0.00319384806789,-100.112747192,-100.112747192,-138.807754517,-0.0557821802795,2013,2060,2222,2032,2032,2912,3371,3388,3231,3331,3069,2894,3027,2949,3118,2734,3322,3346,3177,3265,2909,3257,3315,3047,0.009970775,1.389987237,1.385937725,0.680678427219,4500.0,0.654048621655,0.00568168470636,-0.0266297664493,119.833946228,1.34390354156,6000.0,1.32996559143,-0.019819309935,-0.0139379845932,89.6505813599,0.349065840244,0.0216827709228,0.00844994653016,0.000733684923034,-0.00154783413745,-0.00154783413745,-0.00189216039144,0.00970292650163,0.0419738925993,0.0419738925993,-1.66754698753,-0.415849745274,2028,2029,2542,2036,2036,2924,3424,3422,3239,3362,3092,3053,3156,3147,3237,2855,3406,3412,3242,3364,3129,3349,3386,3194
1508405707377310017,140,1508405707377002468,plot_matl,0.0,0.0,1.40129846432e-45,4.59163467805e-41,6.64634639741e-25,4.58729065281e-41,0.349065840244,0.30498278141,1.3301063776,-0.00354153383523,0.00250871526077,0.00250871526077,0.0164315160364,0.00319384806789,-100.112747192,-100.112747192,-138.807754517,-0.0557821802795,2022,2051,2222,2033,2033,2912,3374,3388,3231,3331,3069,2894,3027,2949,3118,2734,3322,3346,3177,3266,2907,3259,3316,3047,0.010020636,1.400007558,1.40288904,0.680678427219,4500.0,0.655398130417,0.0319083966315,-0.025280283764,113.761283875,1.34390354156,6000.0,1.33003306389,0.0179320313036,-0.013870456256,77.9169006348,0.349065840244,0.0216827709228,0.00844994653016,0.000733684923034,-0.00154783413745,-0.00154783413745,-0.00189216039144,0.00970292650163,0.0419738925993,0.0419738925993,-1.66754698753,-0.415849745274,2030,2019,2541,2037,2037,2925,3424,3422,3239,3362,3092,3053,3156,3147,3237,2855,3406,3412,3242,3363,3129,3350,3385,3193
1508405707387112174,141,1508405707386972240,plot_matl,0.0,0.0,1.40129846432e-45,4.59163467805e-41,6.64634639741e-25,4.58729065281e-41,0.349065840244,0.30498278141,1.3301063776,-0.00354153383523,0.00250871526077,0.00250871526077,0.0164315160364,0.00319384806789,-100.112747192,-100.112747192,-138.807754517,-0.0557821802795,2017,2051,2222,2033,2033,2912,3374,3387,3232,3331,3069,2895,3026,2948,3116,2734,3321,3346,3177,3266,2907,3259,3316,3047,0.00996775,1.40997635,1.40545275,0.680678427219,4500.0,0.654048621655,0.00474836211652,-0.0266297664493,119.833946228,1.34390354156,6000.0,1.33005452156,-0.0215605925769,-0.0138490376994,89.5799179077,0.349065840244,0.0216827709228,0.00844994653016,0.000733684923034,-0.00154783413745,-0.00154783413745,-0.00189216039144,0.00970292650163,0.0419738925993,0.0419738925993,-1.66754698753,-0.415849745274,2021,2028,2541,2037,2037,2925,3424,3422,3238,3364,3092,3053,3156,3147,3237,2855,3406,3412,3242,3363,3129,3350,3385,3193
1508405707397331171,142,1508405707397013465,plot_matl,0.0,0.0,1.40129846432e-45,4.59163467805e-41,6.64634639741e-25,4.58729065281e-41,0.349065840244,0.30498278141,1.3301063776,-0.00354153383523,0.00250871526077,0.00250871526077,0.0164315160364,0.00319384806789,-100.112747192,-100.112747192,-138.807754517,-0.0557821802795,2017,2059,2222,2036,2036,2912,3374,3387,3232,3331,3069,2895,3026,2948,3116,2734,3321,3344,3181,3265,2907,3260,3315,3047,0.010043506,1.420018756,1.426177852,0.680678427219,4500.0,0.654048621655,0.00436986470595,-0.0266297664493,119.833946228,1.34390354156,6000.0,1.33017909527,0.0150351291522,-0.0137244798243,78.2767486572,0.349065840244,0.0216827709228,0.00844994653016,0.000733684923034,-0.00154783413745,-0.00154783413745,-0.00189216039144,0.00970292650163,0.0419738925993,0.0419738925993,-1.66754698753,-0.415849745274,2028,2029,2542,2035,2035,2925,3424,3422,3238,3364,3092,3053,3156,3147,3237,2855,3406,3411,3243,3363,3128,3352,3386,3191
1508405707407266057,143,1508405707406977756,plot_matl,0.0,0.0,1.40129846432e-45,4.59163467805e-41,6.64634639741e-25,4.58729065281e-41,0.349065840244,0.30498278141,1.33011817932,-0.00353813474067,0.00236401916482,0.00236401916482,0.0162674747407,-0.00664429366589,-99.9979324341,-99.9979324341,-138.757797241,-0.149599298835,2015,2056,2222,2036,2036,2913,3374,3388,3231,3332,3069,2894,3025,2947,3117,2734,3321,3344,3181,3265,2907,3260,3315,3047,0.009961985,1.429982086,1.424563855,0.680678427219,4500.0,0.654048621655,0.00403943611309,-0.0266297664493,119.833946228,1.34390354156,6000.0,1.33018147945,0.0150018958375,-0.0137220928445,77.7189254761,0.349065840244,0.0216827709228,0.00846574641764,0.000722141936421,-0.0016140450025,-0.0016140450025,-0.00223799538799,-0.0145749263465,-0.0220522172749,-0.0220522172749,-1.99115633965,-0.421237438917,2021,2026,2542,2035,2035,2926,3422,3421,3240,3363,3091,3052,3155,3146,3237,2855,3406,3411,3243,3363,3128,3352,3386,3191
1508405707417347240,144,1508405707417002483,plot_matl,0.0,0.0,1.40129846432e-45,4.59163467805e-41,6.64634639741e-25,4.58729065281e-41,0.349065840244,0.30498278141,1.33011817932,-0.00353813474067,0.00236401916482,0.00236401916482,0.0162674747407,-0.00664429366589,-99.9979324341,-99.9979324341,-138.757797241,-0.149599298835,2023,2056,2222,2036,2036,2913,3374,3388,3231,3332,3069,2894,3025,2947,3117,2733,3321,3345,3177,3264,2909,3260,3314,3044,0.010025512,1.440007599,1.443673728,0.680678427219,4500.0,0.654048621655,0.00403943611309,-0.0266297664493,119.833946228,1.34390354156,6000.0,1.33018147945,0.0150018958375,-0.0137220928445,77.7189254761,0.349065840244,0.0216827709228,0.00846574641764,0.000722141936421,-0.0016140450025,-0.0016140450025,-0.00223799538799,-0.0145749263465,-0.0220522172749,-0.0220522172749,-1.99115633965,-0.421237438917,2023,2028,2542,2035,2035,2926,3422,3421,3240,3363,3091,3052,3155,3146,3237,2854,3405,3412,3241,3363,3130,3351,3384,3193
1508405707427234165,145,1508405707426993730,plot_matl,0.0,0.0,1.40129846432e-45,4.59163467805e-41,6.64634639741e-25,4.58729065281e-41,0.349065840244,0.30498278141,1.33011817932,-0.00353813474067,0.00236401916482,0.00236401916482,0.0162674747407,-0.00664429366589,-99.9979324341,-99.9979324341,-138.757797241,-0.149599298835,2023,2056,2222,2036,2036,2913,3374,3388,3231,3332,3069,2894,3025,2947,3117,2733,3321,3345,3177,3264,2909,3260,3314,3044,0.009989575,1.449997939,1.448488375,0.680678427219,4500.0,0.654048621655,0.00385881145485,-0.0266297664493,119.833946228,1.34390354156,6000.0,1.33020281792,-0.0245766863227,-0.0137007134035,89.9708251953,0.349065840244,0.0216827709228,0.00846574641764,0.000722141936421,-0.0016140450025,-0.0016140450025,-0.00223799538799,-0.0145749263465,-0.0220522172749,-0.0220522172749,-1.99115633965,-0.421237438917,2023,2028,2542,2035,2035,2926,3422,3421,3240,3363,3091,3052,3155,3146,3237,2854,3405,3412,3241,3363,3130,3351,3384,3193
1508405707437368735,146,1508405707437062091,plot_matl,0.0,0.0,1.40129846432e-45,4.59163467805e-41,6.64634639741e-25,4.58729065281e-41,0.349065840244,0.30498278141,1.33011817932,-0.00353813474067,0.00236401916482,0.00236401916482,0.0162674747407,-0.00664429366589,-99.9979324341,-99.9979324341,-138.757797241,-0.149599298835,2030,2070,2222,2037,2037,2926,3387,3401,3242,3340,3075,2900,3033,2947,3117,2733,3321,3345,3177,3264,2909,3260,3314,3044,0.010070191,1.460067302,1.470247886,0.680678427219,4500.0,0.654048621655,0.00323760998435,-0.0266297664493,119.833946228,1.34390354156,6000.0,1.33022844791,-0.0232693571597,-0.0136750265956,89.4259185791,0.349065840244,0.0216827709228,0.00846574641764,0.000722141936421,-0.0016140450025,-0.0016140450025,-0.00223799538799,-0.0145749263465,-0.0220522172749,-0.0220522172749,-1.99115633965,-0.421237438917,2038,2024,2542,2035,2035,2936,3436,3434,3253,3372,3098,3061,3162,3146,3237,2854,3405,3412,3241,3363,3130,3351,3384,3193
1508405707447332728,147,1508405707446966082,plot_matl,0.0,0.0,1.40129846432e-45,4.59163467805e-41,6.64634639741e-25,4.58729065281e-41,0.349065840244,0.30498278141,1.33025312424,-0.00350330607034,0.00165085110348,0.00165085110348,0.0153412651271,0.00287213176489,-99.6271591187,-99.6271591187,-138.568862915,-0.448860019445,2018,2064,2222,2037,2037,2926,3387,3401,3242,3340,3075,2900,3033,2955,3123,2739,3327,3352,3183,3270,2912,3263,3319,3044,0.009900812,1.469969859,1.455419364,0.680678427219,4500.0,0.654048621655,0.00311786495149,-0.0266297664493,119.833946228,1.34390354156,6000.0,1.33021843433,0.0156893599778,-0.0136851118878,78.0670623779,0.349065840244,0.0216827709228,0.00849100295454,0.000736885063816,-0.000320361519698,-0.000320361519698,-0.00274229957722,0.00966306310147,-0.150835633278,-0.150835633278,-0.461897492409,-0.316376835108,2032,2028,2542,2035,2035,2936,3436,3434,3253,3372,3098,3061,3162,3154,3242,2859,3411,3416,3246,3367,3132,3355,3391,3193
1508405707457376306,148,1508405707456977658,plot_matl,0.0,0.0,1.40129846432e-45,4.59163467805e-41,6.64634639741e-25,4.58729065281e-41,0.349065840244,0.30498278141,1.33025312424,-0.00350330607034,0.00165085110348,0.00165085110348,0.0153412651271,0.00287213176489,-99.6271591187,-99.6271591187,-138.568862915,-0.448860019445,2013,2057,2222,2041,2041,2915,3375,3392,3232,3332,3070,2900,3033,2955,3123,2739,3327,3352,3183,3270,2912,3263,3319,3050,0.010013201,1.479982422,1.481953748,0.680678427219,4500.0,0.652699172497,-0.0231154114008,-0.027979247272,125.906616211,1.34390354156,6000.0,1.33006334305,0.0185415316373,-0.0138401351869,77.958694458,0.349065840244,0.0216827709228,0.00849100295454,0.000736885063816,-0.000320361519698,-0.000320361519698,-0.00274229957722,0.00966306310147,-0.150835633278,-0.150835633278,-0.461897492409,-0.316376835108,2023,2022,2542,2037,2037,2926,3426,3425,3242,3364,3093,3061,3162,3154,3242,2859,3411,3416,3246,3367,3132,3355,3391,3196
1508405707467596846,149,1508405707467033408,plot_matl,0.0,0.0,1.40129846432e-45,4.59163467805e-41,6.64634639741e-25,4.58729065281e-41,0.349065840244,0.30498278141,1.33025312424,-0.00350330607034,0.00165085110348,0.00165085110348,0.0153412651271,0.00287213176489,-99.6271591187,-99.6271591187,-138.568862915,-0.448860019445,2013,2059,2222,2041,2041,2915,3375,3392,3232,3332,3070,2895,3028,2951,3117,2735,3321,3348,3179,3266,2910,3263,3319,3050,0.010056863,1.490038899,1.498472587,0.680678427219,4500.0,0.654048621655,0.00532534113154,-0.0266297664493,119.833946228,1.34390354156,6000.0,1.33004045486,-0.0203094445169,-0.0138630140573,89.1070098877,0.349065840244,0.0216827709228,0.00849100295454,0.000736885063816,-0.000320361519698,-0.000320361519698,-0.00274229957722,0.00966306310147,-0.150835633278,-0.150835633278,-0.461897492409,-0.316376835108,2025,2020,2542,2037,2037,2926,3426,3425,3242,3364,3093,3054,3157,3149,3238,2856,3405,3413,3241,3365,3132,3355,3391,3196
1508405707477403010,150,1508405707477141575,plot_matl,0.0,0.0,1.40129846432e-45,4.59163467805e-41,6.64634639741e-25,4.58729065281e-41,0.349065840244,0.30498278141,1.33025312424,-0.00350330607034,0.00165085110348,0.00165085110348,0.0153412651271,0.00287213176489,-99.6271591187,-99.6271591187,-138.568862915,-0.448860019445,2015,2059,2222,2038,2038,2912,3374,3388,3232,3332,3070,2895,3028,2951,3117,2735,3321,3348,3179,3266,2910,3259,3317,3047,0.010117826,1.500157346,1.5176739,0.680678427219,4500.0,0.652699172497,-0.0213951952755,-0.027979247272,125.906616211,1.34390354156,6000.0,1.33009648323,-0.0216010026634,-0.0138070527464,89.5554504395,0.349065840244,0.0216827709228,0.00849100295454,0.000736885063816,-0.000320361519698,-0.000320361519698,-0.00274229957722,0.00966306310147,-0.150835633278,-0.150835633278,-0.461897492409,-0.316376835108,2024,2026,2543,2038,2038,2925,3424,3421,3240,3364,3093,3054,3157,3149,3238,2856,3405,3413,3241,3365,3132,3350,3387,3192
1508405707487383099,151,1508405707486969202,plot_matl,0.0,0.0,1.40129846432e-45,4.59163467805e-41,6.64634639741e-25,4.58729065281e-41,0.349065840244,0.30498278141,1.33011889458,-0.00348999653943,0.00271712406538,0.00271712406538,0.0170417781919,0.00232499651611,-99.4959259033,-99.4959259033,-138.646102905,0.0274216122925,2020,2058,2222,2038,2038,2912,3374,3388,3232,3333,3069,2895,3027,2949,3116,2734,3323,3347,3179,3266,2910,3259,3317,3047,0.009814786,1.509973445,1.482032686,0.680678427219,4500.0,0.654048621655,0.00524145597592,-0.0266297664493,119.833946228,1.34390354156,6000.0,1.33007371426,0.0177909452468,-0.0138298412785,77.9690551758,0.349065840244,0.0216827709228,0.00846308562905,0.00073500542203,0.00108379591256,0.00108379591256,-0.00218683155254,0.00962756946683,0.0720432773232,0.0720432773232,-0.54809898138,0.0252426750958,2023,2030,2543,2038,2038,2925,3424,3421,3240,3364,3092,3053,3156,3148,3238,2856,3403,3413,3240,3365,3132,3350,3387,3192
1508405707497414223,152,1508405707497009440,plot_matl,0.0,0.0,1.40129846432e-45,4.59163467805e-41,6.64634639741e-25,4.58729065281e-41,0.349065840244,0.30498278141,1.33011889458,-0.00348999653943,0.00271712406538,0.00271712406538,0.0170417781919,0.00232499651611,-99.4959259033,-99.4959259033,-138.646102905,0.0274216122925,2007,2042,2222,2039,2039,2913,3372,3388,3232,3333,3069,2895,3027,2949,3116,2734,3323,3347,3179,3263,2909,3259,3316,3046,0.010042827,1.520014601,1.526509704,0.680678427219,4500.0,0.654048621655,0.00471290620044,-0.0266297664493,119.833946228,1.34390354156,6000.0,1.33015465736,-0.0230728313327,-0.0137488087639,88.8225631714,0.349065840244,0.0216827709228,0.00846308562905,0.00073500542203,0.00108379591256,0.00108379591256,-0.00218683155254,0.00962756946683,0.0720432773232,0.0720432773232,-0.54809898138,0.0252426750958,2024,2028,2542,2037,2037,2923,3422,3421,3240,3364,3092,3053,3156,3148,3238,2856,3403,3413,3240,3364,3129,3352,3385,3194
1508405707507197387,153,1508405707506971700,plot_matl,0.0,0.0,1.40129846432e-45,4.59163467805e-41,6.64634639741e-25,4.58729065281e-41,0.349065840244,0.30498278141,1.33011889458,-0.00348999653943,0.00271712406538,0.00271712406538,0.0170417781919,0.00232499651611,-99.4959259033,-99.4959259033,-138.646102905,0.0274216122925,2009,2045,2222,2039,2039,2913,3372,3391,3232,3333,3070,2895,3027,2948,3117,2736,3323,3347,3179,3263,2909,3259,3316,3046,0.009959397,1.52997596,1.523787741,0.680678427219,4500.0,0.654048621655,0.00237293238752,-0.0266297664493,119.833946228,1.34390354156,6000.0,1.33015525341,-0.0231874659657,-0.0137482965365,88.6929321289,0.349065840244,0.0216827709228,0.00846308562905,0.00073500542203,0.00108379591256,0.00108379591256,-0.00218683155254,0.00962756946683,0.0720432773232,0.0720432773232,-0.54809898138,0.0252426750958,2026,2024,2542,2037,2037,2923,3422,3424,3238,3364,3091,3052,3156,3148,3236,2855,3405,3413,3240,3364,3129,3352,3385,3194
1508405707517261578,154,1508405707517007649,plot_matl,0.0,0.0,1.40129846432e-45,4.59163467805e-41,6.64634639741e-25,4.58729065281e-41,0.349065840244,0.30498278141,1.33011889458,-0.00348999653943,0.00271712406538,0.00271712406538,0.0170417781919,0.00232499651611,-99.4959259033,-99.4959259033,-138.646102905,0.0274216122925,2009,2045,2222,2039,2039,2913,3372,3391,3232,3333,3070,2895,3027,2948,3117,2736,3323,3347,3179,3263,2909,3259,3316,3046,0.010037007,1.540012277,1.545699078,0.680678427219,4500.0,0.654048621655,0.00237293238752,-0.0266297664493,119.833946228,1.34390354156,6000.0,1.33015525341,-0.0231874659657,-0.0137482965365,88.6929321289,0.349065840244,0.0216827709228,0.00846308562905,0.00073500542203,0.00108379591256,0.00108379591256,-0.00218683155254,0.00962756946683,0.0720432773232,0.0720432773232,-0.54809898138,0.0252426750958,2026,2024,2542,2037,2037,2923,3422,3424,3238,3364,3091,3052,3156,3148,3236,2855,3405,3413,3240,3364,3129,3352,3385,3194
1508405707527388206,155,1508405707526998873,plot_matl,0.0,0.0,1.40129846432e-45,4.59163467805e-41,6.64634639741e-25,4.58729065281e-41,0.349065840244,0.30498278141,1.33020424843,-0.00350685440935,0.000665263505653,0.000665263505653,-0.0228392630816,0.00291135534644,-99.1418991089,-99.1418991089,-139.032104492,0.0381846390665,2025,2063,2221,2038,2038,2913,3372,3391,3232,3333,3070,2895,3027,2948,3117,2736,3323,3348,3178,3265,2909,3271,3327,3059,0.009991225,1.550004063,1.548639875,0.680678427219,4500.0,0.654048621655,0.000678375829011,-0.0266297664493,119.833946228,1.34390354156,6000.0,1.33017516136,0.0165916606784,-0.0137283615768,77.8676834106,0.349065840244,0.0192735753953,0.00845165550709,0.000668710796162,-0.0238297842443,-0.0238297842443,-0.00251939077862,0.0110434265807,0.281765878201,0.281765878201,-0.412380635738,0.160178229213,2028,2030,2541,2037,2037,2923,3422,3424,3238,3364,3091,3052,3156,3148,3236,2855,3405,3412,3241,3364,3128,3363,3397,3205
1508405707537063499,156,1508405707536964478,plot_matl,0.0,0.0,1.40129846432e-45,4.59163467805e-41,6.64634639741e-25,4.58729065281e-41,0.349065840244,0.30498278141,1.33020424843,-0.00350685440935,0.000665263505653,0.000665263505653,-0.0228392630816,0.00291135534644,-99.1418991089,-99.1418991089,-139.032104492,0.0381846390665,2012,2050,2221,2038,2038,2918,3376,3394,3236,3335,3071,2898,3030,2951,3121,2736,3323,3348,3178,3265,2909,3271,3327,3059,0.009962535,1.559968142,1.55415546,0.680678427219,4500.0,0.654048621655,7.1609247243e-05,-0.0266297664493,119.833946228,1.34390354156,6000.0,1.33020305634,0.0157464314252,-0.0137004768476,77.7639083862,0.349065840244,0.0192735753953,0.00845165550709,0.000668710796162,-0.0238297842443,-0.0238297842443,-0.00251939077862,0.0110434265807,0.281765878201,0.281765878201,-0.412380635738,0.160178229213,2016,2025,2541,2037,2037,2930,3428,3426,3245,3366,3095,3056,3159,3149,3238,2855,3405,3412,3241,3364,3128,3363,3397,3205
1508405707547193231,157,1508405707546984263,plot_matl,0.0,0.0,1.40129846432e-45,4.59163467805e-41,6.64634639741e-25,4.58729065281e-41,0.349065840244,0.30498278141,1.33020424843,-0.00350685440935,0.000665263505653,0.000665263505653,-0.0228392630816,0.00291135534644,-99.1418991089,-99.1418991089,-139.032104492,0.0381846390665,2014,2055,2222,2038,2038,2918,3376,3394,3236,3335,3071,2898,3030,2951,3121,2738,3325,3348,3177,3269,2910,3261,3318,3047,0.010022756,1.569989659,1.573572692,0.680678427219,4500.0,0.656747579575,0.053526841104,-0.0239308029413,107.688613892,1.34390354156,6000.0,1.3301602602,-0.022697435692,-0.0137432757765,89.7881240845,0.349065840244,0.0192735753953,0.00845165550709,0.000668710796162,-0.0238297842443,-0.0238297842443,-0.00251939077862,0.0110434265807,0.281765878201,0.281765878201,-0.412380635738,0.160178229213,2028,2037,2541,2037,2037,2930,3428,3426,3245,3366,3095,3056,3159,3149,3238,2857,3407,3414,3245,3368,3133,3352,3388,3195
1508405707557398901,158,1508405707557018188,plot_matl,0.0,0.0,1.40129846432e-45,4.59163467805e-41,6.64634639741e-25,4.58729065281e-41,0.349065840244,0.30498278141,1.33020424843,-0.00350685440935,0.000665263505653,0.000665263505653,-0.0228392630816,0.00291135534644,-99.1418991089,-99.1418991089,-139.032104492,0.0381846390665,2017,2049,2222,2038,2038,2913,3371,3389,3231,3333,3069,2892,3028,2949,3118,2736,3322,3349,3179,3265,2907,3261,3316,3047,0.010033084,1.580023504,1.585227272,0.680678427219,4500.0,0.655398130417,0.0259688720107,-0.025280283764,113.761283875,1.34390354156,6000.0,1.33009040356,0.0176408607513,-0.0138131398708,77.6984634399,0.349065840244,0.0192735753953,0.00845165550709,0.000668710796162,-0.0238297842443,-0.0238297842443,-0.00251939077862,0.0110434265807,0.281765878201,0.281765878201,-0.412380635738,0.160178229213,2026,2031,2541,2031,2031,2926,3424,3422,3241,3362,3092,3053,3156,3147,3237,2854,3405,3413,3241,3366,3129,3353,3386,3195
1508405707567580968,159,1508405707567089686,plot_matl,0.0,0.0,1.40129846432e-45,4.59163467805e-41,6.64634639741e-25,4.58729065281e-41,0.349065840244,0.30363330245,1.3300794363,-0.00351576413959,-0.0139557011425,-0.0139557011425,-0.0212746504694,0.00283540133387,-98.9877700806,-98.9877700806,-139.419769287,0.0367660596967,2017,2049,2222,2038,2038,2913,3371,3389,3231,3333,3069,2892,3028,2949,3118,2736,3322,3349,3179,3265,2907,3261,3316,3047,0.010068345,1.590093349,1.600866855,0.680678427219,4500.0,0.655398130417,0.0255971681327,-0.025280283764,113.761283875,1.34390354156,6000.0,1.33006834984,-0.0210540480912,-0.0138351246715,89.7846832275,0.349065840244,0.0216827709228,0.00848262850195,0.000717972056009,-0.000129916879814,-0.000129916879814,-0.00281573319808,0.0100397961214,0.0863405913115,0.0863405913115,-1.64310872555,0.156994014978,2026,2031,2541,2031,2031,2926,3424,3422,3241,3362,3092,3053,3156,3147,3237,2854,3405,3413,3241,3366,3129,3353,3386,3195
1508405707577060586,160,1508405707576964648,plot_matl,0.0,0.0,1.40129846432e-45,4.59163467805e-41,6.64634639741e-25,4.58729065281e-41,0.349065840244,0.30363330245,1.3300794363,-0.00351576413959,-0.0139557011425,-0.0139557011425,-0.0212746504694,0.00283540133387,-98.9877700806,-98.9877700806,-139.419769287,0.0367660596967,2024,2061,2222,2034,2034,2913,3373,3390,3230,3330,3068,2893,3025,2948,3115,2733,3322,3346,3180,3266,2908,3261,3316,3047,0.009874828,1.599968262,1.57997248,0.680678427219,4500.0,0.654048621655,-0.00132374232635,-0.0266297664493,119.833946228,1.34390354156,6000.0,1.32997691631,-0.0193475466222,-0.0139265600592,89.7434234619,0.349065840244,0.0216827709228,0.00848262850195,0.000717972056009,-0.000129916879814,-0.000129916879814,-0.00281573319808,0.0100397961214,0.0863405913115,0.0863405913115,-1.64310872555,0.156994014978,2020,2035,2542,2034,2034,2925,3422,3424,3241,3363,3090,3053,3155,3148,3236,2855,3403,3410,3242,3365,3128,3353,3386,3193
1508405707587486820,161,1508405707587047714,plot_matl,0.0,0.0,1.40129846432e-45,4.59163467805e-41,6.64634639741e-25,4.58729065281e-41,0.349065840244,0.30363330245,1.3300794363,-0.00351576413959,-0.0139557011425,-0.0139557011425,-0.0212746504694,0.00283540133387,-98.9877700806,-98.9877700806,-139.419769287,0.0367660596967,2024,2061,2222,2034,2034,2913,3373,3390,3230,3330,3068,2893,3025,2948,3115,2733,3322,3346,3180,3266,2908,3261,3316,3047,0.010086252,1.610053094,1.623886572,0.680678427219,4500.0,0.654048621655,-0.00114694645163,-0.0266297664493,119.833946228,1.34390354156,6000.0,1.33004748821,0.0181972794235,-0.0138560738415,78.1254882812,0.349065840244,0.0216827709228,0.00848262850195,0.000717972056009,-0.000129916879814,-0.000129916879814,-0.00281573319808,0.0100397961214,0.0863405913115,0.0863405913115,-1.64310872555,0.156994014978,2020,2035,2542,2034,2034,2925,3422,3424,3241,3363,3090,3053,3155,3148,3236,2855,3403,3410,3242,3365,3128,3353,3386,3193
1508405707597450700,162,1508405707597047706,plot_matl,0.0,0.0,1.40129846432e-45,4.59163467805e-41,6.64634639741e-25,4.58729065281e-41,0.349065840244,0.30363330245,1.3300794363,-0.00351576413959,-0.0139557011425,-0.0139557011425,-0.0212746504694,0.00283540133387,-98.9877700806,-98.9877700806,-139.419769287,0.0367660596967,2025,2059,2222,2035,2035,2913,3371,3388,3233,3330,3068,2893,3025,2948,3115,2733,3322,3346,3180,3266,2908,3257,3314,3046,0.009999907,1.620053262,1.619984934,0.680678427219,4500.0,0.654048621655,-0.000492191116791,-0.0266297664493,119.833946228,1.34390354156,6000.0,1.33006501198,0.0176983885467,-0.0138385109603,77.8061828613,0.349065840244,0.0216827709228,0.00848262850195,0.000717972056009,-0.000129916879814,-0.000129916879814,-0.00281573319808,0.0100397961214,0.0863405913115,0.0863405913115,-1.64310872555,0.156994014978,2023,2026,2542,2034,2034,2924,3422,3424,3239,3363,3090,3053,3155,3148,3236,2855,3403,3410,3242,3365,3128,3351,3385,3194
1508405707607543539,163,1508405707607056830,plot_matl,0.0,0.0,1.40129846432e-45,4.59163467805e-41,6.64634639741e-25,4.58729065281e-41,0.349065840244,0.30363330245,1.33009147644,-0.00349673861638,-0.0135818962008,-0.0135818962008,-0.0219635106623,0.00236391392536,-99.2562789917,-99.2562789917,-139.666381836,0.0152413714677,2017,2055,2222,2035,2035,2913,3371,3388,3233,3332,3069,2894,3027,2948,3117,2735,3321,3346,3179,3266,2908,3257,3314,3046,0.010009194,1.630061961,1.631498622,0.680678427219,4500.0,0.652699172497,-0.0276743788272,-0.027979247272,125.906616211,1.34390354156,6000.0,1.33014476299,0.0159308221191,-0.0137588195503,78.2084579468,0.349065840244,0.0192735753953,0.00845353491604,0.00071809993824,-0.0220796596259,-0.0220796596259,-0.00210537388921,-0.0145100718364,-0.172257140279,-0.172257140279,-0.497392117977,0.411014616489,2026,2023,2542,2034,2034,2924,3422,3424,3239,3363,3091,3053,3156,3146,3239,2855,3405,3412,3241,3365,3128,3351,3385,3194
1508405707617246837,164,1508405707616990359,plot_matl,0.0,0.0,1.40129846432e-45,4.59163467805e-41,6.64634639741e-25,4.58729065281e-41,0.349065840244,0.30363330245,1.33009147644,-0.00349673861638,-0.0135818962008,-0.0135818962008,-0.0219635106623,0.00236391392536,-99.2562789917,-99.2562789917,-139.666381836,0.0152413714677,2025,2058,2222,2034,2034,2914,3373,3388,3233,3332,3069,2894,3027,2948,3117,2735,3321,3346,3179,3264,2907,3259,3316,3046,0.009931985,1.639995529,1.62884554,0.680678427219,4500.0,0.652699172497,-0.0254978425801,-0.027979247272,125.906616211,1.34390354156,6000.0,1.33010935783,-0.022429453209,-0.0137941716239,89.3349380493,0.349065840244,0.0192735753953,0.00845353491604,0.00071809993824,-0.0220796596259,-0.0220796596259,-0.00210537388921,-0.0145100718364,-0.172257140279,-0.172257140279,-0.497392117977,0.411014616489,2030,2024,2542,2038,2038,2924,3424,3424,3239,3363,3091,3053,3156,3146,3239,2855,3405,3412,3241,3365,3129,3351,3385,3193
1508405707627197268,165,1508405707626984306,plot_matl,0.0,0.0,1.40129846432e-45,4.59163467805e-41,6.64634639741e-25,4.58729065281e-41,0.349065840244,0.30363330245,1.33009147644,-0.00349673861638,-0.0135818962008,-0.0135818962008,-0.0219635106623,0.00236391392536,-99.2562789917,-99.2562789917,-139.666381836,0.0152413714677,2027,2062,2222,2034,2034,2914,3373,3388,3232,3333,3069,2891,3028,2948,3116,2734,3322,3346,3179,3264,2907,3259,3316,3046,0.009992845,1.649989458,1.648819425,0.680678427219,4500.0,0.654048621655,0.00251541682519,-0.0266297664493,119.833946228,1.34390354156,6000.0,1.3300743103,-0.0217540282756,-0.0138292713091,89.6401062012,0.349065840244,0.0192735753953,0.00845353491604,0.00071809993824,-0.0220796596259,-0.0220796596259,-0.00210537388921,-0.0145100718364,-0.172257140279,-0.172257140279,-0.497392117977,0.411014616489,2024,2023,2542,2038,2038,2924,3424,3423,3240,3362,3091,3052,3155,3147,3236,2855,3405,3412,3241,3365,3129,3351,3385,3193
1508405707637169842,166,1508405707636975505,plot_matl,0.0,0.0,1.40129846432e-45,4.59163467805e-41,6.64634639741e-25,4.58729065281e-41,0.349065840244,0.30363330245,1.33009147644,-0.00349673861638,-0.0135818962008,-0.0135818962008,-0.0219635106623,0.00236391392536,-99.2562789917,-99.2562789917,-139.666381836,0.0152413714677,2016,2051,2222,2034,2034,2912,3372,3389,3229,3332,3068,2893,3026,2948,3117,2734,3322,3348,3178,3265,2908,3259,3317,3045,0.009989602,1.659979664,1.658273932,0.680678427219,4500.0,0.654048621655,0.00206166994758,-0.0266297664493,119.833946228,1.34390354156,6000.0,1.3299819231,-0.0198996029794,-0.0139215793461,89.5499191284,0.349065840244,0.0192735753953,0.00845353491604,0.00071809993824,-0.0220796596259,-0.0220796596259,-0.00210537388921,-0.0145100718364,-0.172257140279,-0.172257140279,-0.497392117977,0.411014616489,2030,2024,2542,2036,2036,2923,3422,3421,3240,3361,3090,3052,3156,3147,3238,2855,3405,3411,3242,3364,3129,3349,3388,3193
1508405707647380099,167,1508405707646973048,plot_matl,0.0,0.0,1.40129846432e-45,4.59163467805e-41,6.64634639741e-25,4.58729065281e-41,0.349065840244,0.30363330245,1.32994377613,-0.00348502025008,-0.0124089801684,-0.0124089801684,0.0199362654239,0.00207594037056,-99.6848907471,-99.6848907471,-139.652603149,-0.138333439827,2016,2051,2222,2034,2034,2912,3372,3389,3229,3332,3068,2893,3026,2948,3117,2734,3322,3348,3178,3265,2908,3259,3317,3045,0.009997625,1.669977168,1.669603375,0.680678427219,4500.0,0.652699172497,-0.0250938124955,-0.027979247272,125.906616211,1.34390354156,6000.0,1.32986831665,-0.0176420044154,-0.0140351708978,90.0893325806,0.349065840244,0.0216827709228,0.00843871291727,0.000773703563027,7.44531716919e-05,7.44531716919e-05,-0.00174520525616,-0.0156573895365,-0.271073251963,-0.271073251963,-0.499909311533,0.186392173171,2030,2024,2542,2036,2036,2923,3422,3421,3240,3361,3090,3052,3156,3147,3238,2855,3405,3411,3242,3364,3129,3349,3388,3193
1508405707657389579,168,1508405707656985223,plot_matl,0.0,0.0,1.40129846432e-45,4.59163467805e-41,6.64634639741e-25,4.58729065281e-41,0.349065840244,0.30363330245,1.32994377613,-0.00348502025008,-0.0124089801684,-0.0124089801684,0.0199362654239,0.00207594037056,-99.6848907471,-99.6848907471,-139.652603149,-0.138333439827,2020,2055,2222,2033,2033,2911,3374,3388,3233,3328,3070,2894,3027,2948,3117,2734,3322,3346,3179,3264,2910,3261,3314,3045,0.010013581,1.679990448,1.682281608,0.680678427219,4500.0,0.654048621655,0.00223278906196,-0.0266297664493,119.833946228,1.34390354156,6000.0,1.32988357544,0.021067166701,-0.0140199512243,77.425239563,0.349065840244,0.0216827709228,0.00843871291727,0.000773703563027,7.44531716919e-05,7.44531716919e-05,-0.00174520525616,-0.0156573895365,-0.271073251963,-0.271073251963,-0.499909311533,0.186392173171,2025,2021,2542,2037,2037,2924,3424,3423,3240,3364,3091,3051,3156,3147,3238,2854,3404,3412,3241,3364,3129,3351,3387,3193
1508405707667232720,169,1508405707667006927,plot_matl,0.0,0.0,1.40129846432e-45,4.59163467805e-41,6.64634639741e-25,4.58729065281e-41,0.349065840244,0.30363330245,1.32994377613,-0.00348502025008,-0.0124089801684,-0.0124089801684,0.0199362654239,0.00207594037056,-99.6848907471,-99.6848907471,-139.652603149,-0.138333439827,2017,2048,2222,2033,2033,2911,3374,3388,3233,3328,3070,2894,3027,2948,3117,2735,3323,3347,3177,3265,2910,3259,3317,3045,0.01002008,1.690011603,1.69339352,0.680678427219,4500.0,0.652699172497,-0.0248529501259,-0.027979247272,125.906616211,1.34390354156,6000.0,1.32989776134,0.0208174716681,-0.0140057848766,76.9363174438,0.349065840244,0.0216827709228,0.00843871291727,0.000773703563027,7.44531716919e-05,7.44531716919e-05,-0.00174520525616,-0.0156573895365,-0.271073251963,-0.271073251963,-0.499909311533,0.186392173171,2033,2027,2542,2037,2037,2924,3424,3423,3240,3364,3091,3051,3156,3147,3237,2855,3404,3412,3242,3365,3129,3349,3384,3193
1508405707677358469,170,1508405707676996941,plot_matl,0.0,0.0,1.40129846432e-45,4.59163467805e-41,6.64634639741e-25,4.58729065281e-41,0.349065840244,0.30363330245,1.32994377613,-0.00348502025008,-0.0124089801684,-0.0124089801684,0.0199362654239,0.00207594037056,-99.6848907471,-99.6848907471,-139.652603149,-0.138333439827,2017,2048,2222,2033,2033,2911,3374,3388,3233,3328,3070,2894,3027,2948,3117,2735,3323,3347,3177,3265,2910,3259,3317,3045,0.009991272,1.700002281,1.69851624,0.680678427219,4500.0,0.652699172497,-0.0237438771874,-0.027979247272,125.906616211,1.34390354156,6000.0,1.32987761497,0.0212934762239,-0.0140258846804,77.506401062,0.349065840244,0.0216827709228,0.00843871291727,0.000773703563027,7.44531716919e-05,7.44531716919e-05,-0.00174520525616,-0.0156573895365,-0.271073251963,-0.271073251963,-0.499909311533,0.186392173171,2033,2027,2542,2037,2037,2924,3424,3423,3240,3364,3091,3051,3156,3147,3237,2855,3404,3412,3242,3365,3129,3349,3384,3193
1508405707687395780,171,1508405707686976329,plot_matl,0.0,0.0,1.40129846432e-45,4.59163467805e-41,6.64634639741e-25,4.58729065281e-41,0.349065840244,0.30498278141,1.32980930805,-0.00348270428367,0.00160199729726,0.00160199729726,-0.0163906794041,-0.00775084691122,-99.6452789307,-99.6452789307,-139.677200317,-0.286196619272,2019,2050,2222,2035,2035,2914,3371,3390,3230,3331,3069,2893,3027,2949,3116,2735,3322,3347,3178,3264,2907,3259,3317,3046,0.009978349,1.70998116,1.706297679,0.680678427219,4500.0,0.654048621655,0.00182887737174,-0.0266297664493,119.833946228,1.34390354156,6000.0,1.32975566387,0.0237450152636,-0.0141478246078,77.8251190186,0.349065840244,0.0216827709228,0.00841870624572,0.00076720683137,-0.00151769956574,-0.00151769956574,-0.00132468575612,0.00900789536536,-0.30150142312,-0.30150142312,0.0565855056047,0.488343805075,2025,2028,2542,2036,2036,2925,3422,3422,3241,3363,3090,3053,3154,3147,3239,2855,3404,3411,3242,3362,3130,3349,3384,3191
1508405707697347595,172,1508405707697002810,plot_matl,0.0,0.0,1.40129846432e-45,4.59163467805e-41,6.64634639741e-25,4.58729065281e-41,0.349065840244,0.30498278141,1.32980930805,-0.00348270428367,0.00160199729726,0.00160199729726,-0.0163906794041,-0.00775084691122,-99.6452789307,-99.6452789307,-139.677200317,-0.286196619272,2018,2047,2222,2032,2032,2913,3374,3389,3232,3331,3069,2893,3027,2949,3116,2735,3322,3347,3178,3264,2907,3259,3314,3045,0.010025723,1.720007605,1.724424356,0.680678427219,4500.0,0.654048621655,0.00149592396338,-0.0266297664493,119.833946228,1.34390354156,6000.0,1.3296482563,-0.0132375191897,-0.0142552386969,89.7077102661,0.349065840244,0.0216827709228,0.00841870624572,0.00076720683137,-0.00151769956574,-0.00151769956574,-0.00132468575612,0.00900789536536,-0.30150142312,-0.30150142312,0.0565855056047,0.488343805075,2028,2019,2542,2039,2039,2924,3422,3424,3238,3363,3090,3053,3154,3147,3239,2855,3404,3411,3242,3362,3130,3351,3386,3192
1508405707707325218,173,1508405707706989342,plot_matl,0.0,0.0,1.40129846432e-45,4.59163467805e-41,6.64634639741e-25,4.58729065281e-41,0.349065840244,0.30498278141,1.32980930805,-0.00348270428367,0.00160199729726,0.00160199729726,-0.0163906794041,-0.00775084691122,-99.6452789307,-99.6452789307,-139.677200317,-0.286196619272,2018,2047,2222,2032,2032,2913,3374,3389,3232,3331,3069,2893,3027,2949,3116,2735,3322,3347,3178,3264,2907,3259,3314,3045,0.009986692,1.729994331,1.727697716,0.680678427219,4500.0,0.652699172497,-0.0240380913019,-0.027979247272,125.906616211,1.34390354156,6000.0,1.32966828346,0.02543772012,-0.0142352432013,77.166633606,0.349065840244,0.0216827709228,0.00841870624572,0.00076720683137,-0.00151769956574,-0.00151769956574,-0.00132468575612,0.00900789536536,-0.30150142312,-0.30150142312,0.0565855056047,0.488343805075,2028,2019,2542,2039,2039,2924,3422,3424,3238,3363,3090,3053,3154,3147,3239,2855,3404,3411,3242,3362,3130,3351,3386,3192
1508405707717353094,174,1508405707716980966,plot_matl,0.0,0.0,1.40129846432e-45,4.59163467805e-41,6.64634639741e-25,4.58729065281e-41,0.349065840244,0.30498278141,1.32980930805,-0.00348270428367,0.00160199729726,0.00160199729726,-0.0163906794041,-0.00775084691122,-99.6452789307,-99.6452789307,-139.677200317,-0.286196619272,2027,2061,2222,2032,2032,2913,3374,3389,3232,3332,3070,2894,3025,2946,3117,2734,3323,3363,3191,3264,2907,3259,3314,3045,0.0099917,1.739986035,1.7385558,0.680678427219,4500.0,0.652699172497,-0.0240380913019,-0.027979247272,125.906616211,1.34390354156,6000.0,1.32960247993,-0.0123524721712,-0.0143010504544,89.6331939697,0.349065840244,0.0216827709228,0.00841870624572,0.00076720683137,-0.00151769956574,-0.00151769956574,-0.00132468575612,0.00900789536536,-0.30150142312,-0.30150142312,0.0565855056047,0.488343805075,2029,2036,2542,2039,2039,2924,3422,3424,3238,3361,3092,3054,3155,3146,3237,2854,3404,3427,3255,3362,3130,3351,3386,3192
1508405707727374177,175,1508405707726987841,plot_matl,0.0,0.0,1.40129846432e-45,4.59163467805e-41,6.64634639741e-25,4.58729065281e-41,0.349065840244,0.30498278141,1.32958722115,-0.00352735957131,0.0023261916358,0.0023261916358,-0.0120543465018,0.00245235441253,-99.5519714355,-99.5519714355,-139.253265381,-0.356702744961,2023,2055,2222,2036,2036,2917,3378,3389,3232,3332,3070,2894,3025,2946,3117,2734,3323,3363,3191,3278,2918,3269,3325,3056,0.010006529,1.749992836,1.751142575,0.680678427219,4500.0,0.654048621655,0.00365600571968,-0.0266297664493,119.833946228,1.34390354156,6000.0,1.32960546017,0.0266488846391,-0.0142980739474,77.1858673096,0.349065840244,0.0265011657029,0.00844213645905,0.000651458511129,0.0453431382775,0.0453431382775,0.0136109022424,0.0101680429652,-0.311817795038,-0.311817795038,-0.0732342302799,1.24243462086,2025,2023,2542,2037,2037,2928,3427,3424,3238,3361,3092,3054,3155,3146,3237,2854,3404,3427,3255,3375,3140,3358,3394,3203
1508405707737472919,176,1508405707737018795,plot_matl,0.0,0.0,1.40129846432e-45,4.59163467805e-41,6.64634639741e-25,4.58729065281e-41,0.349065840244,0.30498278141,1.32958722115,-0.00352735957131,0.0023261916358,0.0023261916358,-0.0120543465018,0.00245235441253,-99.5519714355,-99.5519714355,-139.253265381,-0.356702744961,2029,2058,2222,2036,2036,2917,3378,3392,3238,3335,3073,2897,3028,2952,3117,2738,3325,3363,3191,3278,2918,3269,3325,3056,0.010030082,1.76002375,1.765294432,0.680678427219,4500.0,0.654048621655,0.00203693518415,-0.0266297664493,119.833946228,1.34390354156,6000.0,1.32956922054,0.0273909587413,-0.0143343368545,77.8455047607,0.349065840244,0.0265011657029,0.00844213645905,0.000651458511129,0.0453431382775,0.0453431382775,0.0136109022424,0.0101680429652,-0.311817795038,-0.311817795038,-0.0732342302799,1.24243462086,2025,2030,2542,2037,2037,2928,3427,3425,3243,3366,3094,3057,3157,3149,3239,2856,3407,3427,3255,3375,3140,3358,3394,3203
1508405707747160309,177,1508405707746971756,plot_matl,0.0,0.0,1.40129846432e-45,4.59163467805e-41,6.64634639741e-25,4.58729065281e-41,0.349065840244,0.30498278141,1.32958722115,-0.00352735957131,0.0023261916358,0.0023261916358,-0.0120543465018,0.00245235441253,-99.5519714355,-99.5519714355,-139.253265381,-0.356702744961,2027,2064,2222,2036,2036,2917,3378,3392,3238,3335,3073,2897,3028,2952,3117,2738,3325,3350,3181,3265,2910,3260,3315,3047,0.009951286,1.76997588,1.761377622,0.680678427219,4500.0,0.655398130417,0.0279880631715,-0.025280283764,113.761283875,1.34390354156,6000.0,1.32963609695,-0.0130556067452,-0.0142674446106,89.632774353,0.349065840244,0.0265011657029,0.00844213645905,0.000651458511129,0.0453431382775,0.0453431382775,0.0136109022424,0.0101680429652,-0.311817795038,-0.311817795038,-0.0732342302799,1.24243462086,2021,2027,2542,2039,2039,2928,3427,3425,3243,3366,3094,3057,3157,3149,3239,2856,3407,3414,3242,3368,3131,3352,3387,3194
