%time,field.header.seq,field.header.stamp,field.header.frame_id,field.FFJ4_set_point,field.FFJ4_position_gain,field.FFJ4_process_value,field.FFJ4_process_value_dot,field.FFJ4_error,field.FFJ4_command,field.FFJ1,field.FFJ2,field.FFJ3,field.FFJ4,field.FFJ1_dot,field.FFJ2_dot,field.FFJ3_dot,field.FFJ4_dot,field.FFJ1_tao,field.FFJ2_tao,field.FFJ3_tao,field.FFJ4_tao,field.pac0,field.pac1,field.pdc0,field.tac0,field.tdc0,field.el0,field.el1,field.el2,field.el3,field.el4,field.el5,field.el6,field.el7,field.el8,field.el9,field.el10,field.el11,field.el12,field.el13,field.el14,field.el15,field.el16,field.el17,field.el18,field.dt,field.time,field.test_time2,field.FFJ0_set_point,field.FFJ0_position_gain,field.FFJ0_process_value,field.FFJ0_process_value_dot,field.FFJ0_error,field.FFJ0_command,field.FFJ3_set_point,field.FFJ3_position_gain,field.FFJ3_process_value,field.FFJ3_process_value_dot,field.FFJ3_error,field.FFJ3_command,field.MFJ1,field.MFJ2,field.MFJ3,field.MFJ4,field.MFJ1_dot,field.MFJ2_dot,field.MFJ3_dot,field.MFJ4_dot,field.MFJ1_tao,field.MFJ2_tao,field.MFJ3_tao,field.MFJ4_tao,field.Mpac0,field.Mpac1,field.Mpdc0,field.Mtac0,field.Mtdc0,field.Mel0,field.Mel1,field.Mel2,field.Mel3,field.Mel4,field.Mel5,field.Mel6,field.Mel7,field.Mel8,field.Mel9,field.Mel10,field.Mel11,field.Mel12,field.Mel13,field.Mel14,field.Mel15,field.Mel16,field.Mel17,field.Mel18
1508405837805575009,108,1508405837805104567,plot_matl,0.0,0.0,1.40129846432e-45,4.59163467805e-41,-0.0331743061543,4.55800351491e-41,0.349065840244,0.30498278141,1.33005928993,-0.00347247975878,0.00162334786728,0.00162334786728,0.0172087457031,0.00180945103057,-97.5532073975,-97.5532073975,-136.034622192,0.198281705379,1999,2042,2222,2031,2031,2904,3370,3386,3230,3330,3065,2891,3020,2944,3112,2734,3321,3346,3180,3265,2909,3257,3314,3045,0.010025126,1.07999126,1.082713608,0.680678427219,4500.0,0.654048621655,0.00305743212812,-0.0266297664493,119.833946228,1.34390354156,6000.0,1.33007109165,-0.0220988690853,-0.0138324107975,89.5811309814,0.349065840244,0.0216827709228,0.00845791120082,0.000899315171409,-0.00201517017558,-0.00201517017558,-0.00210787844844,0.00631812913343,-0.197873488069,-0.197873488069,-1.08831787109,-0.213029146194,2024,2032,2544,2043,2043,2919,3421,3423,3238,3363,3088,3051,3155,3146,3237,2853,3403,3412,3240,3364,3129,3350,3384,3192
1508405837815263980,109,1508405837815069831,plot_matl,0.0,0.0,1.40129846432e-45,4.59163467805e-41,-0.0331743061543,4.55800351491e-41,0.349065840244,0.30498278141,1.33014595509,-0.00346473883837,0.00160593399778,0.00160593399778,0.0155116757378,0.00165594706777,-97.4818878174,-97.4818878174,-136.040237427,0.247579157352,2112,2152,2222,2031,2031,2904,3370,3385,3228,3331,3065,2888,3021,2949,3115,2737,3322,3346,3180,3265,2909,3257,3314,3045,0.009964061,1.089956167,1.086082649,0.680678427219,4500.0,0.652699172497,-0.023177428171,-0.027979247272,125.906616211,1.34390354156,6000.0,1.33019006252,0.014629391022,-0.0137135209516,78.0612335205,0.349065840244,0.0216827709228,0.00843918230385,0.000914572621696,-0.00164734292775,-0.00164734292775,-0.00172312930226,0.00603487482294,-0.236739695072,-0.236739695072,-0.96837836504,0.0023737240117,2010,2011,2544,2043,2043,2919,3421,3422,3239,3362,3088,3050,3152,3146,3236,2853,3404,3412,3240,3364,3129,3350,3384,3192
1508405837825409612,110,1508405837825106710,plot_matl,0.0,0.0,1.40129846432e-45,4.59163467805e-41,-0.0331743061543,4.55800351491e-41,0.349065840244,0.30363330245,1.33020758629,-0.00346086476929,-0.0115549070761,-0.0115549070761,-0.024845296517,-0.00820231065154,-97.4293136597,-97.4293136597,-135.920822144,0.482192486525,2013,2079,2222,2032,2032,2904,3370,3385,3228,3331,3065,2888,3021,2949,3115,2737,3322,3346,3177,3262,2909,3255,3313,3043,0.010038174,1.099993547,1.10419914,0.680678427219,4500.0,0.652699172497,-0.0223123747855,-0.027979247272,125.906616211,1.34390354156,6000.0,1.33017385006,-0.0241864454001,-0.0137297241017,88.8460464478,0.349065840244,0.0216827709228,0.00843778531998,0.0008786515682,-0.00222319480963,-0.00222319480963,-0.00168030371424,-0.0177319720387,-0.265115052462,-0.265115052462,-1.52559137344,0.281305044889,2019,2016,2544,2043,2043,2919,3421,3422,3239,3362,3088,3050,3152,3146,3236,2853,3404,3412,3241,3365,3127,3352,3386,3192
1508405837835472679,111,1508405837835091625,plot_matl,0.0,0.0,1.40129846432e-45,4.59163467805e-41,-0.0331743061543,4.55800351491e-41,0.349065840244,0.30498278141,1.33020269871,-0.00346548343077,0.00240631238557,0.00240631238557,0.0143659301102,0.0016254420625,-97.4574127197,-97.4574127197,-135.936920166,0.411434412003,1912,1968,2222,2032,2032,2905,3369,3387,3227,3329,3065,2889,3021,2941,3112,2737,3322,3346,3177,3262,2909,3255,3313,3043,0.009984504,1.109978607,1.108279944,0.680678427219,4500.0,0.652699172497,-0.0221955664456,-0.027979247272,125.906616211,1.34390354156,6000.0,1.33016884327,0.0150509178638,-0.0137346219271,77.8959884644,0.349065840244,0.0216827709228,0.00843647029251,0.000874020915944,-0.00227602315135,-0.00227602315135,-0.00166123977397,0.00684522138909,-0.245223626494,-0.245223626494,-1.18491101265,0.247593462467,2045,2049,2544,2043,2043,2920,3421,3421,3239,3361,3088,3050,3155,3147,3237,2853,3404,3412,3241,3365,3127,3352,3386,3192
1508405837845482780,112,1508405837845068070,plot_matl,0.0,0.0,1.40129846432e-45,4.59163467805e-41,-0.0331743061543,4.55800351491e-41,0.349065840244,0.30498278141,1.33016419411,-0.00347725604661,0.00217583565973,0.00217583565973,0.0152188250795,-0.00789343938231,-97.4044418335,-97.4044418335,-135.807342529,0.244275987148,2001,2034,2222,2032,2032,2905,3369,3387,3227,3329,3065,2889,3021,2941,3112,2733,3322,3345,3179,3264,2910,3259,3314,3045,0.00997613,1.119955278,1.11732656,0.680678427219,4500.0,0.654048621655,0.00409520044923,-0.0266297664493,119.833946228,1.34390354156,6000.0,1.33017146587,0.015082616359,-0.0137320989743,77.8948974609,0.349065840244,0.0216827709228,0.00842173397541,0.000913262192626,-0.00100120576099,-0.00100120576099,-0.00135964795481,0.00605824496597,-0.152025550604,-0.152025550604,-1.47575330734,0.117456138134,2027,2026,2544,2043,2043,2920,3421,3421,3239,3361,3088,3050,3155,3147,3237,2853,3406,3411,3239,3362,3131,3350,3385,3194
1508405837855549516,113,1508405837855117516,plot_matl,0.0,0.0,1.40129846432e-45,4.59163467805e-41,-0.0331743061543,4.55800351491e-41,0.349065840244,0.30498278141,1.33015918732,-0.00345228263177,0.00152099714614,0.00152099714614,0.0152952969074,0.00136994686909,-97.5405502319,-97.5405502319,-135.810455322,0.183203548193,2107,2142,2222,2033,2033,2905,3369,3385,3227,3328,3065,2891,3024,2941,3112,2733,3322,3345,3179,3264,2910,3259,3314,3045,0.010049491,1.130004839,1.135592483,0.680678427219,4500.0,0.654048621655,0.00337346829474,-0.0266297664493,119.833946228,1.34390354156,6000.0,1.33009111881,-0.0224291756749,-0.0138124385849,89.0816192627,0.349065840244,0.0216827709228,0.00843680743128,0.000946295680478,-0.000404767808504,-0.000404767808504,-0.00167857320048,0.00537860486656,-0.442759037018,-0.442759037018,-1.1712474823,-0.0681146532297,2014,2009,2544,2044,2044,2920,3422,3420,3238,3361,3089,3052,3153,3147,3237,2853,3406,3411,3239,3362,3131,3350,3385,3194
1508405837865606945,114,1508405837865108675,plot_matl,0.0,0.0,1.40129846432e-45,4.59163467805e-41,-0.0331743061543,4.55800351491e-41,0.349065840244,0.30498278141,1.33012855053,-0.00347557407804,0.00195338088088,0.00195338088088,0.015908729285,0.00182074739132,-97.6668701172,-97.6668701172,-135.774841309,0.150009423494,2025,2072,2222,2033,2033,2905,3369,3385,3227,3328,3065,2891,3024,2948,3113,2736,3322,3346,3178,3264,2910,3257,3313,3045,0.009991084,1.139995667,1.138983576,0.680678427219,4500.0,0.652699172497,-0.0225259903818,-0.027979247272,125.906616211,1.34390354156,6000.0,1.33013725281,0.0157417021692,-0.0137662813067,77.8525695801,0.349065840244,0.0216827709228,0.00845089834183,0.00095011072699,-0.000329018803313,-0.000329018803313,0.0133736114949,0.00528524024412,-0.441278189421,-0.441278189421,-0.980269789696,0.0106720561162,2026,2022,2544,2044,2044,2920,3422,3420,3238,3361,3089,3052,3153,3146,3236,2851,3402,3411,3240,3362,3127,3351,3385,3194
1508405837875277493,115,1508405837875062470,plot_matl,0.0,0.0,1.40129846432e-45,4.59163467805e-41,-0.0331743061543,4.55800351491e-41,0.349065840244,0.30498278141,1.33009660244,-0.00345903262496,0.00208019837737,0.00208019837737,0.0165736880153,0.00149079458788,-97.6952819824,-97.6952819824,-135.626541138,0.182808637619,1919,1964,2221,2033,2033,2906,3368,3383,3229,3328,3065,2891,3024,2948,3113,2736,3322,3346,3178,3264,2910,3257,3313,3045,0.009950462,1.149948128,1.14430313,0.680678427219,4500.0,0.654048621655,0.00341276964173,-0.0266297664493,119.833946228,1.34390354156,6000.0,1.33011066914,0.0163329113275,-0.0137928975746,77.8262939453,0.349065840244,0.0216827709228,0.00844832789153,0.000949916080572,0.000613166950643,0.000613166950643,-0.00191166112199,-0.0191946700215,-0.433540344238,-0.433540344238,-0.800690531731,0.0643042549491,2045,2047,2544,2043,2043,2921,3422,3422,3239,3362,3090,3052,3153,3146,3236,2851,3402,3411,3240,3362,3127,3351,3385,3192
1508405837885410237,116,1508405837885053854,plot_matl,0.0,0.0,1.40129846432e-45,4.59163467805e-41,-0.0331743061543,4.55800351491e-41,0.349065840244,0.30498278141,1.33011174202,-0.0034640985541,0.00173126335721,0.00173126335721,0.0162971187383,0.00159181759227,-97.6143188477,-97.6143188477,-135.549865723,0.204407483339,1919,1964,2221,2033,2033,2906,3368,3383,3229,3328,3065,2891,3024,2948,3113,2736,3322,3346,3178,3264,2910,3257,3313,3045,0.009991653,1.159939815,1.159031748,0.680678427219,4500.0,0.654048621655,0.00341276964173,-0.0266297664493,119.833946228,1.34390354156,6000.0,1.33011066914,0.0163329113275,-0.0137928975746,77.8262939453,0.349065840244,0.0216827709228,0.00845931842923,0.000976257084403,0.000949358800426,0.000949358800426,-0.00214429199696,0.00477668782696,-0.501749873161,-0.501749873161,-0.585200548172,0.30203050375,2045,2047,2544,2043,2043,2921,3422,3422,3239,3362,3090,3052,3153,3146,3236,2851,3402,3411,3240,3362,3127,3351,3385,3192
1508405837895734090,117,1508405837895139953,plot_matl,0.0,0.0,1.40129846432e-45,4.59163467805e-41,-0.0331743061543,4.55800351491e-41,0.349065840244,0.30498278141,1.33011734486,-0.00348385376856,0.0019414377166,0.0019414377166,0.0162230022252,0.00198992481455,-97.6162490845,-97.6162490845,-135.530548096,0.274257749319,2105,2140,2222,2035,2035,2906,3367,3387,3228,3328,3065,2888,3023,2942,3114,2733,3321,3345,3179,3265,2908,3255,3315,3046,0.010088666,1.170026815,1.180373922,0.680678427219,4500.0,0.654048621655,0.00325527507812,-0.0266297664493,119.833946228,1.34390354156,6000.0,1.3301255703,0.016044696793,-0.0137780057266,77.9297103882,0.349065840244,0.0192735753953,0.00844045169652,0.000909937371034,-0.0234790816903,-0.0234790816903,-0.00175535527524,0.0061297561042,-0.747331798077,-0.747331798077,-0.479055523872,0.168449983001,2004,2007,2544,2039,2039,2920,3422,3421,3240,3362,3090,3049,3155,3144,3236,2853,3405,3410,3240,3365,3128,3350,3387,3191
1508405837905431778,118,1508405837905107568,plot_matl,0.0,0.0,1.40129846432e-45,4.59163467805e-41,-0.0331743061543,4.55800351491e-41,0.349065840244,0.30498278141,1.3301204443,-0.0034831406083,0.00213172566146,0.00213172566146,-0.0228734444827,-0.00778191210702,-97.6858520508,-97.6858520508,-135.589126587,0.368161678314,2025,2076,2222,2035,2035,2906,3367,3387,3228,3329,3063,2891,3022,2949,3113,2736,3321,3344,3177,3265,2908,3255,3315,3046,0.009965906,1.179994516,1.175976908,0.680678427219,4500.0,0.654048621655,0.00401903456077,-0.0266297664493,119.833946228,1.34390354156,6000.0,1.33005535603,-0.0215621478856,-0.0138481091708,89.4614486694,0.349065840244,0.0216827709228,0.00843853130937,0.000877028622199,0.000695302267559,0.000695302267559,-0.0017137019895,-0.0176867898554,-0.576925635338,-0.576925635338,-0.325486063957,0.0471063777804,2028,2025,2544,2039,2039,2920,3422,3421,3240,3360,3089,3051,3154,3146,3235,2853,3405,3412,3239,3365,3128,3350,3387,3191
1508405837915534881,119,1508405837915101483,plot_matl,0.0,0.0,1.40129846432e-45,4.59163467805e-41,-0.0331743061543,4.55800351491e-41,0.349065840244,0.30498278141,1.33002698421,-0.00347379455343,0.00202190014534,0.00202190014534,0.0181098505855,0.00179683463648,-97.5223922729,-97.5223922729,-135.412277222,0.33787587285,1917,1964,2222,2032,2032,2905,3369,3387,3228,3329,3063,2891,3022,2949,3113,2736,3321,3344,3177,3266,2909,3257,3313,3045,0.009994978,1.189988626,1.189402382,0.680678427219,4500.0,0.652699172497,-0.0229178313166,-0.027979247272,125.906616211,1.34390354156,6000.0,1.33003902435,0.0178344380111,-0.0138644846156,77.9875183105,0.349065840244,0.0216827709228,0.00842342525721,0.00086991180433,0.000569108058698,0.000569108058698,-0.00140267272945,-0.0175660327077,-0.434696644545,-0.434696644545,-0.41645181179,0.0208772066981,2045,2042,2544,2041,2041,2920,3424,3421,3240,3360,3089,3051,3154,3146,3235,2853,3405,3412,3239,3365,3128,3350,3386,3191
1508405837925455560,120,1508405837925094852,plot_matl,0.0,0.0,1.40129846432e-45,4.59163467805e-41,-0.0331743061543,4.55800351491e-41,0.349065840244,0.30633226037,1.33008503914,-0.00345746218227,0.0155112762004,0.0155112762004,0.0169114656746,0.0014685470378,-97.5331802368,-97.5331802368,-135.351364136,0.181671470404,2005,2035,2222,2032,2032,2905,3369,3385,3228,3329,3065,2888,3021,2943,3113,2733,3319,3344,3177,3266,2909,3257,3313,3045,0.009992441,1.199982095,1.19909292,0.680678427219,4500.0,0.654048621655,0.00354186794721,-0.0266297664493,119.833946228,1.34390354156,6000.0,1.33009648323,0.0166841447353,-0.0138069987297,77.8250961304,0.349065840244,0.0216827709228,0.00843834411353,0.000909056630917,0.000491564918775,0.000491564918775,-0.00170349644031,0.00611561583355,-0.251247435808,-0.251247435808,-0.931776046753,0.221313267946,2030,2032,2544,2041,2041,2920,3424,3421,3236,3360,3086,3050,3154,3146,3238,2852,3403,3412,3239,3365,3128,3350,3386,3191
1508405837935448628,121,1508405837935081015,plot_matl,0.0,0.0,1.40129846432e-45,4.59163467805e-41,-0.0331743061543,4.55800351491e-41,0.349065840244,0.30498278141,1.33009552956,-0.00345358531922,0.00230250996538,0.00230250996538,0.0167066100985,0.00139216345269,-97.5574035645,-97.5574035645,-135.388458252,0.0766878798604,2101,2144,2221,2033,2033,2905,3369,3385,3228,3329,3065,2888,3021,2943,3113,2733,3319,3347,3181,3264,2910,3256,3314,3044,0.009984819,1.209967822,1.208163099,0.680678427219,4500.0,0.652699172497,-0.0223850347102,-0.027979247272,125.906616211,1.34390354156,6000.0,1.33003091812,-0.0210669338703,-0.013872618787,89.558380127,0.349065840244,0.0216827709228,0.00843725912273,0.000919494254049,0.000402482430218,0.000402482430218,-0.00167566072196,0.00590598536655,-0.0244935639203,-0.0244935639203,-0.654346644878,0.367265701294,2010,2003,2544,2046,2046,2920,3424,3421,3236,3360,3086,3050,3154,3146,3238,2852,3403,3412,3241,3365,3128,3350,3384,3192
1508405837945384923,122,1508405837945066721,plot_matl,0.0,0.0,1.40129846432e-45,4.59163467805e-41,-0.0331743061543,4.55800351491e-41,0.349065840244,0.30363330245,1.32996797562,-0.00344934756868,-0.0104803154245,-0.0104803154245,-0.0197915844619,0.0013084373204,-97.4990921021,-97.4990921021,-135.407592773,0.0700554326177,2026,2081,2221,2033,2033,2907,3370,3387,3227,3329,3065,2889,3021,2949,3114,2733,3319,3347,3181,3264,2910,3256,3314,3044,0.009985075,1.219953383,1.21817915,0.680678427219,4500.0,0.654048621655,0.00593381980434,-0.0266297664493,119.833946228,1.34390354156,6000.0,1.33002328873,0.0181660167873,-0.0138801876456,77.8398590088,0.349065840244,0.0216827709228,0.00842241104692,0.000972072652075,0.000329565664288,0.000329565664288,-0.00137208530214,0.0293182693422,0.156419962645,0.156419962645,-0.500948548317,0.486160725355,2019,2025,2544,2046,2046,2920,3423,3422,3238,3363,3089,3051,3154,3146,3237,2852,3403,3412,3241,3365,3128,3350,3384,3192
1508405837955545270,123,1508405837955096523,plot_matl,0.0,0.0,1.40129846432e-45,4.59163467805e-41,-0.0331743061543,4.55800351491e-41,0.349065840244,0.30498278141,1.33006989956,-0.00345445121638,0.00283150817268,0.00283150817268,0.0172545220703,0.00141665176488,-97.5549087524,-97.5549087524,-135.333221436,0.0757915154099,1917,1968,2223,2033,2033,2907,3370,3387,3227,3329,3065,2889,3021,2949,3114,2736,3324,3347,3179,3262,2910,3254,3314,3046,0.010030594,1.229983555,1.233763062,0.680678427219,4500.0,0.652699172497,-0.0219041649252,-0.027979247272,125.906616211,1.34390354156,6000.0,1.3300434351,-0.0212940368801,-0.0138600450009,89.6037979126,0.349065840244,0.0216827709228,0.00842299684882,0.000948438188061,-0.000609763257671,-0.000609763257671,-0.00138163636439,0.00531250238419,0.193681240082,0.193681240082,-1.02581477165,0.396174639463,2046,2042,2544,2046,2046,2920,3423,3422,3238,3363,3089,3051,3154,3146,3237,2853,3404,3412,3240,3366,3128,3349,3387,3192
1508405837965582704,124,1508405837965076311,plot_matl,0.0,0.0,1.40129846432e-45,4.59163467805e-41,-0.0331743061543,4.55800351491e-41,0.349065840244,0.30498278141,1.33004844189,-0.00344984373078,0.002588479314,0.002588479314,-0.0214241389185,0.00132441357709,-97.7023620605,-97.7023620605,-135.226394653,0.135067954659,1993,2033,2223,2031,2031,2905,3371,3386,3225,3329,3065,2889,3021,2949,3114,2736,3324,3347,3179,3262,2910,3254,3314,3046,0.009979633,1.239963413,1.237474492,0.680678427219,4500.0,0.654048621655,0.00486982800066,-0.0266297664493,119.833946228,1.34390354156,6000.0,1.33006215096,-0.0217000544071,-0.013841339387,89.5271072388,0.349065840244,0.0216827709228,0.00843807682395,0.000975915638264,-0.000900377926882,-0.000900377926882,-0.00168483762536,0.00476152263582,0.273446649313,0.273446649313,-1.4935541153,0.493674874306,2026,2024,2544,2044,2044,2921,3422,3422,3238,3361,3087,3050,3155,3146,3237,2853,3404,3412,3240,3366,3128,3349,3387,3192
1508405837975487807,125,1508405837975121206,plot_matl,0.0,0.0,1.40129846432e-45,4.59163467805e-41,-0.0331743061543,4.55800351491e-41,0.349065840244,0.30498278141,1.33004844189,-0.00344984373078,0.002588479314,0.002588479314,-0.0214241389185,0.00132441357709,-97.7023620605,-97.7023620605,-135.226394653,0.135067954659,2099,2140,2223,2031,2031,2905,3371,3386,3225,3329,3065,2889,3021,2943,3111,2735,3319,3347,3179,3265,2908,3256,3315,3046,0.010044124,1.250008319,1.2555155,0.680678427219,4500.0,0.654048621655,0.00352865480818,-0.0266297664493,119.833946228,1.34390354156,6000.0,1.32996964455,-0.0198456607759,-0.0139339091256,89.7961883545,0.349065840244,0.0216827709228,0.00843807682395,0.000975915638264,-0.000900377926882,-0.000900377926882,-0.00168483762536,0.00476152263582,0.273446649313,0.273446649313,-1.4935541153,0.493674874306,2014,2008,2544,2044,2044,2921,3422,3422,3238,3361,3087,3050,3155,3145,3236,2854,3405,3413,3241,3362,3128,3352,3385,3192
1508405837985441316,126,1508405837985096489,plot_matl,0.0,0.0,1.40129846432e-45,4.59163467805e-41,-0.0331743061543,4.55800351491e-41,0.349065840244,0.30498278141,1.33004844189,-0.00344984373078,0.002588479314,0.002588479314,-0.0214241389185,0.00132441357709,-97.7023620605,-97.7023620605,-135.226394653,0.135067954659,2019,2072,2221,2027,2027,2906,3368,3385,3229,3328,3066,2889,3021,2943,3111,2735,3319,3347,3179,3265,2908,3256,3315,3045,0.009974897,1.259983692,1.256837022,0.680678427219,4500.0,0.655398130417,0.0286896582693,-0.025280283764,113.761283875,1.34390354156,6000.0,1.32994055748,0.0198841840029,-0.0139629226178,77.5900039673,0.349065840244,0.0216827709228,0.00843807682395,0.000975915638264,-0.000900377926882,-0.000900377926882,-0.00168483762536,0.00476152263582,0.273446649313,0.273446649313,-1.4935541153,0.493674874306,2020,2026,2544,2044,2044,2921,3423,3423,3236,3362,3088,3050,3155,3145,3236,2854,3405,3413,3241,3362,3128,3352,3385,3191
1508405837995439065,127,1508405837995078377,plot_matl,0.0,0.0,1.40129846432e-45,4.59163467805e-41,-0.0331743061543,4.55800351491e-41,0.349065840244,0.30498278141,1.3300306797,-0.00345617067069,0.00187387480401,0.00187387480401,0.0179897397757,0.00144834665116,-97.6139984131,-97.6139984131,-135.046783447,0.0722626373172,1913,1952,2221,2027,2027,2906,3368,3385,3229,3328,3066,2889,3022,2949,3113,2735,3319,3345,3179,3265,2909,3256,3315,3045,0.009981737,1.26996555,1.267680599,0.680678427219,4500.0,0.654048621655,0.00310054281726,-0.0266297664493,119.833946228,1.34390354156,6000.0,1.33005106449,0.0176558773965,-0.0138524845243,77.8529815674,0.349065840244,0.0216827709228,0.00842305179685,0.000995896058157,-0.000736945832614,-0.000736945832614,-0.00137901434209,-0.0201551001519,0.259221583605,0.259221583605,-1.21916759014,0.31328061223,2050,2039,2544,2044,2044,2921,3423,3423,3236,3362,3088,3050,3156,3145,3237,2852,3404,3413,3241,3363,3128,3352,3385,3191
1508405838005359408,128,1508405838005069250,plot_matl,0.0,0.0,1.40129846432e-45,4.59163467805e-41,-0.0331743061543,4.55800351491e-41,0.349065840244,0.30363330245,1.32999753952,-0.00343249412253,-0.0119855413213,-0.0119855413213,0.0187408700585,0.00097124511376,-97.4261550903,-97.4261550903,-134.657867432,0.00905999634415,1996,2031,2223,2027,2027,2904,3369,3384,3227,3328,3066,2889,3022,2949,3113,2735,3319,3345,3179,3265,2909,3255,3314,3043,0.009988803,1.27995548,1.278566784,0.680678427219,4500.0,0.652699172497,-0.0227094814181,-0.027979247272,125.906616211,1.34390354156,6000.0,1.33017349243,0.0151678919792,-0.0137300696224,77.8501663208,0.349065840244,0.0216827709228,0.00841282214969,0.00102694239467,-0.00113992067054,-0.00113992067054,-0.00115889112931,0.00367241236381,0.177979916334,0.177979916334,-1.2485229969,0.315706312656,2028,2028,2544,2044,2044,2919,3420,3422,3237,3362,3088,3050,3156,3145,3237,2852,3404,3413,3241,3363,3128,3350,3386,3193
1508405838015486696,129,1508405838015065365,plot_matl,0.0,0.0,1.40129846432e-45,4.59163467805e-41,-0.0331743061543,4.55800351491e-41,0.349065840244,0.30363330245,1.32999753952,-0.00343249412253,-0.0119855413213,-0.0119855413213,0.0187408700585,0.00097124511376,-97.4261550903,-97.4261550903,-134.657867432,0.00905999634415,2106,2142,2223,2027,2027,2904,3369,3384,3227,3329,3067,2888,3022,2946,3112,2737,3321,3346,3178,3265,2909,3255,3314,3043,0.009996446,1.289951997,1.289541534,0.680678427219,4500.0,0.654048621655,0.00524910446256,-0.0266297664493,119.833946228,1.34390354156,6000.0,1.33027148247,0.0131593095139,-0.0136320423335,77.8958511353,0.349065840244,0.0216827709228,0.00841282214969,0.00102694239467,-0.00113992067054,-0.00113992067054,-0.00115889112931,0.00367241236381,0.177979916334,0.177979916334,-1.2485229969,0.315706312656,2020,2016,2544,2044,2044,2919,3420,3422,3237,3361,3089,3050,3154,3145,3235,2852,3405,3413,3241,3363,3128,3350,3386,3193
1508405838025625494,130,1508405838025142479,plot_matl,0.0,0.0,1.40129846432e-45,4.59163467805e-41,-0.0331743061543,4.55800351491e-41,0.349065840244,0.30363330245,1.32999753952,-0.00343249412253,-0.0119855413213,-0.0119855413213,0.0187408700585,0.00097124511376,-97.4261550903,-97.4261550903,-134.657867432,0.00905999634415,2028,2063,2222,2028,2028,2906,3369,3384,3227,3329,3067,2888,3022,2946,3112,2737,3321,3346,3178,3263,2908,3255,3314,3046,0.010078116,1.300029832,1.31015508,0.680678427219,4500.0,0.652699172497,-0.022434188053,-0.027979247272,125.906616211,1.34390354156,6000.0,1.33024573326,-0.025370683521,-0.01365779154,89.2705917358,0.349065840244,0.0216827709228,0.00841282214969,0.00102694239467,-0.00113992067054,-0.00113992067054,-0.00115889112931,0.00367241236381,0.177979916334,0.177979916334,-1.2485229969,0.315706312656,2023,2017,2544,2044,2044,2920,3421,3422,3237,3361,3089,3050,3154,3145,3235,2852,3405,3413,3241,3363,3126,3349,3387,3194
1508405838035264131,131,1508405838035067761,plot_matl,0.0,0.0,1.40129846432e-45,4.59163467805e-41,-0.0331743061543,4.55800351491e-41,0.349065840244,0.30363330245,1.32999753952,-0.00343249412253,-0.0119855413213,-0.0119855413213,0.0187408700585,0.00097124511376,-97.4261550903,-97.4261550903,-134.657867432,0.00905999634415,1921,1960,2222,2028,2028,2906,3369,3385,3227,3330,3065,2888,3020,2943,3113,2734,3322,3346,3178,3263,2908,3255,3314,3046,0.009922715,1.309953798,1.299875665,0.680678427219,4500.0,0.654048621655,0.00540386512876,-0.0266297664493,119.833946228,1.34390354156,6000.0,1.33019340038,-0.0242869649082,-0.0137101132423,89.9002075195,0.349065840244,0.0216827709228,0.00841282214969,0.00102694239467,-0.00113992067054,-0.00113992067054,-0.00115889112931,0.00367241236381,0.177979916334,0.177979916334,-1.2485229969,0.315706312656,2045,2042,2544,2044,2044,2920,3421,3422,3238,3361,3086,3051,3154,3144,3236,2852,3404,3413,3241,3363,3126,3349,3387,3194
1508405838045465383,132,1508405838045067783,plot_matl,0.0,0.0,1.40129846432e-45,4.59163467805e-41,-0.0331743061543,4.55800351491e-41,0.349065840244,0.30363330245,1.33023047447,-0.00343408132903,-0.0107551384717,-0.0107551384717,0.0140412133187,0.0010087316623,-97.507522583,-97.507522583,-134.740905762,0.106013968587,2006,2038,2222,2030,2030,2906,3369,3385,3227,3330,3065,2888,3020,2943,3113,2734,3322,3347,3180,3266,2909,3257,3313,3047,0.010001452,1.319954915,1.320191664,0.680678427219,4500.0,0.655398130417,0.0326007083058,-0.025280283764,113.761283875,1.34390354156,6000.0,1.33014893532,-0.0234160106629,-0.0137545419857,89.3866882324,0.349065840244,0.0216827709228,0.00839935056865,0.000910907692742,0.00113518163562,0.00113518163562,-0.000887559494004,0.00608313689008,0.422381103039,0.422381103039,-1.44316577911,0.0571698173881,2031,2034,2544,2044,2044,2920,3421,3422,3238,3361,3086,3051,3154,3144,3236,2852,3404,3412,3240,3363,3128,3351,3386,3190
1508405838055245499,133,1508405838055061754,plot_matl,0.0,0.0,1.40129846432e-45,4.59163467805e-41,-0.0331743061543,4.55800351491e-41,0.349065840244,0.30363330245,1.33023047447,-0.00343408132903,-0.0107551384717,-0.0107551384717,0.0140412133187,0.0010087316623,-97.507522583,-97.507522583,-134.740905762,0.106013968587,2111,2141,2222,2030,2030,2905,3369,3385,3227,3327,3064,2891,3022,2949,3114,2734,3322,3347,3180,3266,2909,3257,3313,3047,0.009991058,1.329947464,1.328810714,0.680678427219,4500.0,0.655398130417,0.0326007083058,-0.025280283764,113.761283875,1.34390354156,6000.0,1.33019077778,0.0147917289287,-0.013712736778,77.711555481,0.349065840244,0.0216827709228,0.00839935056865,0.000910907692742,0.00113518163562,0.00113518163562,-0.000887559494004,0.00608313689008,0.422381103039,0.422381103039,-1.44316577911,0.0571698173881,2012,2009,2544,2044,2044,2920,3421,3423,3236,3362,3086,3051,3154,3146,3237,2852,3404,3412,3240,3363,3128,3351,3386,3190
1508405838065465382,134,1508405838065106327,plot_matl,0.0,0.0,1.40129846432e-45,4.59163467805e-41,-0.0331743061543,4.55800351491e-41,0.349065840244,0.30363330245,1.33023047447,-0.00343408132903,-0.0107551384717,-0.0107551384717,0.0140412133187,0.0010087316623,-97.507522583,-97.507522583,-134.740905762,0.106013968587,2024,2072,2221,2030,2030,2905,3369,3385,3227,3327,3064,2891,3022,2949,3114,2736,3320,3345,3177,3265,2907,3254,3315,3046,0.010047129,1.339993637,1.346315286,0.680678427219,4500.0,0.654048621655,0.00495834602043,-0.0266297664493,119.833946228,1.34390354156,6000.0,1.33028459549,-0.0261885970831,-0.0136189581826,89.5721130371,0.349065840244,0.0216827709228,0.00839935056865,0.000910907692742,0.00113518163562,0.00113518163562,-0.000887559494004,0.00608313689008,0.422381103039,0.422381103039,-1.44316577911,0.0571698173881,2024,2025,2543,2044,2044,2920,3421,3423,3236,3362,3086,3051,3154,3146,3237,2852,3403,3412,3240,3363,3127,3350,3386,3193
1508405838075469055,135,1508405838075068711,plot_matl,0.0,0.0,1.40129846432e-45,4.59163467805e-41,-0.0331743061543,4.55800351491e-41,0.349065840244,0.30363330245,1.33023047447,-0.00343408132903,-0.0107551384717,-0.0107551384717,0.0140412133187,0.0010087316623,-97.507522583,-97.507522583,-134.740905762,0.106013968587,2024,2072,2221,2030,2030,2905,3369,3385,3227,3327,3064,2891,3022,2949,3114,2736,3320,3345,3177,3265,2907,3254,3315,3046,0.009961841,1.349955719,1.344848535,0.680678427219,4500.0,0.654048621655,0.00495834602043,-0.0266297664493,119.833946228,1.34390354156,6000.0,1.33029782772,0.0126160876825,-0.0136057008058,77.8958206177,0.349065840244,0.0216827709228,0.00839935056865,0.000910907692742,0.00113518163562,0.00113518163562,-0.000887559494004,0.00608313689008,0.422381103039,0.422381103039,-1.44316577911,0.0571698173881,2024,2025,2543,2044,2044,2920,3421,3423,3236,3362,3086,3051,3154,3146,3237,2852,3403,3412,3240,3363,3127,3350,3386,3193
1508405838085515794,136,1508405838085094844,plot_matl,0.0,0.0,1.40129846432e-45,4.59163467805e-41,-0.0331743061543,4.55800351491e-41,0.349065840244,0.30498278141,1.33025932312,-0.00346284476109,0.00240934873,0.00240934873,-0.0256826411933,0.00160143198445,-97.2038192749,-97.2038192749,-134.545822144,-0.0356948412955,2008,2034,2221,2032,2032,2902,3369,3386,3226,3328,3064,2890,3019,2942,3113,2734,3322,3345,3179,3265,2907,3258,3314,3046,0.010025848,1.359982007,1.363515328,0.680678427219,4500.0,0.654048621655,0.00506740109995,-0.0266297664493,119.833946228,1.34390354156,6000.0,1.33037924767,0.0109621398151,-0.0135242315009,77.9518203735,0.349065840244,0.0216827709228,0.00839173328131,0.000931993417908,0.000579734274652,0.000579734274652,-0.000739598530345,0.00570071907714,0.241567492485,0.241567492485,-1.88433158398,0.0729955434799,2032,2032,2543,2039,2039,2920,3422,3422,3237,3362,3089,3050,3155,3147,3237,2852,3404,3412,3239,3363,3130,3351,3386,3193
1508405838095413856,137,1508405838095100401,plot_matl,0.0,0.0,1.40129846432e-45,4.59163467805e-41,-0.0331743061543,4.55800351491e-41,0.349065840244,0.30498278141,1.33025932312,-0.00346284476109,0.00240934873,0.00240934873,-0.0256826411933,0.00160143198445,-97.2038192749,-97.2038192749,-134.545822144,-0.0356948412955,2108,2146,2224,2031,2031,2907,3370,3385,3227,3329,3065,2890,3019,2942,3113,2734,3322,3345,3179,3265,2907,3258,3314,3046,0.010004775,1.369987353,1.370654175,0.680678427219,4500.0,0.654048621655,0.00512524973601,-0.0266297664493,119.833946228,1.34390354156,6000.0,1.33040690422,0.010402075015,-0.0134966159239,78.0059051514,0.349065840244,0.0216827709228,0.00839173328131,0.000931993417908,0.000579734274652,0.000579734274652,-0.000739598530345,0.00570071907714,0.241567492485,0.241567492485,-1.88433158398,0.0729955434799,2003,2008,2544,2042,2042,2921,3422,3422,3238,3363,3087,3050,3155,3147,3237,2852,3404,3412,3239,3363,3130,3351,3386,3193
1508405838105233354,138,1508405838105051694,plot_matl,0.0,0.0,1.40129846432e-45,4.59163467805e-41,-0.0331743061543,4.55800351491e-41,0.349065840244,0.30498278141,1.33025932312,-0.00346284476109,0.00240934873,0.00240934873,-0.0256826411933,0.00160143198445,-97.2038192749,-97.2038192749,-134.545822144,-0.0356948412955,2027,2071,2224,2031,2031,2907,3370,3385,3227,3329,3065,2890,3023,2948,3113,2735,3322,3346,3177,3263,2907,3258,3314,3046,0.009949004,1.379937507,1.372962552,0.680678427219,4500.0,0.652699172497,-0.0210019107908,-0.027979247272,125.906616211,1.34390354156,6000.0,1.33042776585,0.00998392887414,-0.0134758157656,77.8589324951,0.349065840244,0.0216827709228,0.00839173328131,0.000931993417908,0.000579734274652,0.000579734274652,-0.000739598530345,0.00570071907714,0.241567492485,0.241567492485,-1.88433158398,0.0729955434799,2019,2025,2544,2042,2042,2921,3422,3422,3238,3363,3087,3052,3154,3147,3237,2852,3404,3413,3242,3363,3130,3351,3386,3193
1508405838115398564,139,1508405838115071759,plot_matl,0.0,0.0,1.40129846432e-45,4.59163467805e-41,-0.0331743061543,4.55800351491e-41,0.349065840244,0.30498278141,1.33037531376,-0.00343759404495,0.00272000022233,0.00272000022233,0.0110408850014,0.0010933058802,-97.3879547119,-97.3879547119,-134.755584717,-0.0367318838835,1920,1959,2222,2031,2031,2904,3371,3385,3229,3329,3065,2890,3023,2948,3113,2735,3322,3346,3177,3263,2907,3257,3312,3046,0.010022115,1.389958896,1.393073985,0.680678427219,4500.0,0.652699172497,-0.0196499619633,-0.027979247272,125.906616211,1.34390354156,6000.0,1.33037912846,0.0110007738695,-0.0135244503617,78.0016403198,0.349065840244,0.0240919683129,0.00840538553894,0.000932645983994,0.0241552367806,0.0241552367806,0.0143326651305,0.00567391887307,0.451844960451,0.451844960451,-2.11095118523,0.275497615337,2039,2044,2544,2041,2041,2921,3420,3423,3238,3363,3087,3052,3154,3147,3237,2852,3404,3413,3242,3363,3130,3350,3385,3192
1508405838125427812,140,1508405838125091302,plot_matl,0.0,0.0,1.40129846432e-45,4.59163467805e-41,-0.0331743061543,4.55800351491e-41,0.349065840244,0.30498278141,1.33038389683,-0.0034841268789,0.00320719880983,0.00320719880983,0.0108864745125,-0.00774599285796,-97.3678436279,-97.3678436279,-134.848251343,0.151645153761,2015,2041,2222,2031,2031,2904,3371,3385,3229,3331,3065,2890,3021,2944,3111,2734,3321,3347,3179,3263,2907,3257,3312,3046,0.010018656,1.399978239,1.40261184,0.680678427219,4500.0,0.654048621655,0.00721337273717,-0.0266297664493,119.833946228,1.34390354156,6000.0,1.33034181595,0.0117549793795,-0.0135616715997,77.8535003662,0.349065840244,0.0240919683129,0.00843397714198,0.000919829763006,0.0241870619357,0.0241870619357,-0.00158718915191,0.00591109739617,0.482878834009,0.482878834009,-1.67910647392,0.446062296629,2033,2035,2544,2041,2041,2921,3420,3423,3238,3360,3088,3049,3154,3146,3236,2853,3402,3411,3242,3363,3130,3350,3385,3192
1508405838135424316,141,1508405838135106144,plot_matl,0.0,0.0,1.40129846432e-45,4.59163467805e-41,-0.0331743061543,4.55800351491e-41,0.349065840244,0.30498278141,1.33038389683,-0.0034841268789,0.00320719880983,0.00320719880983,0.0108864745125,-0.00774599285796,-97.3678436279,-97.3678436279,-134.848251343,0.151645153761,2112,2144,2223,2030,2030,2905,3369,3385,3229,3331,3065,2890,3021,2944,3111,2734,3321,3347,3179,3266,2910,3255,3316,3046,0.010014627,1.409993212,1.412062407,0.680678427219,4500.0,0.654048621655,0.00792922172695,-0.0266297664493,119.833946228,1.34390354156,6000.0,1.33030581474,-0.0265084207058,-0.0135976858437,88.8403701782,0.349065840244,0.0240919683129,0.00843397714198,0.000919829763006,0.0241870619357,0.0241870619357,-0.00158718915191,0.00591109739617,0.482878834009,0.482878834009,-1.67910647392,0.446062296629,2010,2007,2543,2038,2038,2921,3422,3423,3238,3360,3088,3049,3154,3146,3236,2853,3402,3411,3242,3365,3127,3351,3385,3193
1508405838145405594,142,1508405838145075790,plot_matl,0.0,0.0,1.40129846432e-45,4.59163467805e-41,-0.0331743061543,4.55800351491e-41,0.349065840244,0.30498278141,1.33038389683,-0.0034841268789,0.00320719880983,0.00320719880983,0.0108864745125,-0.00774599285796,-97.3678436279,-97.3678436279,-134.848251343,0.151645153761,2026,2067,2223,2030,2030,2905,3369,3385,3226,3328,3065,2890,3022,2948,3115,2737,3323,3347,3179,3266,2910,3255,3316,3046,0.009969645,1.419962832,1.41568959,0.680678427219,4500.0,0.654048621655,0.00843555573374,-0.0266297664493,119.833946228,1.34390354156,6000.0,1.33037984371,0.0110496599227,-0.013523648493,78.1040344238,0.349065840244,0.0240919683129,0.00843397714198,0.000919829763006,0.0241870619357,0.0241870619357,-0.00158718915191,0.00591109739617,0.482878834009,0.482878834009,-1.67910647392,0.446062296629,2017,2019,2543,2038,2038,2921,3422,3422,3239,3360,3088,3052,3154,3145,3237,2853,3404,3411,3242,3365,3127,3351,3385,3193
1508405838155406117,143,1508405838155085170,plot_matl,0.0,0.0,1.40129846432e-45,4.59163467805e-41,-0.0331743061543,4.55800351491e-41,0.349065840244,0.30498278141,1.3303476572,-0.00349540403113,0.00418820139021,0.00418820139021,0.0117076206952,0.00223730923608,-97.4927139282,-97.4927139282,-134.978729248,0.55467993021,1928,1975,2223,2032,2032,2905,3369,3385,3226,3328,3065,2890,3022,2948,3115,2737,3323,3345,3176,3264,2908,3257,3314,3047,0.010009165,1.429972638,1.431310595,0.680678427219,4500.0,0.652699172497,-0.0192908365279,-0.027979247272,125.906616211,1.34390354156,6000.0,1.33037352562,0.0111495172605,-0.0135300559923,77.9356613159,0.349065840244,0.0216827709228,0.00842109508812,0.000954160641413,-0.000410601351177,-0.000410601351177,-0.0013680200791,0.00517734652385,0.505129814148,0.505129814148,-1.5002822876,0.58358412981,2039,2041,2543,2040,2040,2921,3422,3422,3239,3360,3088,3052,3154,3145,3237,2853,3404,3411,3241,3365,3130,3351,3385,3192
1508405838165596863,144,1508405838165074088,plot_matl,0.0,0.0,1.40129846432e-45,4.59163467805e-41,-0.0331743061543,4.55800351491e-41,0.349065840244,0.30498278141,1.3303476572,-0.00349540403113,0.00418820139021,0.00418820139021,0.0117076206952,0.00223730923608,-97.4927139282,-97.4927139282,-134.978729248,0.55467993021,2020,2047,2223,2032,2032,2906,3367,3385,3227,3328,3065,2889,3022,2944,3113,2737,3323,3345,3176,3264,2908,3257,3314,3047,0.009989013,1.439961046,1.438417872,0.680678427219,4500.0,0.654048621655,0.00647875573486,-0.0266297664493,119.833946228,1.34390354156,6000.0,1.33040142059,0.0105691794306,-0.0135020911694,78.0987319946,0.349065840244,0.0216827709228,0.00842109508812,0.000954160641413,-0.000410601351177,-0.000410601351177,-0.0013680200791,0.00517734652385,0.505129814148,0.505129814148,-1.5002822876,0.58358412981,2030,2034,2543,2040,2040,2921,3421,3420,3237,3361,3088,3050,3154,3146,3238,2853,3404,3411,3241,3365,3130,3351,3385,3192
1508405838175529279,145,1508405838175096498,plot_matl,0.0,0.0,1.40129846432e-45,4.59163467805e-41,-0.0331743061543,4.55800351491e-41,0.349065840244,0.30498278141,1.3303476572,-0.00349540403113,0.00418820139021,0.00418820139021,0.0117076206952,0.00223730923608,-97.4927139282,-97.4927139282,-134.978729248,0.55467993021,2112,2153,2221,2032,2032,2906,3367,3385,3227,3328,3065,2889,3022,2944,3113,2733,3320,3346,3178,3266,2908,3255,3315,3045,0.010021151,1.449983576,1.453066895,0.680678427219,4500.0,0.652699172497,-0.0209118686616,-0.027979247272,125.906616211,1.34390354156,6000.0,1.33035731316,0.0114722223952,-0.0135461520404,77.8225250244,0.349065840244,0.0216827709228,0.00842109508812,0.000954160641413,-0.000410601351177,-0.000410601351177,-0.0013680200791,0.00517734652385,0.505129814148,0.505129814148,-1.5002822876,0.58358412981,2017,2005,2543,2040,2040,2921,3421,3420,3237,3361,3088,3050,3154,3146,3238,2851,3403,3412,3240,3364,3127,3352,3385,3191
1508405838185379434,146,1508405838185059408,plot_matl,0.0,0.0,1.40129846432e-45,4.59163467805e-41,-0.0331743061543,4.55800351491e-41,0.349065840244,0.30498278141,1.3303476572,-0.00349540403113,0.00418820139021,0.00418820139021,0.0117076206952,0.00223730923608,-97.4927139282,-97.4927139282,-134.978729248,0.55467993021,2112,2153,2221,2032,2032,2906,3367,3385,3227,3328,3065,2889,3022,2944,3113,2733,3320,3346,3178,3266,2908,3255,3315,3045,0.009961482,1.459945929,1.454376372,0.680678427219,4500.0,0.652699172497,-0.0209118686616,-0.027979247272,125.906616211,1.34390354156,6000.0,1.33035731316,0.0114722223952,-0.0135461520404,77.8225250244,0.349065840244,0.0216827709228,0.00842109508812,0.000954160641413,-0.000410601351177,-0.000410601351177,-0.0013680200791,0.00517734652385,0.505129814148,0.505129814148,-1.5002822876,0.58358412981,2017,2005,2543,2040,2040,2921,3421,3420,3237,3361,3088,3050,3154,3146,3238,2851,3403,3412,3240,3364,3127,3352,3385,3191
1508405838195592225,147,1508405838195084724,plot_matl,0.0,0.0,1.40129846432e-45,4.59163467805e-41,-0.0331743061543,4.55800351491e-41,0.349065840244,0.30498278141,1.33033919334,-0.00349389365874,0.00366639508866,0.00366639508866,-0.027236038819,0.00220323284157,-97.5167541504,-97.5167541504,-134.871444702,0.45037394762,2027,2070,2221,2030,2030,2906,3369,3387,3229,3330,3067,2891,3023,2944,3113,2733,3320,3346,3178,3266,2908,3255,3315,3045,0.010026544,1.469971797,1.473901968,0.680678427219,4500.0,0.652699172497,-0.0210006590933,-0.027979247272,125.906616211,1.34390354156,6000.0,1.33038258553,0.0109320757911,-0.0135208889842,77.9153442383,0.349065840244,0.0216827709228,0.00840927939862,0.000888563052285,-0.000713886343874,-0.000713886343874,-0.0011223499896,0.00647914083675,0.526946008205,0.526946008205,-1.96501386166,0.581197500229,2009,2006,2543,2041,2041,2920,3421,3422,3239,3360,3088,3050,3154,3146,3238,2851,3403,3412,3240,3364,3127,3352,3385,3191
1508405838205546189,148,1508405838205120534,plot_matl,0.0,0.0,1.40129846432e-45,4.59163467805e-41,-0.0331743061543,4.55800351491e-41,0.349065840244,0.30498278141,1.33033919334,-0.00349389365874,0.00366639508866,0.00366639508866,-0.027236038819,0.00220323284157,-97.5167541504,-97.5167541504,-134.871444702,0.45037394762,2037,2069,2221,2030,2030,2906,3369,3387,3229,3330,3067,2891,3023,2959,3127,2745,3334,3356,3189,3274,2916,3264,3321,3045,0.010034993,1.480007662,1.485178964,0.680678427219,4500.0,0.652699172497,-0.0204768180847,-0.027979247272,125.906616211,1.34390354156,6000.0,1.33047139645,0.009113448672,-0.013432119973,77.8923110962,0.349065840244,0.0216827709228,0.00840927939862,0.000888563052285,-0.000713886343874,-0.000713886343874,-0.0011223499896,0.00647914083675,0.526946008205,0.526946008205,-1.96501386166,0.581197500229,2024,2028,2543,2041,2041,2920,3421,3422,3239,3360,3088,3050,3154,3162,3251,2864,3417,3421,3250,3372,3134,3357,3393,3191
1508405838215465500,149,1508405838215078772,plot_matl,0.0,0.0,1.40129846432e-45,4.59163467805e-41,-0.0331743061543,4.55800351491e-41,0.349065840244,0.30498278141,1.33033919334,-0.00349389365874,0.00366639508866,0.00366639508866,-0.027236038819,0.00220323284157,-97.5167541504,-97.5167541504,-134.871444702,0.45037394762,2120,2193,2223,2029,2029,2910,3373,3390,3230,3331,3068,2891,3023,2959,3127,2745,3334,3356,3189,3274,2916,3264,3321,3054,0.009956513,1.48996536,1.483520437,0.680678427219,4500.0,0.654048621655,0.00600974541157,-0.0266297664493,119.833946228,1.34390354156,6000.0,1.33051943779,0.00813993252814,-0.0133841224015,78.0747146606,0.349065840244,0.0216827709228,0.00840927939862,0.000888563052285,-0.000713886343874,-0.000713886343874,-0.0011223499896,0.00647914083675,0.526946008205,0.526946008205,-1.96501386166,0.581197500229,2016,2019,2544,2044,2044,2924,3425,3425,3241,3367,3090,3050,3154,3162,3251,2864,3417,3421,3250,3372,3134,3357,3393,3198
1508405838225322882,150,1508405838225065447,plot_matl,0.0,0.0,1.40129846432e-45,4.59163467805e-41,-0.0331743061543,4.55800351491e-41,0.349065840244,0.30498278141,1.33033919334,-0.00349389365874,0.00366639508866,0.00366639508866,-0.027236038819,0.00220323284157,-97.5167541504,-97.5167541504,-134.871444702,0.45037394762,2007,2039,2223,2029,2029,2910,3373,3390,3230,3331,3068,2893,3027,2951,3115,2738,3323,3347,3180,3266,2910,3264,3321,3054,0.009986853,1.499952149,1.49802795,0.680678427219,4500.0,0.654048621655,0.00439948542044,-0.0266297664493,119.833946228,1.34390354156,6000.0,1.3305927515,0.00665387231857,-0.0133108003065,77.8930282593,0.349065840244,0.0216827709228,0.00840927939862,0.000888563052285,-0.000713886343874,-0.000713886343874,-0.0011223499896,0.00647914083675,0.526946008205,0.526946008205,-1.96501386166,0.581197500229,2035,2036,2544,2044,2044,2924,3425,3425,3241,3367,3090,3052,3159,3148,3238,2853,3406,3413,3241,3365,3130,3357,3393,3198
1508405838235559321,151,1508405838235078811,plot_matl,0.0,0.0,1.40129846432e-45,4.59163467805e-41,-0.0331743061543,4.55800351491e-41,0.349065840244,0.30498278141,1.3304759264,-0.00346122076735,0.00340915750712,0.00340915750712,0.00903748720884,0.00153396651149,-97.7704467773,-97.7704467773,-135.115020752,0.403567761183,1960,1944,2221,2030,2030,2908,3369,3388,3227,3331,3068,2893,3027,2951,3115,2738,3323,3347,3180,3266,2910,3257,3313,3046,0.010014517,1.509966065,1.512192067,0.680678427219,4500.0,0.654048621655,0.00360034639016,-0.0266297664493,119.833946228,1.34390354156,6000.0,1.33065235615,0.00544523773715,-0.0132511658594,77.692817688,0.349065840244,0.0216827709228,0.00840138550848,0.000934275740292,0.00104290689342,0.00104290689342,-0.000946569547523,0.00703399768099,0.369750261307,0.369750261307,-1.79193246365,1.14753913879,2023,2027,2543,2043,2043,2923,3423,3423,3239,3367,3090,3052,3159,3148,3238,2853,3406,3413,3241,3365,3130,3353,3386,3194
1508405838245462948,152,1508405838245101774,plot_matl,0.0,0.0,1.40129846432e-45,4.59163467805e-41,-0.0331743061543,4.55800351491e-41,0.349065840244,0.30498278141,1.3304759264,-0.00346122076735,0.00340915750712,0.00340915750712,0.00903748720884,0.00153396651149,-97.7704467773,-97.7704467773,-135.115020752,0.403567761183,2030,2060,2221,2030,2030,2908,3369,3388,3227,3330,3067,2889,3022,2945,3112,2734,3321,3346,3179,3266,2910,3257,3313,3046,0.010020716,1.519988351,1.523148832,0.680678427219,4500.0,0.652699172497,-0.0227658264339,-0.027979247272,125.906616211,1.34390354156,6000.0,1.3306646347,0.00516023347154,-0.0132389012724,78.0037536621,0.349065840244,0.0216827709228,0.00840138550848,0.000934275740292,0.00104290689342,0.00104290689342,-0.000946569547523,0.00703399768099,0.369750261307,0.369750261307,-1.79193246365,1.14753913879,2012,2017,2543,2043,2043,2923,3423,3423,3239,3362,3089,3051,3155,3146,3238,2853,3403,3412,3240,3365,3130,3353,3386,3194
1508405838255471144,153,1508405838255109318,plot_matl,0.0,0.0,1.40129846432e-45,4.59163467805e-41,-0.0331743061543,4.55800351491e-41,0.349065840244,0.30498278141,1.3304759264,-0.00346122076735,0.00340915750712,0.00340915750712,0.00903748720884,0.00153396651149,-97.7704467773,-97.7704467773,-135.115020752,0.403567761183,2138,2198,2222,2028,2028,2907,3371,3388,3227,3330,3067,2889,3022,2945,3112,2734,3321,3346,3179,3265,2909,3257,3313,3046,0.010007812,1.529996386,1.531195236,0.680678427219,4500.0,0.654048621655,0.00421023694798,-0.0266297664493,119.833946228,1.34390354156,6000.0,1.33064424992,0.00560999615118,-0.0132592860609,77.8137359619,0.349065840244,0.0216827709228,0.00840138550848,0.000934275740292,0.00104290689342,0.00104290689342,-0.000946569547523,0.00703399768099,0.369750261307,0.369750261307,-1.79193246365,1.14753913879,2037,2032,2544,2043,2043,2921,3420,3423,3239,3362,3089,3051,3155,3146,3238,2853,3403,3412,3240,3365,3129,3351,3387,3194
1508405838265407974,154,1508405838265060697,plot_matl,0.0,0.0,1.40129846432e-45,4.59163467805e-41,-0.0331743061543,4.55800351491e-41,0.349065840244,0.30498278141,1.3304759264,-0.00346122076735,0.00340915750712,0.00340915750712,0.00903748720884,0.00153396651149,-97.7704467773,-97.7704467773,-135.115020752,0.403567761183,1994,2034,2222,2028,2028,2907,3371,3386,3227,3331,3067,2890,3022,2949,3111,2736,3319,3346,3179,3265,2909,3257,3313,3046,0.009950677,1.539947574,1.532404258,0.680678427219,4500.0,0.654048621655,0.00343528809026,-0.0266297664493,119.833946228,1.34390354156,6000.0,1.33069419861,0.00459842430428,-0.0132093774155,77.9994888306,0.349065840244,0.0216827709228,0.00840138550848,0.000934275740292,0.00104290689342,0.00104290689342,-0.000946569547523,0.00703399768099,0.369750261307,0.369750261307,-1.79193246365,1.14753913879,2036,2036,2544,2043,2043,2921,3420,3421,3239,3362,3088,3051,3156,3145,3237,2853,3404,3412,3240,3365,3129,3351,3387,3194
1508405838275533222,155,1508405838275113305,plot_matl,0.0,0.0,1.40129846432e-45,4.59163467805e-41,-0.0331743061543,4.55800351491e-41,0.349065840244,0.30498278141,1.33065235615,-0.00347087532282,0.00180017319508,0.00180017319508,0.00544523773715,-0.00802551489323,-97.3800354004,-97.3800354004,-135.695220947,0.0762866064906,1947,1989,2223,2030,2030,2907,3371,3386,3227,3331,3067,2890,3022,2949,3111,2736,3319,3346,3177,3265,2920,3267,3323,3056,0.01005372,1.550000438,1.5583266,0.680678427219,4500.0,0.654048621655,0.00533314235508,-0.0266297664493,119.833946228,1.34390354156,6000.0,1.33071112633,0.00418964587152,-0.0131923425943,77.9632034302,0.349065840244,0.0216827709228,0.00843068957329,0.000893505872227,0.000740796967875,0.000740796967875,0.0137937320396,0.00711266230792,0.562617123127,0.562617123127,-1.36352562904,0.664483904839,2046,2034,2544,2042,2042,2921,3420,3421,3239,3362,3088,3051,3156,3145,3237,2853,3404,3413,3242,3363,3141,3361,3396,3204
1508405838285441062,156,1508405838285095900,plot_matl,0.0,0.0,1.40129846432e-45,4.59163467805e-41,-0.0331743061543,4.55800351491e-41,0.349065840244,0.30498278141,1.33065235615,-0.00347087532282,0.00180017319508,0.00180017319508,0.00544523773715,-0.00802551489323,-97.3800354004,-97.3800354004,-135.695220947,0.0762866064906,1947,1989,2223,2030,2030,2907,3371,3386,3227,3331,3067,2890,3022,2949,3111,2736,3319,3346,3177,3265,2920,3267,3323,3056,0.009981442,1.559983017,1.557104952,0.680678427219,4500.0,0.654048621655,0.00533314235508,-0.0266297664493,119.833946228,1.34390354156,6000.0,1.33071112633,0.00418964587152,-0.0131923425943,77.9632034302,0.349065840244,0.0216827709228,0.00843068957329,0.000893505872227,0.000740796967875,0.000740796967875,0.0137937320396,0.00711266230792,0.562617123127,0.562617123127,-1.36352562904,0.664483904839,2046,2034,2544,2042,2042,2921,3420,3421,3239,3362,3088,3051,3156,3145,3237,2853,3404,3413,3242,3363,3141,3361,3396,3204
1508405838295516818,157,1508405838295105114,plot_matl,0.0,0.0,1.40129846432e-45,4.59163467805e-41,-0.0331743061543,4.55800351491e-41,0.349065840244,0.30498278141,1.33065235615,-0.00347087532282,0.00180017319508,0.00180017319508,0.00544523773715,-0.00802551489323,-97.3800354004,-97.3800354004,-135.695220947,0.0762866064906,2078,2103,2221,2030,2030,2909,3373,3390,3231,3330,3069,2893,3025,2946,3116,2736,3321,3349,3180,3266,2910,3254,3318,3046,0.010008433,1.569992157,1.571323981,0.680678427219,4500.0,0.654048621655,0.00479303346947,-0.0266297664493,119.833946228,1.34390354156,6000.0,1.33066248894,0.00520497653633,-0.0132410544902,77.8825073242,0.349065840244,0.0216827709228,0.00843068957329,0.000893505872227,0.000740796967875,0.000740796967875,0.0137937320396,0.00711266230792,0.562617123127,0.562617123127,-1.36352562904,0.664483904839,2012,2017,2544,2042,2042,2926,3426,3427,3243,3367,3091,3054,3159,3150,3238,2854,3405,3414,3242,3367,3129,3353,3386,3192
1508405838305433884,158,1508405838305061855,plot_matl,0.0,0.0,1.40129846432e-45,4.59163467805e-41,-0.0331743061543,4.55800351491e-41,0.349065840244,0.30498278141,1.33065235615,-0.00347087532282,0.00180017319508,0.00180017319508,0.00544523773715,-0.00802551489323,-97.3800354004,-97.3800354004,-135.695220947,0.0762866064906,2087,2131,2221,2032,2032,2907,3371,3383,3229,3331,3066,2891,3023,2946,3116,2736,3321,3349,3180,3266,2910,3254,3318,3046,0.009955678,1.579948427,1.572997124,0.680678427219,4500.0,0.654048621655,0.00484387949109,-0.0266297664493,119.833946228,1.34390354156,6000.0,1.33053302765,-0.0312453787774,-0.0133704785258,89.1591873169,0.349065840244,0.0216827709228,0.00843068957329,0.000893505872227,0.000740796967875,0.000740796967875,0.0137937320396,0.00711266230792,0.562617123127,0.562617123127,-1.36352562904,0.664483904839,2027,2024,2544,2038,2038,2921,3423,3423,3240,3364,3088,3053,3155,3150,3238,2854,3405,3414,3242,3367,3129,3353,3386,3192
1508405838315486141,159,1508405838315095049,plot_matl,0.0,0.0,1.40129846432e-45,4.59163467805e-41,-0.0331743061543,4.55800351491e-41,0.349065840244,0.30363330245,1.33073461056,-0.00345274945721,-0.0109573546797,-0.0109573546797,0.00377828837372,-0.00838059838861,-97.4624023438,-97.4624023438,-135.860198975,-0.0180287137628,1939,1991,2221,2032,2032,2907,3371,3383,3229,3331,3066,2891,3023,2948,3114,2734,3320,3347,3177,3263,2910,3257,3316,3046,0.010034227,1.589982302,1.595442093,0.680678427219,4500.0,0.654048621655,0.0038539969828,-0.0266297664493,119.833946228,1.34390354156,6000.0,1.33045971394,0.00928297452629,-0.0134438406676,77.731262207,0.349065840244,0.0192735753953,0.0084239738062,0.000968964013737,-0.0227076672018,-0.0227076672018,0.0139728281647,-0.0192523822188,0.262457311153,0.262457311153,-1.37428283691,0.889636218548,2047,2037,2544,2038,2038,2921,3423,3423,3240,3364,3088,3053,3155,3147,3238,2855,3405,3414,3240,3363,3131,3351,3386,3192
1508405838325384651,160,1508405838325110969,plot_matl,0.0,0.0,1.40129846432e-45,4.59163467805e-41,-0.0331743061543,4.55800351491e-41,0.349065840244,0.30363330245,1.33073461056,-0.00345274945721,-0.0109573546797,-0.0109573546797,0.00377828837372,-0.00838059838861,-97.4624023438,-97.4624023438,-135.860198975,-0.0180287137628,1935,1985,2222,2033,2033,2904,3369,3387,3228,3330,3066,2891,3023,2948,3114,2734,3320,3347,3177,3263,2910,3257,3316,3047,0.010014998,1.599998007,1.60239968,0.680678427219,4500.0,0.654048621655,0.00322370813228,-0.0266297664493,119.833946228,1.34390354156,6000.0,1.33054280281,0.00760997645557,-0.0133606968448,78.0780105591,0.349065840244,0.0192735753953,0.0084239738062,0.000968964013737,-0.0227076672018,-0.0227076672018,0.0139728281647,-0.0192523822188,0.262457311153,0.262457311153,-1.37428283691,0.889636218548,2037,2033,2544,2044,2044,2920,3422,3421,3237,3362,3089,3053,3155,3147,3238,2855,3405,3414,3240,3363,3131,3351,3386,3193
1508405838335478581,161,1508405838335145672,plot_matl,0.0,0.0,1.40129846432e-45,4.59163467805e-41,-0.0331743061543,4.55800351491e-41,0.349065840244,0.30363330245,1.33073461056,-0.00345274945721,-0.0109573546797,-0.0109573546797,0.00377828837372,-0.00838059838861,-97.4624023438,-97.4624023438,-135.860198975,-0.0180287137628,2093,2104,2222,2033,2033,2904,3369,3387,3228,3330,3066,2890,3020,2949,3112,2737,3321,3346,3178,3265,2908,3257,3316,3047,0.010034978,1.610032539,1.615631458,0.680678427219,4500.0,0.654048621655,0.00309460726567,-0.0266297664493,119.833946228,1.34390354156,6000.0,1.33040010929,0.0104034831747,-0.0135034509003,78.1250762939,0.349065840244,0.0192735753953,0.0084239738062,0.000968964013737,-0.0227076672018,-0.0227076672018,0.0139728281647,-0.0192523822188,0.262457311153,0.262457311153,-1.37428283691,0.889636218548,2021,2016,2544,2044,2044,2920,3422,3421,3237,3362,3089,3052,3154,3148,3236,2853,3404,3412,3240,3363,3129,3351,3386,3193
1508405838345467495,162,1508405838345071583,plot_matl,0.0,0.0,1.40129846432e-45,4.59163467805e-41,-0.0331743061543,4.55800351491e-41,0.349065840244,0.30363330245,1.33073461056,-0.00345274945721,-0.0109573546797,-0.0109573546797,0.00377828837372,-0.00838059838861,-97.4624023438,-97.4624023438,-135.860198975,-0.0180287137628,2091,2139,2222,2031,2031,2906,3369,3385,3227,3330,3066,2890,3020,2949,3112,2737,3321,3346,3178,3265,2908,3256,3315,3044,0.009924873,1.619958595,1.607829426,0.680678427219,4500.0,0.654048621655,0.00346963480115,-0.0266297664493,119.833946228,1.34390354156,6000.0,1.33028578758,-0.0263312403113,-0.0136177539825,89.9705429077,0.349065840244,0.0192735753953,0.0084239738062,0.000968964013737,-0.0227076672018,-0.0227076672018,0.0139728281647,-0.0192523822188,0.262457311153,0.262457311153,-1.37428283691,0.889636218548,2024,2023,2542,2042,2042,2919,3422,3424,3239,3362,3089,3052,3154,3148,3236,2853,3404,3412,3240,3363,3129,3350,3387,3191
1508405838355312240,163,1508405838355077828,plot_matl,0.0,0.0,1.40129846432e-45,4.59163467805e-41,-0.0331743061543,4.55800351491e-41,0.349065840244,0.30498278141,1.33049201965,-0.00345709966496,0.00322767719626,0.00322767719626,-0.0304594002664,0.00147568853572,-97.4279785156,-97.4279785156,-135.349624634,0.149653673172,1947,1998,2222,2031,2031,2906,3369,3385,3227,3330,3065,2888,3022,2943,3113,2733,3321,3345,3179,3265,2908,3256,3315,3044,0.010004037,1.629963958,1.630658031,0.680678427219,4500.0,0.655398130417,0.0315033197403,-0.025280283764,113.761283875,1.34390354156,6000.0,1.33036494255,-0.0278995633125,-0.0135385682806,88.9613494873,0.349065840244,0.0240919683129,0.00841758120805,0.000935533258598,0.0226796194911,0.0226796194911,-0.0012573627755,-0.0187332332134,-0.275095552206,-0.275095552206,-1.72635829449,0.94246172905,2035,2031,2542,2042,2042,2919,3422,3424,3239,3362,3088,3049,3155,3145,3236,2852,3403,3412,3240,3363,3129,3350,3387,3191
1508405838365257728,164,1508405838365076141,plot_matl,0.0,0.0,1.40129846432e-45,4.59163467805e-41,-0.0331743061543,4.55800351491e-41,0.349065840244,0.30498278141,1.33049201965,-0.00345709966496,0.00322767719626,0.00322767719626,-0.0304594002664,0.00147568853572,-97.4279785156,-97.4279785156,-135.349624634,0.149653673172,1942,2001,2222,2029,2029,2906,3368,3385,3227,3330,3065,2888,3022,2943,3113,2733,3321,3345,3179,3266,2910,3255,3315,3046,0.009997931,1.639962062,1.639660684,0.680678427219,4500.0,0.654048621655,0.00494440924376,-0.0266297664493,119.833946228,1.34390354156,6000.0,1.33039879799,0.0105092674494,-0.0135047184303,77.9139709473,0.349065840244,0.0240919683129,0.00841758120805,0.000935533258598,0.0226796194911,0.0226796194911,-0.0012573627755,-0.0187332332134,-0.275095552206,-0.275095552206,-1.72635829449,0.94246172905,2033,2031,2543,2042,2042,2920,3420,3424,3239,3362,3088,3049,3155,3145,3236,2852,3403,3412,3240,3366,3129,3350,3387,3192
1508405838375201902,165,1508405838375057487,plot_matl,0.0,0.0,1.40129846432e-45,4.59163467805e-41,-0.0331743061543,4.55800351491e-41,0.349065840244,0.30498278141,1.33049201965,-0.00345709966496,0.00322767719626,0.00322767719626,-0.0304594002664,0.00147568853572,-97.4279785156,-97.4279785156,-135.349624634,0.149653673172,2093,2108,2222,2029,2029,2906,3368,3385,3228,3329,3065,2890,3022,2950,3113,2737,3322,3345,3179,3266,2910,3255,3315,3046,0.00998068,1.649943142,1.6468122,0.680678427219,4500.0,0.652699172497,-0.0207139477134,-0.027979247272,125.906616211,1.34390354156,6000.0,1.33035075665,0.0114079127088,-0.0135528063402,78.1676483154,0.349065840244,0.0240919683129,0.00841758120805,0.000935533258598,0.0226796194911,0.0226796194911,-0.0012573627755,-0.0187332332134,-0.275095552206,-0.275095552206,-1.72635829449,0.94246172905,2010,2007,2543,2042,2042,2920,3420,3421,3238,3365,3086,3052,3155,3146,3235,2853,3404,3412,3240,3366,3129,3350,3387,3192
1508405838385417708,166,1508405838385123331,plot_matl,0.0,0.0,1.40129846432e-45,4.59163467805e-41,-0.0331743061543,4.55800351491e-41,0.349065840244,0.30498278141,1.33049201965,-0.00345709966496,0.00322767719626,0.00322767719626,-0.0304594002664,0.00147568853572,-97.4279785156,-97.4279785156,-135.349624634,0.149653673172,2089,2134,2222,2033,2033,2906,3368,3385,3228,3329,3065,2890,3022,2950,3113,2737,3322,3345,3179,3263,2909,3255,3312,3045,0.010068446,1.660010428,1.671362036,0.680678427219,4500.0,0.654048621655,0.00681881979108,-0.0266297664493,119.833946228,1.34390354156,6000.0,1.3302077055,-0.0638135671616,-0.0136957587674,100.161064148,0.349065840244,0.0240919683129,0.00841758120805,0.000935533258598,0.0226796194911,0.0226796194911,-0.0012573627755,-0.0187332332134,-0.275095552206,-0.275095552206,-1.72635829449,0.94246172905,2012,2013,2544,2042,2042,2920,3420,3421,3238,3365,3086,3052,3155,3146,3235,2853,3404,3414,3241,3363,3128,3352,3386,3192
1508405838395504930,167,1508405838395121631,plot_matl,0.0,0.0,1.40129846432e-45,4.59163467805e-41,-0.0331743061543,4.55800351491e-41,0.349065840244,0.30498278141,1.33034551144,-0.00349764944986,0.00234425952658,0.00234425952658,0.0115356491879,0.00228586490266,-97.4200897217,-97.4200897217,-135.008087158,-0.220691397786,1958,2001,2222,2033,2033,2905,3368,3385,3228,3328,3064,2888,3022,2943,3111,2737,3322,3345,3179,3263,2909,3255,3312,3045,0.009998219,1.670008889,1.669702573,0.680678427219,4500.0,0.654048621655,0.00698281638324,-0.0266297664493,119.833946228,1.34390354156,6000.0,1.33022987843,-0.025153953582,-0.013673633337,89.5854797363,0.349065840244,0.0216827709228,0.0084115145728,0.000828846241347,0.00154583051335,0.00154583051335,-0.00112392054871,0.00781563576311,-0.312845557928,-0.312845557928,-1.19115543365,1.23003304005,2042,2031,2544,2042,2042,2920,3422,3423,3238,3362,3088,3053,3153,3145,3235,2853,3404,3414,3241,3363,3128,3352,3386,3192
1508405838405466952,168,1508405838405061964,plot_matl,0.0,0.0,1.40129846432e-45,4.59163467805e-41,-0.0331743061543,4.55800351491e-41,0.349065840244,0.30498278141,1.33034551144,-0.00349764944986,0.00234425952658,0.00234425952658,0.0115356491879,0.00228586490266,-97.4200897217,-97.4200897217,-135.008087158,-0.220691397786,1941,2005,2223,2033,2033,2905,3368,3385,3228,3328,3064,2888,3022,2943,3111,2733,3321,3347,3179,3263,2909,3257,3315,3045,0.009939387,1.679948771,1.669817016,0.680678427219,4500.0,0.654048621655,0.00619824836031,-0.0266297664493,119.833946228,1.34390354156,6000.0,1.33031535149,0.012192023918,-0.0135881919414,78.2101516724,0.349065840244,0.0216827709228,0.0084115145728,0.000828846241347,0.00154583051335,0.00154583051335,-0.00112392054871,0.00781563576311,-0.312845557928,-0.312845557928,-1.19115543365,1.23003304005,2028,2031,2544,2042,2042,2920,3422,3423,3238,3362,3088,3053,3153,3145,3235,2853,3404,3412,3241,3364,3128,3350,3387,3192
