%time,field.header.seq,field.header.stamp,field.header.frame_id,field.FFJ4_set_point,field.FFJ4_position_gain,field.FFJ4_process_value,field.FFJ4_process_value_dot,field.FFJ4_error,field.FFJ4_command,field.FFJ1,field.FFJ2,field.FFJ3,field.FFJ4,field.FFJ1_dot,field.FFJ2_dot,field.FFJ3_dot,field.FFJ4_dot,field.FFJ1_tao,field.FFJ2_tao,field.FFJ3_tao,field.FFJ4_tao,field.pac0,field.pac1,field.pdc0,field.tac0,field.tdc0,field.el0,field.el1,field.el2,field.el3,field.el4,field.el5,field.el6,field.el7,field.el8,field.el9,field.el10,field.el11,field.el12,field.el13,field.el14,field.el15,field.el16,field.el17,field.el18,field.dt,field.time,field.test_time2,field.FFJ0_set_point,field.FFJ0_position_gain,field.FFJ0_process_value,field.FFJ0_process_value_dot,field.FFJ0_error,field.FFJ0_command,field.FFJ3_set_point,field.FFJ3_position_gain,field.FFJ3_process_value,field.FFJ3_process_value_dot,field.FFJ3_error,field.FFJ3_command,field.MFJ1,field.MFJ2,field.MFJ3,field.MFJ4,field.MFJ1_dot,field.MFJ2_dot,field.MFJ3_dot,field.MFJ4_dot,field.MFJ1_tao,field.MFJ2_tao,field.MFJ3_tao,field.MFJ4_tao,field.Mpac0,field.Mpac1,field.Mpdc0,field.Mtac0,field.Mtdc0,field.Mel0,field.Mel1,field.Mel2,field.Mel3,field.Mel4,field.Mel5,field.Mel6,field.Mel7,field.Mel8,field.Mel9,field.Mel10,field.Mel11,field.Mel12,field.Mel13,field.Mel14,field.Mel15,field.Mel16,field.Mel17,field.Mel18
1508406046320796924,94,1508406046320252848,plot_matl,0.0,0.0,1.40129846432e-45,4.59163467805e-41,2.85526781429e-37,4.59121428851e-41,0.349065840244,0.30498278141,1.32991600037,-0.0034284114372,0.00390843302011,0.00390843302011,-0.0188041608781,-0.00886805076152,-96.2301254272,-96.2301254272,-132.615905762,0.0865020900965,1948,2077,2214,1990,1990,2894,3356,3378,3224,3332,3071,2893,3025,2951,3116,2741,3325,3350,3183,3262,2909,3253,3316,3048,0.010051371,0.939975616,0.944828874,0.680678427219,4500.0,0.654048621655,0.00781686604023,-0.0266297664493,119.833946228,1.34390354156,6000.0,1.32991600037,-0.0188041608781,-0.013987487182,89.2335739136,0.349065840244,0.0216827709228,0.00843529962003,0.000980824814178,0.000912227958906,0.000912227958906,-0.00161471765023,-0.0197826493531,0.499026596546,0.499026596546,-2.72141575813,2.28116369247,2043,1980,2546,2040,2040,2920,3421,3419,3237,3364,3088,3049,3155,3145,3234,2850,3402,3412,3239,3363,3127,3350,3388,3192
1508406046330917649,95,1508406046330272907,plot_matl,0.0,0.0,1.40129846432e-45,4.59163467805e-41,2.85526781429e-37,4.59121428851e-41,0.349065840244,0.30363330245,1.32984960079,-0.00342034944333,-0.00944201461971,-0.00944201461971,-0.017472980544,0.000736395595595,-96.2668838501,-96.2668838501,-132.782989502,-0.0395306460559,1948,2077,2214,1990,1990,2894,3356,3378,3224,3332,3071,2893,3025,2951,3116,2741,3325,3350,3183,3262,2909,3253,3316,3048,0.010020486,0.949995845,0.95194617,0.680678427219,4500.0,0.652699172497,-0.0188840292394,-0.027979247272,125.906616211,1.34390354156,6000.0,1.32984960079,-0.017472980544,-0.014053972438,89.7501525879,0.349065840244,0.0216827709228,0.00842067971826,0.000953188515268,0.0016160858795,0.0016160858795,-0.00131963856984,-0.0192455723882,0.511766731739,0.511766731739,-2.29490089417,1.919729352,2043,1980,2546,2040,2040,2920,3421,3419,3237,3364,3088,3049,3155,3145,3234,2850,3402,3412,3239,3363,3127,3350,3388,3192
1508406046340762601,96,1508406046340244637,plot_matl,0.0,0.0,1.40129846432e-45,4.59163467805e-41,2.85526781429e-37,4.59121428851e-41,0.349065840244,0.30498278141,1.32990539074,-0.00342931132764,0.00420015444979,0.00420015444979,-0.0185532085598,0.000920817547012,-96.35521698,-96.35521698,-132.484390259,-0.178693443537,1965,2082,2221,1986,1986,2894,3356,3378,3227,3329,3063,2894,3023,2946,3112,2750,3329,3347,3180,3266,2909,3254,3315,3049,0.009971233,0.959967575,0.957238368,0.680678427219,4500.0,0.654048621655,0.00840030889958,-0.0266297664493,119.833946228,1.34390354156,6000.0,1.32990539074,-0.0185532085598,-0.0139981098473,89.4108200073,0.349065840244,0.0216827709228,0.0084235817194,0.000956134637818,0.00217724964023,0.00217724964023,-0.00137542677112,0.0051365098916,0.631537914276,0.631537914276,-1.91425001621,1.99230158329,2025,1970,2544,2037,2037,2919,3421,3419,3239,3364,3088,3050,3155,3147,3234,2848,3403,3411,3238,3363,3127,3352,3387,3192
1508406046350688064,97,1508406046350222075,plot_matl,0.0,0.0,1.40129846432e-45,4.59163467805e-41,2.85526781429e-37,4.59121428851e-41,0.349065840244,0.30498278141,1.32988250256,-0.00342114898376,0.00439878366888,0.00439878366888,-0.0180924274027,0.000753855041694,-96.5091018677,-96.5091018677,-132.533325195,-0.183406338096,2033,1955,2221,1986,1986,2894,3354,3377,3219,3328,3061,2891,3023,2955,3114,2747,3329,3347,3180,3266,2909,3254,3315,3049,0.009976325,0.969944983,0.967703525,0.680678427219,4500.0,0.654048621655,0.00879756733775,-0.0266297664493,119.833946228,1.34390354156,6000.0,1.32988250256,-0.0180924274027,-0.0140210101381,89.5621185303,0.349065840244,0.0192735753953,0.00842536427081,0.000935043906793,-0.0207524914294,-0.0207524914294,-0.0014085166622,0.00559297576547,0.623756945133,0.623756945133,-2.37169718742,1.83352208138,2007,2074,2544,2037,2037,2919,3421,3423,3238,3363,3087,3049,3154,3146,3235,2846,3403,3411,3238,3363,3127,3352,3387,3192
1508406046360446625,98,1508406046360226569,plot_matl,0.0,0.0,1.40129846432e-45,4.59163467805e-41,2.85526781429e-37,4.59121428851e-41,0.349065840244,0.30498278141,1.32989537716,-0.00341282156296,0.00529557745904,0.00529557745904,-0.0183344129473,0.0103551354259,-96.4168243408,-96.4168243408,-132.629928589,-0.20410631597,1955,2092,2224,1987,1987,2894,3354,3377,3219,3328,3061,2891,3023,2955,3114,2747,3326,3345,3179,3265,2911,3255,3313,3046,0.010003377,0.979949216,0.980330946,0.680678427219,4500.0,0.654048621655,0.0105911549181,-0.0266297664493,119.833946228,1.34390354156,6000.0,1.32989537716,-0.0183344129473,-0.0140081122518,89.5576782227,0.349065840244,0.0192735753953,0.00841266475618,0.00096477905754,-0.0208475310355,-0.0208475310355,-0.00115321809426,0.00498271826655,0.617134690285,0.617134690285,-2.08902525902,1.69328212738,2041,1981,2545,2036,2036,2919,3421,3423,3238,3363,3087,3049,3154,3146,3235,2846,3402,3411,3241,3363,3129,3350,3386,3194
1508406046370533051,99,1508406046370244881,plot_matl,0.0,0.0,1.40129846432e-45,4.59163467805e-41,2.85526781429e-37,4.59121428851e-41,0.349065840244,0.30363330245,1.32993960381,-0.00343264173716,-0.00855829101056,-0.00855829101056,-0.0192313231528,0.000992396264337,-96.4115905762,-96.4115905762,-132.599319458,-0.295406550169,2026,1957,2224,1987,1987,2887,3354,3380,3223,3328,3067,2891,3022,2954,3114,2747,3326,3345,3179,3265,2911,3255,3313,3046,0.010017016,0.989967008,0.991684584,0.680678427219,4500.0,0.652699172497,-0.0171165820211,-0.027979247272,125.906616211,1.34390354156,6000.0,1.32993960381,-0.0192313231528,-0.013963968493,89.582649231,0.349065840244,0.0216827709228,0.0084022609517,0.000967006722931,0.00372419808991,0.00372419808991,-0.000944062776398,0.00495404843241,0.616210460663,0.616210460663,-1.90094149113,1.57198739052,2020,2076,2545,2036,2036,2918,3422,3421,3237,3362,3086,3049,3153,3146,3235,2846,3402,3411,3241,3363,3129,3350,3386,3194
1508406046380720702,100,1508406046380270211,plot_matl,0.0,0.0,1.40129846432e-45,4.59163467805e-41,2.85526781429e-37,4.59121428851e-41,0.349065840244,0.30498278141,1.33008038998,-0.00344187626615,0.0044647231698,0.0044647231698,0.016999354586,-0.0086113633588,-96.524848938,-96.524848938,-132.614425659,-0.536125421524,1949,2076,2224,1987,1987,2887,3354,3380,3223,3328,3067,2891,3022,2954,3112,2740,3327,3348,3180,3263,2909,3255,3316,3049,0.010027147,0.999992898,1.0027147,0.680678427219,4500.0,0.654048621655,0.0103247407824,-0.0266297664493,119.833946228,1.34390354156,6000.0,1.3300191164,0.0182393994182,-0.0138843972236,77.3706130981,0.349065840244,0.0216827709228,0.00838677212596,0.000987207749858,0.00220278603956,0.00220278603956,-0.00063268566737,0.00450325245038,0.529211938381,0.529211938381,-2.33500695229,1.19820582867,2026,1966,2545,2036,2036,2918,3422,3421,3237,3362,3086,3049,3153,3146,3235,2849,3403,3411,3238,3362,3127,3350,3386,3191
1508406046390644187,101,1508406046390223088,plot_matl,0.0,0.0,1.40129846432e-45,4.59163467805e-41,2.85526781429e-37,4.59121428851e-41,0.349065840244,0.30498278141,1.33008038998,-0.00344187626615,0.0044647231698,0.0044647231698,0.016999354586,-0.0086113633588,-96.524848938,-96.524848938,-132.614425659,-0.536125421524,2028,1953,2219,1986,1986,2893,3355,3380,3226,3332,3067,2893,3022,2954,3112,2740,3327,3348,3180,3263,2909,3255,3316,3049,0.009952005,1.009946231,1.005152505,0.680678427219,4500.0,0.654048621655,0.00892944633961,-0.0266297664493,119.833946228,1.34390354156,6000.0,1.33008038998,0.016999354586,-0.0138230873272,77.931678772,0.349065840244,0.0216827709228,0.00838677212596,0.000987207749858,0.00220278603956,0.00220278603956,-0.00063268566737,0.00450325245038,0.529211938381,0.529211938381,-2.33500695229,1.19820582867,2003,2071,2547,2038,2038,2919,3421,3421,3236,3363,3090,3050,3153,3146,3235,2849,3403,3411,3238,3362,3127,3350,3386,3191
1508406046400668542,102,1508406046400229176,plot_matl,0.0,0.0,1.40129846432e-45,4.59163467805e-41,2.85526781429e-37,4.59121428851e-41,0.349065840244,0.30498278141,1.33001852036,-0.00344873778522,0.00438066758215,0.00438066758215,-0.0207904987037,0.00130053889006,-96.5739974976,-96.5739974976,-132.518661499,-0.641132354736,1969,2097,2219,1986,1986,2893,3355,3380,3226,3332,3067,2893,3027,2948,3111,2746,3327,3349,3181,3265,2907,3253,3316,3049,0.010005476,1.019952078,1.020558552,0.680678427219,4500.0,0.654048621655,0.00876133516431,-0.0266297664493,119.833946228,1.34390354156,6000.0,1.33001852036,-0.0207904987037,-0.0138850174844,90.1772918701,0.349065840244,0.0192735753953,0.00838102772832,0.000958392163739,-0.0220361277461,-0.0220361277461,-0.000517211970873,-0.0194002334028,0.322042733431,0.322042733431,-2.12106442451,1.02259504795,2038,1984,2547,2038,2038,2919,3421,3421,3236,3363,3090,3050,3155,3143,3236,2849,3403,3411,3239,3363,3126,3352,3386,3191
1508406046410578526,103,1508406046410207856,plot_matl,0.0,0.0,1.40129846432e-45,4.59163467805e-41,2.85526781429e-37,4.59121428851e-41,0.349065840244,0.30498278141,1.33008408546,-0.00344566488639,0.00481083802879,0.00481083802879,0.0169563833624,0.00124020804651,-96.750579834,-96.750579834,-132.558883667,-0.706195175648,2016,1957,2220,1988,1988,2896,3357,3378,3222,3328,3067,2893,3027,2948,3111,2746,3327,3349,3181,3265,2907,3253,3316,3047,0.009978054,1.029930584,1.027739562,0.680678427219,4500.0,0.654048621655,0.00962167605758,-0.0266297664493,119.833946228,1.34390354156,6000.0,1.33008408546,0.0169563833624,-0.0138194365427,77.2811050415,0.349065840244,0.0216827709228,0.00836233515292,0.000938890327234,0.00228023715317,0.00228023715317,-0.000139215873787,0.0054698260501,0.303383678198,0.303383678198,-2.31367468834,1.09656500816,2009,2069,2546,2037,2037,2919,3422,3423,3238,3363,3090,3050,3155,3143,3236,2849,3403,3411,3239,3363,3126,3352,3385,3192
1508406046420332994,104,1508406046420182746,plot_matl,0.0,0.0,1.40129846432e-45,4.59163467805e-41,2.85526781429e-37,4.59121428851e-41,0.349065840244,0.30633226037,1.33013355732,-0.00342427031137,0.0178016778082,0.0178016778082,0.0159608200192,0.000805346993729,-96.6637039185,-96.6637039185,-132.734237671,-0.68720728159,1948,2072,2220,1988,1988,2896,3357,3378,3222,3328,3062,2890,3022,2952,3114,2748,3326,3349,3180,3266,2907,3253,3316,3047,0.009972526,1.039904399,1.037142704,0.680678427219,4500.0,0.655398130417,0.0356033556163,-0.025280283764,113.761283875,1.34390354156,6000.0,1.33013355732,0.0159608200192,-0.013769954443,77.5142745972,0.349065840244,0.0216827709228,0.00834717787802,0.000970051623881,0.00186723005027,0.00186723005027,0.000165265824762,0.00487058376893,0.494181573391,0.494181573391,-2.04062628746,0.996298789978,2030,1972,2546,2037,2037,2919,3422,3423,3238,3363,3089,3049,3153,3145,3233,2846,3403,3410,3241,3366,3126,3352,3385,3192
1508406046430647433,105,1508406046430209272,plot_matl,0.0,0.0,1.40129846432e-45,4.59163467805e-41,2.85526781429e-37,4.59121428851e-41,0.349065840244,0.30363330245,1.3301012516,-0.00344312656671,-0.00944938324392,-0.00944938324392,-0.0224283020943,-0.00858279131353,-96.6840438843,-96.6840438843,-132.750518799,-0.722986340523,2042,1961,2226,1989,1989,2891,3353,3377,3222,3328,3062,2890,3022,2952,3114,2748,3326,3349,3180,3266,2910,3255,3313,3046,0.01002872,1.049932075,1.0530156,0.680678427219,4500.0,0.652699172497,-0.0188987664878,-0.027979247272,125.906616211,1.34390354156,6000.0,1.3301012516,-0.0224283020943,-0.0138023057953,89.8893127441,0.349065840244,0.0216827709228,0.00834864471108,0.000928463996388,0.00201468286105,0.00201468286105,0.000135414098622,-0.0187674518675,0.375024288893,0.375024288893,-1.8240237236,0.865618407726,2015,2080,2545,2038,2038,2919,3421,3422,3238,3363,3089,3049,3153,3145,3233,2846,3403,3410,3241,3366,3128,3350,3387,3194
1508406046440482888,106,1508406046440204305,plot_matl,0.0,0.0,1.40129846432e-45,4.59163467805e-41,2.85526781429e-37,4.59121428851e-41,0.349065840244,0.30498278141,1.33006942272,-0.00345004419796,0.00342198717408,0.00342198717408,-0.0218108128756,-0.00843968894333,-96.5242004395,-96.5242004395,-132.832260132,-0.744628190994,1958,2085,2226,1989,1989,2891,3353,3377,3221,3329,3067,2890,3024,2957,3114,2741,3324,3345,3180,3266,2910,3255,3313,3046,0.009994747,1.059927338,1.059443182,0.680678427219,4500.0,0.654048621655,0.00684397434816,-0.0266297664493,119.833946228,1.34390354156,6000.0,1.33006942272,-0.0218108128756,-0.0138341262937,89.2224578857,0.349065840244,0.0216827709228,0.00834984797984,0.00095694558695,0.00121075112838,0.00121075112838,0.000110943328764,-0.0193348806351,0.487964063883,0.487964063883,-1.64275324345,0.778409004211,2043,1979,2545,2038,2038,2919,3421,3422,3237,3363,3088,3050,3154,3143,3236,2848,3402,3411,3241,3366,3128,3350,3387,3194
1508406046450650688,107,1508406046450196035,plot_matl,0.0,0.0,1.40129846432e-45,4.59163467805e-41,2.85526781429e-37,4.59121428851e-41,0.349065840244,0.30363330245,1.33008480072,-0.00343812373467,-0.0100683197379,-0.0100683197379,0.0169634092599,0.00108871574048,-96.4291610718,-96.4291610718,-133.007781982,-0.701245367527,1958,2085,2226,1989,1989,2891,3353,3377,3221,3329,3067,2890,3024,2957,3114,2741,3324,3345,3180,3266,2910,3255,3313,3046,0.009990127,1.069918557,1.068943589,0.680678427219,4500.0,0.652699172497,-0.0201366394758,-0.027979247272,125.906616211,1.34390354156,6000.0,1.33008480072,0.0169634092599,-0.0138187678531,77.8289794922,0.349065840244,0.0216827709228,0.00836481805891,0.000980288372375,0.00141367397737,0.00141367397737,-0.000183865005965,-0.0198145117611,0.502336978912,0.502336978912,-2.09209442139,0.676377296448,2043,1979,2545,2038,2038,2919,3421,3422,3237,3363,3088,3050,3154,3143,3236,2848,3402,3411,3241,3366,3128,3350,3387,3194
1508406046460615672,108,1508406046460249174,plot_matl,0.0,0.0,1.40129846432e-45,4.59163467805e-41,2.85526781429e-37,4.59121428851e-41,0.349065840244,0.30498278141,1.32995271683,-0.00343721034005,0.0034093207214,0.0034093207214,-0.0194926336408,-0.00869848206639,-96.3513183594,-96.3513183594,-132.886962891,-0.628233969212,1961,2088,2220,1990,1990,2892,3353,3380,3226,3329,3069,2894,3025,2949,3112,2743,3324,3345,3180,3266,2909,3255,3314,3047,0.010054042,1.079972173,1.085836536,0.680678427219,4500.0,0.654048621655,0.00681864144281,-0.0266297664493,119.833946228,1.34390354156,6000.0,1.32995271683,-0.0194926336408,-0.0139507576823,89.5485153198,0.349065840244,0.0192735753953,0.00836309138685,0.00100056454539,-0.0226319916546,-0.0226319916546,-0.000150515144924,0.00426315516233,0.346043974161,0.346043974161,-1.93052816391,0.347065895796,2042,1985,2547,2032,2032,2921,3421,3422,3237,3361,3088,3052,3153,3146,3236,2850,3402,3411,3239,3366,3126,3349,3388,3193
1508406046470702561,109,1508406046470209648,plot_matl,0.0,0.0,1.40129846432e-45,4.59163467805e-41,2.85526781429e-37,4.59121428851e-41,0.349065840244,0.30498278141,1.32992386818,-0.00343613489531,0.00354577205144,0.00354577205144,-0.0189132131636,0.00104610610288,-96.4268341064,-96.4268341064,-132.821609497,-0.56816470623,2039,1961,2216,1992,1992,2892,3353,3380,3226,3329,3069,2894,3025,2949,3112,2743,3328,3347,3182,3265,2908,3255,3316,3051,0.009960089,1.089932471,1.085649701,0.680678427219,4500.0,0.654048621655,0.00709154410288,-0.0266297664493,119.833946228,1.34390354156,6000.0,1.32992386818,-0.0189132131636,-0.0139796342701,89.5471191406,0.349065840244,0.0216827709228,0.00836168322712,0.000948319968302,0.00186519732233,0.00186519732233,-0.000123304867884,-0.0191731546074,0.606312811375,0.606312811375,-1.73198950291,0.447423160076,2018,2081,2546,2030,2030,2921,3421,3422,3237,3361,3088,3052,3153,3146,3236,2850,3402,3411,3239,3365,3126,3350,3387,3194
1508406046480601120,110,1508406046480238799,plot_matl,0.0,0.0,1.40129846432e-45,4.59163467805e-41,2.85526781429e-37,4.59121428851e-41,0.349065840244,0.30498278141,1.32988774776,-0.00343624642119,0.00339814112522,0.00339814112522,-0.0181719064713,0.00104830600321,-96.5047454834,-96.5047454834,-132.847229004,-0.481620490551,1952,2085,2216,1992,1992,2898,3354,3377,3226,3329,3062,2893,3024,2948,3112,2743,3328,3347,3182,3265,2908,3255,3316,3051,0.010027902,1.099961326,1.10306922,0.680678427219,4500.0,0.654048621655,0.00679628225043,-0.0266297664493,119.833946228,1.34390354156,6000.0,1.32988774776,-0.0181719064713,-0.0140158003196,89.8374862671,0.349065840244,0.0216827709228,0.00836052093655,0.000975821458269,0.0011143013835,0.0011143013835,-0.000100846700661,0.00475416751578,0.602753281593,0.602753281593,-2.05688667297,0.512966871262,2029,1980,2546,2030,2030,2919,3421,3422,3239,3362,3089,3049,3153,3145,3236,2850,3402,3411,3239,3365,3126,3350,3387,3194
1508406046490661851,111,1508406046490229226,plot_matl,0.0,0.0,1.40129846432e-45,4.59163467805e-41,2.85526781429e-37,4.59121428851e-41,0.349065840244,0.30363330245,1.32989358902,-0.00342680793256,-0.010165351443,-0.010165351443,-0.0183509327471,0.000857850944158,-96.4130401611,-96.4130401611,-132.892807007,-0.425098657608,1994,1957,2216,1992,1992,2898,3354,3377,3226,3329,3062,2893,3024,2948,3112,2750,3328,3349,3180,3264,2910,3251,3316,3047,0.009990397,1.109951958,1.108934067,0.680678427219,4500.0,0.652699172497,-0.020330702886,-0.027979247272,125.906616211,1.34390354156,6000.0,1.32989358902,-0.0183509327471,-0.0140099320561,89.4741821289,0.349065840244,0.0216827709228,0.00838511623442,0.000952952832449,0.000541064655408,0.000541064655408,-0.000603404536378,0.00519575225189,0.537761271,0.537761271,-1.75199687481,0.561746954918,2023,2078,2546,2030,2030,2919,3421,3422,3239,3362,3089,3049,3153,3145,3236,2848,3403,3412,3239,3362,3129,3350,3388,3193
1508406046500584675,112,1508406046500224559,plot_matl,0.0,0.0,1.40129846432e-45,4.59163467805e-41,2.85526781429e-37,4.59121428851e-41,0.349065840244,0.30363330245,1.32990241051,-0.00342675158754,-0.00934901554137,-0.00934901554137,0.0205575935543,0.000862040324137,-96.5521087646,-96.5521087646,-132.764099121,-0.383000224829,1964,2092,2222,1990,1990,2892,3351,3378,3222,3327,3062,2890,3024,2948,3112,2750,3328,3349,3180,3264,2910,3251,3316,3047,0.009995229,1.11994713,1.119465648,0.680678427219,4500.0,0.652699172497,-0.0186980310827,-0.027979247272,125.906616211,1.34390354156,6000.0,1.32990241051,0.0205575935543,-0.0140010556206,78.3255615234,0.349065840244,0.0192735753953,0.00839251000434,0.000956961361226,-0.0234531704336,-0.0234531704336,-0.000756604596972,0.0295722782612,0.697681188583,0.697681188583,-1.61652040482,0.443875014782,2031,1975,2544,2032,2032,2919,3423,3421,3239,3362,3088,3049,3153,3145,3236,2848,3403,3412,3239,3362,3129,3350,3388,3193
1508406046510948238,113,1508406046510199266,plot_matl,0.0,0.0,1.40129846432e-45,4.59163467805e-41,2.85526781429e-37,4.59121428851e-41,0.349065840244,0.30363330245,1.3299447298,-0.00344609678723,-0.00861634593457,-0.00861634593457,-0.0193715766072,0.00124949938618,-96.4520568848,-96.4520568848,-132.464874268,-0.276627957821,2007,1955,2222,1990,1990,2892,3351,3378,3222,3327,3062,2890,3023,2957,3115,2743,3327,3347,3178,3265,2911,3254,3316,3047,0.009973842,1.12992193,1.127044146,0.680678427219,4500.0,0.652699172497,-0.0172326918691,-0.027979247272,125.906616211,1.34390354156,6000.0,1.3299447298,-0.0193715766072,-0.0139587810263,89.5649032593,0.349065840244,0.0216827709228,0.00839830283076,0.00093802990159,0.00159224192612,0.00159224192612,-0.000872386037372,0.00548441475257,0.59686768055,0.59686768055,-1.34016430378,0.633928716183,2014,2077,2544,2032,2032,2919,3423,3421,3239,3362,3088,3049,3152,3144,3233,2848,3403,3413,3240,3365,3127,3351,3388,3193
1508406046520500927,114,1508406046520223226,plot_matl,0.0,0.0,1.40129846432e-45,4.59163467805e-41,2.85526781429e-37,4.59121428851e-41,0.349065840244,0.30498278141,1.32994580269,-0.00344372401014,0.00438114721328,0.00438114721328,0.0197137631476,0.00119857687969,-96.4427337646,-96.4427337646,-132.435623169,-0.205861583352,1977,2080,2222,1989,1989,2890,3352,3379,3225,3330,3062,2890,3023,2957,3115,2743,3327,3347,3178,3265,2911,3254,3314,3046,0.010023979,1.139945841,1.142733606,0.680678427219,4500.0,0.654048621655,0.00876229442656,-0.0266297664493,119.833946228,1.34390354156,6000.0,1.32994580269,0.0197137631476,-0.0139577742666,78.5572662354,0.349065840244,0.0240919683129,0.00839050859213,0.000947168970015,0.0260644927621,0.0260644927621,-0.000714276684448,0.00532015180215,0.637736678123,0.637736678123,-1.24220943451,0.509075462818,2024,1963,2546,2032,2032,2920,3423,3424,3236,3362,3088,3049,3152,3144,3233,2848,3403,3413,3240,3365,3127,3351,3386,3194
1508406046530439074,115,1508406046530182229,plot_matl,0.0,0.0,1.40129846432e-45,4.59163467805e-41,2.85526781429e-37,4.59121428851e-41,0.349065840244,0.30498278141,1.32997715473,-0.00343289016746,0.00385846663266,0.00385846663266,0.0190680343658,0.000980077427812,-96.4340744019,-96.4340744019,-132.35118103,-0.256975382566,1977,2080,2222,1989,1989,2890,3352,3379,3225,3330,3062,2890,3023,2957,3115,2743,3327,3347,3178,3265,2911,3254,3314,3046,0.009956986,1.149903916,1.14505339,0.680678427219,4500.0,0.654048621655,0.00771693326533,-0.0266297664493,119.833946228,1.34390354156,6000.0,1.32997715473,0.0190680343658,-0.0139263411984,78.1908111572,0.349065840244,0.0216827709228,0.00838408991694,0.00095251458697,0.00233606970869,0.00233606970869,-0.000584064691793,0.00523315137252,0.495310813189,0.495310813189,-1.77175819874,0.759790658951,2024,1963,2546,2032,2032,2920,3423,3424,3236,3362,3088,3049,3152,3144,3233,2848,3403,3413,3240,3365,3127,3351,3386,3194
1508406046540625483,116,1508406046540221427,plot_matl,0.0,0.0,1.40129846432e-45,4.59163467805e-41,2.85526781429e-37,4.59121428851e-41,0.349065840244,0.30498278141,1.3300178051,-0.00342409941368,0.00339270522818,0.00339270522818,0.0183260459453,0.00080278707901,-96.4203033447,-96.4203033447,-132.267059326,-0.261392444372,1960,2083,2215,1991,1991,2897,3355,3380,3225,3330,3070,2892,3025,2953,3114,2741,3327,3349,3182,3264,2910,3256,3317,3049,0.010040435,1.15994401,1.16469046,0.680678427219,4500.0,0.654048621655,0.00678541045636,-0.0266297664493,119.833946228,1.34390354156,6000.0,1.3300178051,0.0183260459453,-0.013885688968,77.8948745728,0.349065840244,0.0192735753953,0.00839165132493,0.0009589921101,-0.0210739262402,-0.0210739262402,-0.000748529564589,0.00512770889327,0.506668925285,0.506668925285,-1.66191017628,0.89159488678,2033,1976,2546,2034,2034,2920,3421,3420,3236,3362,3088,3049,3154,3144,3235,2850,3404,3413,3239,3364,3129,3349,3387,3193
1508406046550328343,117,1508406046550183112,plot_matl,0.0,0.0,1.40129846432e-45,4.59163467805e-41,2.85526781429e-37,4.59121428851e-41,0.349065840244,0.30498278141,1.33010911942,-0.00342678045854,0.00370906060562,0.00370906060562,0.0164728350937,0.000854415819049,-96.4907913208,-96.4907913208,-132.109588623,-0.283112168312,2011,1951,2215,1991,1991,2897,3355,3380,3229,3331,3066,2894,3026,2947,3112,2750,3328,3350,3182,3264,2910,3256,3317,3049,0.00995979,1.169904759,1.16529543,0.680678427219,4500.0,0.654048621655,0.00741812121123,-0.0266297664493,119.833946228,1.34390354156,6000.0,1.33010911942,0.0164728350937,-0.0137944510207,77.7906036377,0.349065840244,0.0216827709228,0.00838430039585,0.00091805215925,0.00360023812391,0.00360023812391,-0.000594868441112,0.00594251602888,0.448079288006,0.448079288006,-1.47205162048,1.11009526253,2010,2071,2546,2034,2034,2920,3421,3420,3237,3363,3088,3049,3153,3146,3236,2848,3403,3410,3239,3364,3129,3349,3387,3193
1508406046560528486,118,1508406046560204206,plot_matl,0.0,0.0,1.40129846432e-45,4.59163467805e-41,2.85526781429e-37,4.59121428851e-41,0.349065840244,0.30363330245,1.3300434351,-0.00341907911934,-0.00987167749554,-0.00987167749554,0.0177450794727,0.00069953664206,-96.5518722534,-96.5518722534,-132.359954834,-0.323458909988,1957,2079,2222,1991,1991,2896,3355,3380,3229,3331,3066,2894,3026,2947,3112,2750,3328,3350,3180,3264,2908,3255,3318,3045,0.010022666,1.179926919,1.182674588,0.680678427219,4500.0,0.652699172497,-0.0197433549911,-0.027979247272,125.906616211,1.34390354156,6000.0,1.3300434351,0.0177450794727,-0.0138600645587,77.9652938843,0.349065840244,0.0216827709228,0.00842023454607,0.000927845016122,0.00429246854037,0.00429246854037,-0.00131261430215,0.00574314128608,0.548125445843,0.548125445843,-1.38648319244,1.18287038803,2044,1977,2545,2032,2032,2918,3421,3420,3237,3363,3088,3049,3153,3146,3236,2848,3403,3410,3238,3364,3129,3350,3385,3193
1508406046570467159,119,1508406046570184182,plot_matl,0.0,0.0,1.40129846432e-45,4.59163467805e-41,2.85526781429e-37,4.59121428851e-41,0.349065840244,0.30498278141,1.32995939255,-0.00343114347197,0.0035467306152,0.0035467306152,-0.0196319986135,0.000944097118918,-96.4927444458,-96.4927444458,-132.422195435,-0.364481389523,2031,1951,2222,1991,1991,2896,3353,3379,3222,3328,3064,2888,3022,2955,3116,2746,3328,3350,3180,3264,2908,3255,3318,3045,0.009977405,1.189905721,1.187311195,0.680678427219,4500.0,0.654048621655,0.0070934612304,-0.0266297664493,119.833946228,1.34390354156,6000.0,1.32995939255,-0.0196319986135,-0.0139441499487,89.5417327881,0.349065840244,0.0216827709228,0.00840846728534,0.000958579883445,0.00434289965779,0.00434289965779,-0.00107474450488,0.00512240733951,0.493737339973,0.493737339973,-1.95673406124,1.18887579441,2014,2078,2545,2032,2032,2918,3420,3422,3240,3362,3088,3049,3153,3144,3236,2848,3403,3410,3238,3364,3129,3350,3385,3193
1508406046580631719,120,1508406046580234518,plot_matl,0.0,0.0,1.40129846432e-45,4.59163467805e-41,2.85526781429e-37,4.59121428851e-41,0.349065840244,0.30498278141,1.32995057106,-0.00344135332853,0.00317758577876,0.00317758577876,-0.0195788722485,0.00112403742969,-96.5471420288,-96.5471420288,-132.58543396,-0.387166202068,1946,2078,2224,1990,1990,2896,3353,3379,3222,3328,3064,2888,3022,2955,3116,2746,3328,3346,3180,3263,2911,3254,3315,3046,0.0100518,1.19995718,1.206216,0.680678427219,4500.0,0.654048621655,0.00635517155752,-0.0266297664493,119.833946228,1.34390354156,6000.0,1.32995057106,-0.0195788722485,-0.0139529621229,89.7369842529,0.349065840244,0.0192735753953,0.00843732059002,0.000914587930311,-0.0197594277561,-0.0197594277561,-0.00168301071972,0.0060233999975,0.58574026823,0.58574026823,-1.70526278019,1.31401216984,2035,1977,2544,2034,2034,2918,3420,3422,3240,3362,3088,3049,3153,3144,3236,2848,3403,3412,3240,3363,3126,3348,3386,3195
1508406046590560836,121,1508406046590201722,plot_matl,0.0,0.0,1.40129846432e-45,4.59163467805e-41,2.85526781429e-37,4.59121428851e-41,0.349065840244,0.30498278141,1.32995283604,-0.00343103660271,0.00264027970843,0.00264027970843,-0.0195873584598,0.00092080218019,-96.526473999,-96.526473999,-132.400802612,-0.421084880829,2019,1949,2224,1990,1990,2888,3354,3378,3222,3330,3070,2892,3024,2954,3116,2746,3328,3346,3180,3263,2911,3254,3315,3046,0.00996749,1.209924415,1.20606629,0.680678427219,4500.0,0.654048621655,0.00528055941686,-0.0266297664493,119.833946228,1.34390354156,6000.0,1.32995283604,-0.0195873584598,-0.0139507101849,89.5541534424,0.349065840244,0.0216827709228,0.00843526609242,0.000924320658669,0.00332236266695,0.00332236266695,-0.0016600653762,0.00582142919302,0.62503772974,0.62503772974,-1.6189416647,1.09250497818,2008,2077,2544,2034,2034,2919,3423,3424,3238,3363,3088,3050,3152,3145,3236,2848,3403,3412,3240,3363,3126,3348,3386,3195
1508406046600507439,122,1508406046600212025,plot_matl,0.0,0.0,1.40129846432e-45,4.59163467805e-41,2.85526781429e-37,4.59121428851e-41,0.349065840244,0.30498278141,1.33002698421,-0.00343135301955,0.00362702272832,0.00362702272832,0.018043698743,0.00092263991246,-96.505607605,-96.505607605,-132.564575195,-0.397955805063,1969,2090,2224,1990,1990,2888,3354,3378,3222,3330,3070,2892,3024,2954,3117,2740,3327,3348,3180,3264,2910,3255,3316,3050,0.010010066,1.219934807,1.221228052,0.680678427219,4500.0,0.654048621655,0.00725404545665,-0.0266297664493,119.833946228,1.34390354156,6000.0,1.33002698421,0.018043698743,-0.01387657132,77.9992218018,0.349065840244,0.0216827709228,0.00842079985887,0.000888241454959,0.00400586472824,0.00400586472824,-0.00135974318255,0.00653355615214,0.692872107029,0.692872107029,-1.46864128113,1.08385646343,2043,1979,2544,2034,2034,2919,3423,3424,3238,3363,3088,3050,3152,3145,3236,2849,3402,3411,3240,3364,3128,3349,3386,3194
1508406046610561021,123,1508406046610222151,plot_matl,0.0,0.0,1.40129846432e-45,4.59163467805e-41,2.85526781429e-37,4.59121428851e-41,0.349065840244,0.30498278141,1.32992231846,-0.00342292897403,0.00356804626063,0.00356804626063,0.0201900284737,0.000755633693188,-96.4888839722,-96.4888839722,-132.869018555,-0.542170703411,2004,1948,2219,1989,1989,2894,3354,3379,3226,3332,3070,2895,3024,2954,3117,2740,3327,3348,3180,3264,2910,3255,3316,3050,0.01000928,1.229944694,1.23114144,0.680678427219,4500.0,0.654048621655,0.00695670722052,-0.0266297664493,119.833946228,1.34390354156,6000.0,1.32987058163,-0.0178954619914,-0.0140329431742,89.5226135254,0.349065840244,0.0216827709228,0.00841085519642,0.000886672642082,0.00307731679641,0.00307731679641,-0.0011435787892,0.00652671279386,0.543967545033,0.543967545033,-0.978388428688,0.931456744671,2020,2076,2548,2034,2034,2919,3424,3422,3238,3364,3089,3050,3152,3145,3236,2849,3402,3411,3240,3364,3128,3349,3386,3194
1508406046620647154,124,1508406046620203436,plot_matl,0.0,0.0,1.40129846432e-45,4.59163467805e-41,2.85526781429e-37,4.59121428851e-41,0.349065840244,0.30498278141,1.32992231846,-0.00342292897403,0.00356804626063,0.00356804626063,0.0201900284737,0.000755633693188,-96.4888839722,-96.4888839722,-132.869018555,-0.542170703411,1953,2073,2219,1989,1989,2894,3354,3379,3226,3332,3070,2895,3025,2947,3110,2747,3330,3348,3180,3264,2907,3252,3316,3050,0.009981843,1.239926091,1.237748532,0.680678427219,4500.0,0.654048621655,0.00713609252125,-0.0266297664493,119.833946228,1.34390354156,6000.0,1.32992231846,0.0201900284737,-0.013981227763,78.2138366699,0.349065840244,0.0216827709228,0.00841085519642,0.000886672642082,0.00307731679641,0.00307731679641,-0.0011435787892,0.00652671279386,0.543967545033,0.543967545033,-0.978388428688,0.931456744671,2025,1964,2548,2034,2034,2919,3424,3422,3238,3364,3089,3050,3154,3145,3234,2850,3401,3411,3238,3363,3127,3351,3386,3194
1508406046630693091,125,1508406046630218255,plot_matl,0.0,0.0,1.40129846432e-45,4.59163467805e-41,2.85526781429e-37,4.59121428851e-41,0.349065840244,0.30498278141,1.32985532284,-0.00343349948525,0.00370749062859,0.00370749062859,-0.0175993349403,0.000972351408564,-96.6906585693,-96.6906585693,-132.947494507,-0.605334877968,1953,2073,2219,1989,1989,2894,3354,3379,3226,3332,3070,2895,3025,2947,3110,2747,3330,3348,3180,3264,2907,3252,3316,3050,0.010014507,1.249941008,1.251813375,0.680678427219,4500.0,0.654048621655,0.00741498125717,-0.0266297664493,119.833946228,1.34390354156,6000.0,1.32985532284,-0.0175993349403,-0.0140481907874,89.7670440674,0.349065840244,0.0216827709228,0.00842976290733,0.000901133520529,0.00206470000558,0.00206470000558,-0.00150485220365,0.00624926807359,0.626819014549,0.626819014549,-0.947139561176,0.963085532188,2025,1964,2548,2034,2034,2919,3424,3422,3238,3364,3089,3050,3154,3145,3234,2850,3401,3411,3238,3363,3127,3351,3386,3194
1508406046640553814,126,1508406046640200697,plot_matl,0.0,0.0,1.40129846432e-45,4.59163467805e-41,2.85526781429e-37,4.59121428851e-41,0.349065840244,0.30498278141,1.32991850376,-0.00342473294586,0.00489899516106,0.00489899516106,-0.0173172373325,0.000799110159278,-96.5676040649,-96.5676040649,-133.166244507,-0.675651311874,2506,2281,2221,1992,1992,2898,3371,3393,3240,3339,3070,2895,3025,2947,3110,2747,3330,3348,3180,3264,2907,3252,3318,3048,0.009980364,1.25992272,1.257525864,0.680678427219,4500.0,0.652699172497,-0.0185628980398,-0.027979247272,125.906616211,1.34390354156,6000.0,1.32988226414,-0.0167947430164,-0.0140212699771,89.5516433716,0.349065840244,0.0216827709228,0.00842907000333,0.00093646167079,0.00283124577254,0.00283124577254,-0.0022012074478,0.00667483871803,0.83867174387,0.83867174387,-0.923754274845,0.629576921463,1942,1984,2546,2034,2034,2917,3436,3434,3247,3372,3089,3050,3154,3145,3234,2850,3401,3411,3238,3363,3127,3351,3386,3192
1508406046650588517,127,1508406046650193993,plot_matl,0.0,0.0,1.40129846432e-45,4.59163467805e-41,2.85526781429e-37,4.59121428851e-41,0.349065840244,0.30363330245,1.32988595963,-0.00341892358847,-0.00959577970207,-0.00959577970207,-0.0169607978314,0.000682310259435,-96.4653396606,-96.4653396606,-133.193252563,-0.564669668674,1529,1812,2221,1992,1992,2898,3371,3393,3240,3339,3069,2900,3029,2952,3117,2755,3333,3353,3186,3267,2907,3252,3318,3048,0.009993424,1.269916545,1.269164848,0.680678427219,4500.0,0.652699172497,-0.0190413165838,-0.027979247272,125.906616211,1.34390354156,6000.0,1.32988226414,-0.0167947430164,-0.0140212699771,89.5516433716,0.349065840244,0.0216827709228,0.00842903368175,0.000922081933822,0.00320429936983,0.00320429936983,-0.00207582255825,0.00676587875932,0.766148805618,0.766148805618,-1.33309543133,0.75924217701,2117,2085,2546,2034,2034,2917,3436,3434,3247,3372,3097,3055,3160,3150,3243,2852,3407,3416,3241,3367,3127,3351,3386,3192
1508406046660608682,128,1508406046660248831,plot_matl,0.0,0.0,1.40129846432e-45,4.59163467805e-41,2.85526781429e-37,4.59121428851e-41,0.349065840244,0.30498278141,1.32983565331,-0.00343751092441,0.00353461201303,0.00353461201303,0.0229303017259,0.00106724887155,-96.4502487183,-96.4502487183,-132.96711731,-0.538836538792,2489,2266,2221,1993,1993,2897,3355,3380,3240,3339,3069,2900,3029,2952,3117,2755,3333,3353,3186,3267,2912,3257,3318,3050,0.010055966,1.27997203,1.287163648,0.680678427219,4500.0,0.655398130417,0.0340173989534,-0.025280283764,113.761283875,1.34390354156,6000.0,1.32981145382,-0.0157810635865,-0.0140920644626,89.4405899048,0.349065840244,0.0216827709228,0.00842926464975,0.000909868278541,0.00175275630318,0.00175275630318,-0.00197089789435,0.00684105418622,0.808581709862,0.808581709862,-1.05198943615,0.96963083744,1930,1965,2544,2033,2033,2920,3425,3424,3247,3372,3097,3055,3160,3150,3243,2852,3407,3416,3241,3367,3133,3354,3390,3196
1508406046670569076,129,1508406046670203608,plot_matl,0.0,0.0,1.40129846432e-45,4.59163467805e-41,2.85526781429e-37,4.59121428851e-41,0.349065840244,0.30363330245,1.32974803448,-0.0034545592498,-0.0102480780333,-0.0102480780333,-0.014568050392,0.00140629860107,-96.4030761719,-96.4030761719,-132.684295654,-0.567192196846,1524,1812,2221,1993,1993,2897,3355,3380,3220,3331,3065,2892,3023,2957,3117,2747,3329,3348,3186,3267,2912,3257,3318,3050,0.009953754,1.289926335,1.284034266,0.680678427219,4500.0,0.654048621655,0.00801908969879,-0.0266297664493,119.833946228,1.34390354156,6000.0,1.32966196537,-0.0129214916378,-0.0142415408045,89.4438095093,0.349065840244,0.0216827709228,0.00841588806361,0.000919763639104,0.00140832772013,0.00140832772013,-0.00161444302648,0.00650785211474,0.727007865906,0.727007865906,-0.755200743675,1.06342744827,2117,2082,2544,2033,2033,2920,3425,3424,3240,3366,3090,3051,3154,3145,3236,2849,3403,3414,3241,3367,3133,3354,3390,3196
1508406046680586690,130,1508406046680222700,plot_matl,0.0,0.0,1.40129846432e-45,4.59163467805e-41,2.85526781429e-37,4.59121428851e-41,0.349065840244,0.30363330245,1.32960999012,-0.00345100392587,-0.00940365437418,-0.00940365437418,-0.0119277685881,0.00133894605096,-96.4076080322,-96.4076080322,-132.633407593,-0.519962370396,2480,2245,2222,1995,1995,2888,3355,3380,3220,3331,3065,2892,3023,2957,3117,2747,3329,3348,3181,3265,2913,3254,3313,3044,0.010018536,1.299945703,1.30240968,0.680678427219,4500.0,0.655398130417,0.0352410078049,-0.025280283764,113.761283875,1.34390354156,6000.0,1.32964837551,-0.0127728786319,-0.0142551371828,89.4565582275,0.349065840244,0.0216827709228,0.00841884594411,0.000905653403606,0.00156229990534,0.00156229990534,-0.00159682019148,-0.0177961587906,0.704090893269,0.704090893269,-0.618329763412,0.807461440563,1946,1984,2545,2033,2033,2920,3425,3424,3240,3366,3090,3051,3154,3145,3236,2849,3403,3414,3240,3364,3127,3352,3388,3196
1508406046690414867,131,1508406046690190238,plot_matl,0.0,0.0,1.40129846432e-45,4.59163467805e-41,2.85526781429e-37,4.59121428851e-41,0.349065840244,0.30498278141,1.32963442802,-0.00343890860677,0.00420894799754,0.00420894799754,-0.0125409588218,0.00109617377166,-96.4037322998,-96.4037322998,-132.235778809,-0.553637325764,1531,1836,2222,1995,1995,2888,3355,3379,3223,3328,3070,2892,3025,2954,3113,2740,3329,3348,3181,3265,2913,3254,3313,3044,0.009965952,1.30991244,1.305539712,0.680678427219,4500.0,0.652699172497,-0.0182515047491,-0.027979247272,125.906616211,1.34390354156,6000.0,1.32959961891,-0.011865391396,-0.0143038462847,89.2837753296,0.349065840244,0.0192735753953,0.00842053350061,0.000917460827623,-0.0221067145467,-0.0221067145467,-0.00157462910283,0.00635556830093,0.796837151051,0.796837151051,-1.71130776405,0.980961859226,2108,2067,2545,2033,2033,2920,3423,3422,3238,3361,3088,3051,3153,3145,3235,2850,3403,3414,3240,3364,3127,3352,3388,3196
1508406046700641997,132,1508406046700232752,plot_matl,0.0,0.0,1.40129846432e-45,4.59163467805e-41,2.85526781429e-37,4.59121428851e-41,0.349065840244,0.30363330245,1.32975828648,-0.00344355916604,-0.00878840498626,-0.00878840498626,0.0238210968673,0.00119277776685,-96.313583374,-96.313583374,-132.116485596,-0.424665689468,2484,2276,2216,1989,1989,2888,3355,3379,3223,3328,3070,2892,3025,2954,3113,2740,3326,3346,3180,3264,2908,3255,3317,3048,0.010042373,1.319955122,1.325593236,0.680678427219,4500.0,0.654048621655,0.00934505835176,-0.0266297664493,119.833946228,1.34390354156,6000.0,1.32966148853,0.0258050598204,-0.0142420781776,78.2658996582,0.349065840244,0.0216827709228,0.00841321609914,0.000904672895558,0.00268708379008,0.00268708379008,-0.00134427414741,0.0064457738772,0.863832056522,0.863832056522,-2.13814377785,1.17658758163,1932,1973,2547,2032,2032,2920,3423,3422,3238,3361,3088,3051,3153,3145,3235,2850,3403,3412,3238,3363,3128,3350,3386,3193
1508406046710525444,133,1508406046710203237,plot_matl,0.0,0.0,1.40129846432e-45,4.59163467805e-41,2.85526781429e-37,4.59121428851e-41,0.349065840244,0.30498278141,1.32982671261,-0.00344201968983,0.00498236017302,0.00498236017302,0.0223757885396,0.0011606819462,-96.2565994263,-96.2565994263,-132.230926514,-0.424146205187,1560,1862,2216,1989,1989,2897,3354,3378,3228,3328,3065,2894,3023,2947,3113,2740,3326,3346,3180,3264,2908,3255,3317,3048,0.009970936,1.329925709,1.326134488,0.680678427219,4500.0,0.654048621655,0.00911289732903,-0.0266297664493,119.833946228,1.34390354156,6000.0,1.3298150301,-0.0164340361953,-0.0140885096043,89.5055923462,0.349065840244,0.0216827709228,0.00840269215405,0.000870892079547,0.00353766605258,0.00353766605258,-0.00110000069253,0.00705494778231,0.924238502979,0.924238502979,-2.39402318001,1.0890597105,2115,2080,2547,2032,2032,2920,3422,3421,3236,3363,3089,3050,3155,3147,3235,2850,3403,3412,3238,3363,3128,3350,3386,3193
1508406046720581017,134,1508406046720214963,plot_matl,0.0,0.0,1.40129846432e-45,4.59163467805e-41,2.85526781429e-37,4.59121428851e-41,0.349065840244,0.30633226037,1.32992386818,-0.00344794662669,0.0186665058136,0.0186665058136,0.0203966479748,0.00128270918503,-96.2425003052,-96.2425003052,-132.294754028,-0.353923767805,2483,2260,2216,1989,1989,2897,3354,3378,3228,3328,3065,2894,3023,2947,3111,2746,3328,3348,3183,3265,2909,3253,3316,3046,0.010010723,1.339937306,1.341436882,0.680678427219,4500.0,0.654048621655,0.0103919375688,-0.0266297664493,119.833946228,1.34390354156,6000.0,1.32987952232,0.0213016010821,-0.0140240173787,77.8447036743,0.349065840244,0.0216827709228,0.00839412305504,0.000911709328648,0.00382696161978,0.00382696161978,-0.000901111401618,0.00619672704488,0.72444242239,0.72444242239,-1.93643724918,0.969536960125,1933,1977,2547,2032,2032,2920,3422,3421,3236,3363,3089,3050,3155,3147,3234,2848,3401,3412,3238,3364,3127,3349,3387,3191
1508406046730496129,135,1508406046730232286,plot_matl,0.0,0.0,1.40129846432e-45,4.59163467805e-41,2.85526781429e-37,4.59121428851e-41,0.349065840244,0.30633226037,1.32992386818,-0.00344794662669,0.0186665058136,0.0186665058136,0.0203966479748,0.00128270918503,-96.2425003052,-96.2425003052,-132.294754028,-0.353923767805,1514,1791,2222,1991,1991,2895,3354,3379,3222,3327,3063,2890,3023,2947,3111,2746,3328,3348,3183,3265,2909,3253,3316,3046,0.010016372,1.349953966,1.35221022,0.680678427219,4500.0,0.654048621655,0.0099460715428,-0.0266297664493,119.833946228,1.34390354156,6000.0,1.32996249199,0.0195714123547,-0.0139410486445,78.2890167236,0.349065840244,0.0216827709228,0.00839412305504,0.000911709328648,0.00382696161978,0.00382696161978,-0.000901111401618,0.00619672704488,0.72444242239,0.72444242239,-1.93643724918,0.969536960125,2116,2083,2545,2033,2033,2918,3420,3420,3240,3362,3089,3049,3155,3147,3234,2848,3401,3412,3238,3364,3127,3349,3387,3191
1508406046740597387,136,1508406046740236635,plot_matl,0.0,0.0,1.40129846432e-45,4.59163467805e-41,2.85526781429e-37,4.59121428851e-41,0.349065840244,0.30363330245,1.3299998045,-0.00344625138678,-0.00877935159951,-0.00877935159951,-0.0202737729996,0.00124262017198,-96.2766952515,-96.2766952515,-132.308105469,-0.239490494132,2505,2297,2222,1991,1991,2895,3354,3379,3222,3327,3063,2890,3022,2955,3115,2748,3330,3347,3177,3264,2909,3253,3316,3046,0.010005551,1.359959413,1.360754936,0.680678427219,4500.0,0.654048621655,0.00859106983989,-0.0266297664493,119.833946228,1.34390354156,6000.0,1.33002829552,0.0182108990848,-0.0138752758503,77.8792419434,0.349065840244,0.0216827709228,0.00838703010231,0.000851995777339,0.00401710020378,0.00401710020378,-0.000736470799893,0.00729864975438,0.624084115028,0.624084115028,-1.51371407509,0.677906513214,1928,1968,2545,2033,2033,2918,3420,3420,3240,3362,3089,3049,3154,3145,3236,2848,3402,3413,3239,3365,3127,3351,3387,3191
1508406046750427190,137,1508406046750213706,plot_matl,0.0,0.0,1.40129846432e-45,4.59163467805e-41,2.85526781429e-37,4.59121428851e-41,0.349065840244,0.30498278141,1.33005952835,-0.00343590020202,0.00447763968259,0.00447763968259,0.0175690762699,0.00103674305137,-96.2909317017,-96.2909317017,-132.453033447,-0.230384871364,1535,1812,2226,1989,1989,2888,3350,3377,3221,3329,3063,2890,3022,2955,3115,2748,3330,3347,3177,3264,2909,3253,3313,3047,0.009975593,1.369935752,1.366656241,0.680678427219,4500.0,0.652699172497,-0.018270233646,-0.027979247272,125.906616211,1.34390354156,6000.0,1.33008313179,-0.0219960343093,-0.0138204051182,89.7020645142,0.349065840244,0.0192735753953,0.00838130712509,0.000802908383776,-0.0179039966315,-0.0179039966315,-0.000603644584771,-0.0162199810147,0.476114183664,0.476114183664,-1.81200015545,0.537841916084,2117,2074,2544,2032,2032,2920,3421,3421,3240,3362,3089,3049,3154,3145,3236,2848,3402,3413,3239,3365,3127,3351,3388,3192
1508406046760342924,138,1508406046760181708,plot_matl,0.0,0.0,1.40129846432e-45,4.59163467805e-41,2.85526781429e-37,4.59121428851e-41,0.349065840244,0.30498278141,1.32999134064,-0.00344224367291,0.00382318743505,0.00382318743505,-0.02017615363,0.00117245735601,-96.3770675659,-96.3770675659,-132.270355225,-0.473612099886,2499,2280,2226,1989,1989,2888,3350,3377,3221,3329,3071,2892,3023,2955,3116,2741,3325,3350,3180,3263,2909,3253,3313,3047,0.009967092,1.379903301,1.375458696,0.680678427219,4500.0,0.652699172497,-0.0189837105572,-0.027979247272,125.906616211,1.34390354156,6000.0,1.32999527454,0.018822722137,-0.0139081953093,77.9691467285,0.349065840244,0.0192735753953,0.00842405669391,0.000760797644034,-0.018709519878,-0.018709519878,-0.00143330311403,0.00913228001446,0.476147741079,0.476147741079,-1.17976534367,0.335738658905,1933,1975,2544,2032,2032,2920,3421,3421,3240,3362,3087,3048,3154,3145,3234,2848,3402,3412,3238,3363,3127,3351,3388,3192
1508406046770406854,139,1508406046770205451,plot_matl,0.0,0.0,1.40129846432e-45,4.59163467805e-41,2.85526781429e-37,4.59121428851e-41,0.349065840244,0.30498278141,1.32999134064,-0.00344224367291,0.00382318743505,0.00382318743505,-0.02017615363,0.00117245735601,-96.3770675659,-96.3770675659,-132.270355225,-0.473612099886,1526,1796,2219,1992,1992,2893,3355,3380,3221,3329,3071,2892,3023,2955,3116,2741,3325,3350,3180,3263,2909,3255,3315,3048,0.010025504,1.389928088,1.393545056,0.680678427219,4500.0,0.654048621655,0.00781835801899,-0.0266297664493,119.833946228,1.34390354156,6000.0,1.33002388477,-0.0208429135382,-0.0138796931133,89.615524292,0.349065840244,0.0192735753953,0.00842405669391,0.000760797644034,-0.018709519878,-0.018709519878,-0.00143330311403,0.00913228001446,0.476147741079,0.476147741079,-1.17976534367,0.335738658905,2123,2084,2546,2037,2037,2920,3421,3421,3240,3362,3087,3048,3154,3145,3234,2848,3402,3412,3238,3363,3126,3349,3386,3194
1508406046780598862,140,1508406046780185138,plot_matl,0.0,0.0,1.40129846432e-45,4.59163467805e-41,2.85526781429e-37,4.59121428851e-41,0.349065840244,0.30498278141,1.3299434185,-0.00344587513246,0.00484246574342,0.00484246574342,0.0198187939823,0.00126685621217,-96.3848495483,-96.3848495483,-132.071090698,-0.416009277105,2482,2251,2219,1992,1992,2893,3355,3380,3227,3333,3070,2894,3025,2947,3114,2745,3330,3348,3180,3263,2909,3255,3315,3048,0.009977723,1.399906952,1.39688122,0.680678427219,4500.0,0.652699172497,-0.0184162836522,-0.027979247272,125.906616211,1.34390354156,6000.0,1.32989966869,-0.0183658413589,-0.0140038812533,90.0487594604,0.349065840244,0.0216827709228,0.00840138830245,0.000779566529673,0.00626455340534,0.00626455340534,-0.000960772158578,0.00877766963094,0.394585102797,0.394585102797,-0.673101484776,0.524895787239,1932,1974,2546,2037,2037,2920,3421,3421,3236,3363,3090,3050,3153,3144,3234,2850,3404,3412,3238,3363,3126,3349,3386,3194
1508406046790548146,141,1508406046790209347,plot_matl,0.0,0.0,1.40129846432e-45,4.59163467805e-41,2.85526781429e-37,4.59121428851e-41,0.349065840244,0.30498278141,1.32991349697,-0.00346188433468,0.00542367249727,0.00542367249727,-0.018626794219,-0.00818160735071,-96.3150558472,-96.3150558472,-132.025405884,-0.445173412561,1532,1817,2219,1992,1992,2898,3355,3380,3227,3333,3070,2894,3025,2947,3114,2745,3330,3348,3181,3264,2909,3254,3316,3049,0.010025804,1.40993198,1.413638364,0.680678427219,4500.0,0.652699172497,-0.0166210215539,-0.027979247272,125.906616211,1.34390354156,6000.0,1.32994604111,-0.0193314049393,-0.0139574958012,89.7078552246,0.349065840244,0.0240919683129,0.0084337098524,0.000789509038441,0.0307454485446,0.0307454485446,-0.001601189957,0.00852919649333,0.547072350979,0.547072350979,-0.979354679585,0.716718912125,2120,2077,2546,2034,2034,2919,3421,3421,3236,3363,3090,3050,3153,3144,3234,2850,3404,3412,3239,3363,3127,3350,3386,3192
1508406046800349786,142,1508406046800197539,plot_matl,0.0,0.0,1.40129846432e-45,4.59163467805e-41,2.85526781429e-37,4.59121428851e-41,0.349065840244,0.30498278141,1.32991349697,-0.00346188433468,0.00542367249727,0.00542367249727,-0.018626794219,-0.00818160735071,-96.3150558472,-96.3150558472,-132.025405884,-0.445173412561,2501,2281,2219,1992,1992,2898,3353,3379,3222,3327,3062,2893,3024,2951,3113,2750,3330,3348,3181,3264,2909,3254,3316,3049,0.009985716,1.419919063,1.417971672,0.680678427219,4500.0,0.652699172497,-0.017121931538,-0.027979247272,125.906616211,1.34390354156,6000.0,1.32995331287,-0.019441081211,-0.0139502305537,89.6077957153,0.349065840244,0.0240919683129,0.0084337098524,0.000789509038441,0.0307454485446,0.0307454485446,-0.001601189957,0.00852919649333,0.547072350979,0.547072350979,-0.979354679585,0.716718912125,1944,1974,2546,2034,2034,2919,3421,3423,3237,3364,3090,3050,3155,3143,3236,2847,3404,3412,3239,3363,3127,3350,3386,3192
1508406046810681200,143,1508406046810233119,plot_matl,0.0,0.0,1.40129846432e-45,4.59163467805e-41,2.85526781429e-37,4.59121428851e-41,0.349065840244,0.30363330245,1.32998991013,-0.0034562558867,-0.00868328567594,-0.00868328567594,0.0188738144934,0.00146929291077,-96.2223968506,-96.2223968506,-132.001647949,-0.47431191802,1527,1804,2225,1991,1991,2898,3353,3379,3222,3327,3062,2893,3024,2951,3113,2750,3330,3349,3178,3265,2910,3252,3314,3046,0.010037884,1.429955947,1.435417412,0.680678427219,4500.0,0.654048621655,0.00978803820908,-0.0266297664493,119.833946228,1.34390354156,6000.0,1.33002662659,0.0181803777814,-0.013876862824,77.5344619751,0.349065840244,0.0216827709228,0.00843249075115,0.000758363923524,0.00525705749169,0.00525705749169,-0.00158088153694,0.00915149413049,0.668416559696,0.668416559696,-0.801762938499,0.726380169392,2126,2088,2544,2036,2036,2919,3421,3423,3237,3364,3090,3050,3155,3143,3236,2847,3402,3410,3239,3365,3128,3349,3387,3194
1508406046820616432,144,1508406046820209735,plot_matl,0.0,0.0,1.40129846432e-45,4.59163467805e-41,2.85526781429e-37,4.59121428851e-41,0.349065840244,0.30363330245,1.32998991013,-0.0034562558867,-0.00868328567594,-0.00868328567594,0.0188738144934,0.00146929291077,-96.2223968506,-96.2223968506,-132.001647949,-0.47431191802,2500,2282,2225,1991,1991,2891,3351,3377,3222,3331,3067,2890,3023,2958,3113,2750,3330,3349,3178,3265,2910,3252,3314,3046,0.009975108,1.439932227,1.436415552,0.680678427219,4500.0,0.654048621655,0.00951374415308,-0.0266297664493,119.833946228,1.34390354156,6000.0,1.33005404472,0.0176577512175,-0.0138495005667,77.8417434692,0.349065840244,0.0216827709228,0.00843249075115,0.000758363923524,0.00525705749169,0.00525705749169,-0.00158088153694,0.00915149413049,0.668416559696,0.668416559696,-0.801762938499,0.726380169392,1930,1961,2544,2036,2036,2919,3423,3423,3238,3362,3086,3050,3154,3143,3236,2847,3402,3410,3239,3365,3128,3349,3387,3194
1508406046830633605,145,1508406046830229378,plot_matl,0.0,0.0,1.40129846432e-45,4.59163467805e-41,2.85526781429e-37,4.59121428851e-41,0.349065840244,0.30363330245,1.32998991013,-0.0034562558867,-0.00868328567594,-0.00868328567594,0.0188738144934,0.00146929291077,-96.2223968506,-96.2223968506,-132.001647949,-0.47431191802,1516,1795,2225,1991,1991,2891,3351,3377,3222,3331,3067,2890,3023,2958,3116,2742,3327,3347,3179,3266,2909,3253,3313,3046,0.010021207,1.449952542,1.453075015,0.680678427219,4500.0,0.654048621655,0.00979485549033,-0.0266297664493,119.833946228,1.34390354156,6000.0,1.33000206947,-0.0204059723765,-0.0139013975859,89.4130935669,0.349065840244,0.0216827709228,0.00843249075115,0.000758363923524,0.00525705749169,0.00525705749169,-0.00158088153694,0.00915149413049,0.668416559696,0.668416559696,-0.801762938499,0.726380169392,2122,2092,2544,2036,2036,2919,3423,3423,3238,3362,3086,3050,3154,3143,3235,2848,3403,3411,3240,3363,3126,3350,3387,3194
1508406046840669289,146,1508406046840253281,plot_matl,0.0,0.0,1.40129846432e-45,4.59163467805e-41,2.85526781429e-37,4.59121428851e-41,0.349065840244,0.30498278141,1.3300101757,-0.00342314899899,0.00464954134077,0.00464954134077,0.0185283776373,0.000810226425529,-96.2209472656,-96.2209472656,-131.777435303,-0.460922300816,2502,2280,2221,1993,1993,2890,3354,3379,3227,3331,3069,2894,3023,2958,3116,2742,3327,3347,3179,3266,2909,3253,3313,3046,0.010022595,1.459976074,1.46329887,0.680678427219,4500.0,0.654048621655,0.0105563392863,-0.0266297664493,119.833946228,1.34390354156,6000.0,1.32992362976,-0.0187968313694,-0.0139799276367,89.4267883301,0.349065840244,0.0216827709228,0.00843610614538,0.000895932782441,0.00363466329873,0.00363466329873,-0.00164125836454,0.00642444100231,0.631566107273,0.631566107273,-0.0660586133599,0.77296513319,1935,1971,2546,2032,2032,2920,3422,3422,3237,3363,3087,3048,3154,3143,3235,2848,3403,3411,3240,3363,3126,3350,3387,3194
1508406046850593702,147,1508406046850246335,plot_matl,0.0,0.0,1.40129846432e-45,4.59163467805e-41,2.85526781429e-37,4.59121428851e-41,0.349065840244,0.30498278141,1.3300101757,-0.00342314899899,0.00464954134077,0.00464954134077,0.0185283776373,0.000810226425529,-96.2209472656,-96.2209472656,-131.777435303,-0.460922300816,2502,2280,2221,1993,1993,2890,3354,3379,3227,3331,3069,2894,3023,2958,3116,2742,3327,3347,3179,3266,2909,3253,3313,3046,0.009992882,1.469969483,1.468953654,0.680678427219,4500.0,0.654048621655,0.0105563392863,-0.0266297664493,119.833946228,1.34390354156,6000.0,1.32992362976,-0.0187968313694,-0.0139799276367,89.4267883301,0.349065840244,0.0216827709228,0.00843610614538,0.000895932782441,0.00363466329873,0.00363466329873,-0.00164125836454,0.00642444100231,0.631566107273,0.631566107273,-0.0660586133599,0.77296513319,1935,1971,2546,2032,2032,2920,3422,3422,3237,3363,3087,3048,3154,3143,3235,2848,3403,3411,3240,3363,3126,3350,3387,3194
1508406046860716925,148,1508406046860207024,plot_matl,0.0,0.0,1.40129846432e-45,4.59163467805e-41,2.85526781429e-37,4.59121428851e-41,0.349065840244,0.30363330245,1.32995951176,-0.003425095696,-0.00884000677615,-0.00884000677615,-0.0195763111115,0.000850445707329,-96.2581634521,-96.2581634521,-131.909011841,-0.447258263826,2498,2288,2215,1990,1990,2897,3354,3378,3227,3330,3069,2894,3026,2950,3113,2741,3328,3346,3179,3266,2909,3253,3317,3050,0.009960915,1.479930338,1.47421542,0.680678427219,4500.0,0.652699172497,-0.0169690698385,-0.027979247272,125.906616211,1.34390354156,6000.0,1.33003997803,-0.0212038885802,-0.0138636026531,89.5588684082,0.349065840244,0.0192735753953,0.00843625888228,0.000936408701818,-0.0204544179142,-0.0204544179142,-0.00163304130547,0.00560879195109,0.549334585667,0.549334585667,0.234046518803,0.897681832314,1929,1961,2546,2034,2034,2918,3420,3421,3236,3363,3087,3048,3154,3143,3234,2849,3402,3410,3239,3366,3127,3349,3386,3194
1508406046870540910,149,1508406046870201741,plot_matl,0.0,0.0,1.40129846432e-45,4.59163467805e-41,2.85526781429e-37,4.59121428851e-41,0.349065840244,0.30363330245,1.32995951176,-0.003425095696,-0.00884000677615,-0.00884000677615,-0.0195763111115,0.000850445707329,-96.2581634521,-96.2581634521,-131.909011841,-0.447258263826,1539,1832,2215,1990,1990,2897,3354,3378,3227,3330,3063,2892,3025,2948,3113,2750,3327,3349,3180,3263,2909,3253,3317,3050,0.009992943,1.489924168,1.488948507,0.680678427219,4500.0,0.654048621655,0.00996138993651,-0.0266297664493,119.833946228,1.34390354156,6000.0,1.33002972603,0.0180635284632,-0.013873770833,77.8519592285,0.349065840244,0.0192735753953,0.00843625888228,0.000936408701818,-0.0204544179142,-0.0204544179142,-0.00163304130547,0.00560879195109,0.549334585667,0.549334585667,0.234046518803,0.897681832314,2114,2081,2546,2034,2034,2918,3420,3421,3236,3363,3090,3050,3154,3145,3234,2849,3403,3411,3238,3362,3127,3349,3386,3194
1508406046880593343,150,1508406046880227333,plot_matl,0.0,0.0,1.40129846432e-45,4.59163467805e-41,2.85526781429e-37,4.59121428851e-41,0.349065840244,0.30363330245,1.33006107807,-0.00343774468638,-0.00877159833908,-0.00877159833908,0.0174478255212,0.00109877705108,-96.181892395,-96.181892395,-131.96484375,-0.343558460474,2499,2280,2221,1990,1990,2893,3352,3379,3227,3330,3063,2892,3025,2948,3113,2750,3327,3349,3180,3263,2910,3253,3316,3046,0.01002487,1.49994999,1.5037305,0.680678427219,4500.0,0.652699172497,-0.0176043752581,-0.027979247272,125.906616211,1.34390354156,6000.0,1.33004641533,0.0176897309721,-0.0138570535928,77.5002746582,0.349065840244,0.0216827709228,0.00840970873833,0.000988554791547,0.00412011798471,0.00412011798471,-0.00109227653593,0.00448418548331,0.561694264412,0.561694264412,-0.370061665773,0.910265505314,1942,1965,2545,2034,2034,2919,3424,3422,3236,3363,3090,3050,3154,3145,3234,2849,3403,3411,3238,3362,3128,3350,3388,3192
1508406046890572730,151,1508406046890199584,plot_matl,0.0,0.0,1.40129846432e-45,4.59163467805e-41,2.85526781429e-37,4.59121428851e-41,0.349065840244,0.30363330245,1.33006107807,-0.00343774468638,-0.00877159833908,-0.00877159833908,0.0174478255212,0.00109877705108,-96.181892395,-96.181892395,-131.96484375,-0.343558460474,1551,1850,2221,1990,1990,2893,3352,3379,3221,3327,3064,2891,3023,2955,3116,2745,3328,3348,3180,3263,2910,3253,3316,3046,0.009972637,1.509922332,1.505868187,0.680678427219,4500.0,0.654048621655,0.00986263900995,-0.0266297664493,119.833946228,1.34390354156,6000.0,1.33002901077,-0.0210044812411,-0.013874495402,89.0034637451,0.349065840244,0.0216827709228,0.00840970873833,0.000988554791547,0.00412011798471,0.00412011798471,-0.00109227653593,0.00448418548331,0.561694264412,0.561694264412,-0.370061665773,0.910265505314,2109,2066,2545,2034,2034,2919,3424,3422,3237,3361,3088,3049,3155,3145,3234,2846,3403,3411,3238,3362,3128,3350,3388,3192
1508406046900573105,152,1508406046900198170,plot_matl,0.0,0.0,1.40129846432e-45,4.59163467805e-41,2.85526781429e-37,4.59121428851e-41,0.349065840244,0.30363330245,1.33006107807,-0.00343774468638,-0.00877159833908,-0.00877159833908,0.0174478255212,0.00109877705108,-96.181892395,-96.181892395,-131.96484375,-0.343558460474,2499,2289,2223,1991,1991,2888,3352,3379,3221,3327,3064,2891,3023,2955,3116,2745,3328,3348,3179,3263,2910,3254,3313,3047,0.009997297,1.519920627,1.519589144,0.680678427219,4500.0,0.652699172497,-0.0181049667299,-0.027979247272,125.906616211,1.34390354156,6000.0,1.32987713814,0.021131709218,-0.0140263820067,77.8506851196,0.349065840244,0.0216827709228,0.00840970873833,0.000988554791547,0.00412011798471,0.00412011798471,-0.00109227653593,0.00448418548331,0.561694264412,0.561694264412,-0.370061665773,0.910265505314,1933,1966,2545,2035,2035,2920,3424,3422,3237,3361,3088,3049,3155,3145,3234,2846,3403,3411,3240,3363,3129,3351,3386,3194
1508406046910398287,153,1508406046910200274,plot_matl,0.0,0.0,1.40129846432e-45,4.59163467805e-41,2.85526781429e-37,4.59121428851e-41,0.349065840244,0.30363330245,1.33006107807,-0.00343774468638,-0.00877159833908,-0.00877159833908,0.0174478255212,0.00109877705108,-96.181892395,-96.181892395,-131.96484375,-0.343558460474,1524,1801,2223,1991,1991,2888,3353,3378,3223,3331,3071,2893,3025,2952,3114,2740,3328,3348,3179,3263,2910,3254,3313,3047,0.010002014,1.529922891,1.530308142,0.680678427219,4500.0,0.654048621655,0.00942360330373,-0.0266297664493,119.833946228,1.34390354156,6000.0,1.32985639572,0.0215522684157,-0.0140470732003,77.8513565063,0.349065840244,0.0216827709228,0.00840970873833,0.000988554791547,0.00412011798471,0.00412011798471,-0.00109227653593,0.00448418548331,0.561694264412,0.561694264412,-0.370061665773,0.910265505314,2123,2083,2545,2035,2035,2920,3422,3421,3237,3362,3088,3049,3153,3144,3236,2849,3403,3411,3240,3363,3129,3351,3386,3194
1508406046920615110,154,1508406046920197551,plot_matl,0.0,0.0,1.40129846432e-45,4.59163467805e-41,2.85526781429e-37,4.59121428851e-41,0.349065840244,0.30498278141,1.3298279047,-0.00340962759219,0.00460032233968,0.00460032233968,-0.0169498473406,0.000502802780829,-96.2983932495,-96.2983932495,-132.000167847,-0.452823162079,2500,2281,2215,1988,1988,2888,3353,3378,3223,3331,3071,2893,3025,2952,3114,2740,3326,3348,3182,3264,2910,3258,3316,3049,0.009997544,1.539920214,1.539621776,0.680678427219,4500.0,0.652699172497,-0.0180683620274,-0.027979247272,125.906616211,1.34390354156,6000.0,1.32980203629,-0.0164684839547,-0.0141015164554,89.9259109497,0.349065840244,0.0216827709228,0.00840693339705,0.00103156117257,0.00417140917853,0.00417140917853,-0.00105466076639,0.00359406857751,0.444822847843,0.444822847843,-1.32583403587,1.05825197697,1937,1972,2546,2035,2035,2920,3422,3421,3237,3362,3088,3049,3153,3144,3236,2849,3404,3410,3241,3366,3127,3350,3386,3193
