%time,field.header.seq,field.header.stamp,field.header.frame_id,field.FFJ4_set_point,field.FFJ4_position_gain,field.FFJ4_process_value,field.FFJ4_process_value_dot,field.FFJ4_error,field.FFJ4_command,field.FFJ1,field.FFJ2,field.FFJ3,field.FFJ4,field.FFJ1_dot,field.FFJ2_dot,field.FFJ3_dot,field.FFJ4_dot,field.FFJ1_tao,field.FFJ2_tao,field.FFJ3_tao,field.FFJ4_tao,field.pac0,field.pac1,field.pdc0,field.tac0,field.tdc0,field.el0,field.el1,field.el2,field.el3,field.el4,field.el5,field.el6,field.el7,field.el8,field.el9,field.el10,field.el11,field.el12,field.el13,field.el14,field.el15,field.el16,field.el17,field.el18,field.dt,field.time,field.test_time2,field.FFJ0_set_point,field.FFJ0_position_gain,field.FFJ0_process_value,field.FFJ0_process_value_dot,field.FFJ0_error,field.FFJ0_command,field.FFJ3_set_point,field.FFJ3_position_gain,field.FFJ3_process_value,field.FFJ3_process_value_dot,field.FFJ3_error,field.FFJ3_command,field.MFJ1,field.MFJ2,field.MFJ3,field.MFJ4,field.MFJ1_dot,field.MFJ2_dot,field.MFJ3_dot,field.MFJ4_dot,field.MFJ1_tao,field.MFJ2_tao,field.MFJ3_tao,field.MFJ4_tao,field.Mpac0,field.Mpac1,field.Mpdc0,field.Mtac0,field.Mtdc0,field.Mel0,field.Mel1,field.Mel2,field.Mel3,field.Mel4,field.Mel5,field.Mel6,field.Mel7,field.Mel8,field.Mel9,field.Mel10,field.Mel11,field.Mel12,field.Mel13,field.Mel14,field.Mel15,field.Mel16,field.Mel17,field.Mel18
1508405865460225632,103,1508405865459878150,plot_matl,0.0,0.0,1.40129846432e-45,4.59163467805e-41,2.11621142461e+28,4.58897221097e-41,0.349065840244,0.30498278141,1.32978963852,-0.00343678169884,0.00347371469252,0.00347371469252,0.0228027831763,0.00108135479968,-97.0606613159,-97.0606613159,-135.024246216,0.246135994792,2025,2096,2222,2031,2031,2905,3369,3386,3227,3328,3067,2891,3023,2948,3113,2733,3317,3342,3175,3259,2903,3255,3312,3042,0.010010202,1.030013955,1.031050806,0.680678427219,4500.0,0.654048621655,0.007094562985,-0.0266297664493,119.833946228,1.34390354156,6000.0,1.32976567745,0.0232857037336,-0.0141378594562,78.7501983643,0.349065840244,0.0192735753953,0.00841197557747,0.000771493359935,-0.0201864298433,-0.0201864298433,-0.00131919991691,0.00913309771568,0.01590500772,0.01590500772,-0.786948800087,-0.871621727943,2044,2040,2544,2039,2039,2922,3423,3422,3240,3363,3089,3050,3154,3146,3236,2852,3403,3411,3240,3364,3129,3352,3387,3193
1508405865470172932,104,1508405865469883441,plot_matl,0.0,0.0,1.40129846432e-45,4.59163467805e-41,2.11621142461e+28,4.58897221097e-41,0.349065840244,0.30498278141,1.32988250256,-0.00343729997985,0.00384190026671,0.00384190026671,-0.0181490592659,-0.00868198089302,-97.1587142944,-97.1587142944,-134.988327026,0.166249737144,1917,1955,2221,2033,2033,2905,3369,3385,3227,3328,3067,2891,3023,2948,3113,2733,3317,3342,3175,3259,2902,3254,3312,3043,0.010005315,1.040019551,1.04055276,0.680678427219,4500.0,0.652699172497,-0.0194234699011,-0.027979247272,125.906616211,1.34390354156,6000.0,1.32990074158,0.0205635745078,-0.0140027627349,77.8085021973,0.349065840244,0.0216827709228,0.00843000318855,0.000738189613912,0.00424843933433,0.00424843933433,-0.00165429024491,-0.014717518352,-0.0191948674619,-0.0191948674619,-0.867775201797,-0.939936578274,2042,2039,2544,2036,2036,2922,3422,3421,3240,3363,3089,3050,3154,3146,3236,2852,3403,3411,3240,3364,3127,3351,3386,3193
1508405865480026329,105,1508405865479867817,plot_matl,0.0,0.0,1.40129846432e-45,4.59163467805e-41,2.11621142461e+28,4.58897221097e-41,0.349065840244,0.30498278141,1.32979154587,-0.00346279749647,0.0039126384072,0.0039126384072,0.0227809175849,0.00157809397206,-97.1294708252,-97.1294708252,-134.927825928,0.213780298829,2063,2067,2221,2033,2033,2905,3369,3385,3227,3327,3067,2887,3019,2943,3111,2734,3320,3345,3175,3259,2902,3254,3312,3043,0.009982048,1.050002969,1.04811504,0.680678427219,4500.0,0.654048621655,0.00798429828137,-0.0266297664493,119.833946228,1.34390354156,6000.0,1.32976853848,-0.0158375017345,-0.0141349509358,89.2670135498,0.349065840244,0.0216827709228,0.00841648038477,0.000748462625779,0.00438482221216,0.00438482221216,-0.00135482545011,0.00948870368302,-0.182679891586,-0.182679891586,-0.929801046848,-0.956435382366,2030,2036,2544,2036,2036,2922,3422,3421,3239,3361,3091,3052,3154,3145,3236,2852,3405,3413,3240,3364,3127,3351,3386,3193
1508405865490225820,106,1508405865489904832,plot_matl,0.0,0.0,1.40129846432e-45,4.59163467805e-41,2.11621142461e+28,4.58897221097e-41,0.349065840244,0.30498278141,1.32979154587,-0.00346279749647,0.0039126384072,0.0039126384072,0.0227809175849,0.00157809397206,-97.1294708252,-97.1294708252,-134.927825928,0.213780298829,2031,2061,2221,2033,2033,2907,3369,3385,3227,3327,3067,2887,3019,2943,3111,2734,3320,3345,3173,3259,2903,3255,3311,3041,0.010038712,1.060041038,1.064103472,0.680678427219,4500.0,0.654048621655,0.00798429828137,-0.0266297664493,119.833946228,1.34390354156,6000.0,1.32972919941,-0.0150319598615,-0.0141743561253,89.6190109253,0.349065840244,0.0216827709228,0.00841648038477,0.000748462625779,0.00438482221216,0.00438482221216,-0.00135482545011,0.00948870368302,-0.182679891586,-0.182679891586,-0.929801046848,-0.956435382366,2040,2038,2545,2037,2037,2921,3422,3421,3239,3361,3091,3052,3154,3145,3236,2852,3405,3413,3240,3365,3126,3351,3387,3193
1508405865500205689,107,1508405865499867792,plot_matl,0.0,0.0,1.40129846432e-45,4.59163467805e-41,2.11621142461e+28,4.58897221097e-41,0.349065840244,0.30498278141,1.32968378067,-0.0034769361373,0.00424366956577,0.00424366956577,-0.0140799796209,0.00185946223792,-97.0818099976,-97.0818099976,-134.853042603,0.0445306673646,1930,1995,2221,2033,2033,2907,3369,3384,3227,3328,3067,2888,3022,2941,3111,2730,3320,3345,3173,3259,2903,3255,3311,3041,0.009961532,1.070003286,1.065883924,0.680678427219,4500.0,0.652699172497,-0.0186034403741,-0.027979247272,125.906616211,1.34390354156,6000.0,1.32969796658,-0.0143669955432,-0.014205516316,89.5185623169,0.349065840244,0.0216827709228,0.00841095391661,0.000720394542441,0.00643111951649,0.00643111951649,-0.00120622420218,0.0100361416116,-0.20320238173,-0.20320238173,-0.858830571175,-1.39488708973,2021,2025,2545,2037,2037,2921,3421,3421,3239,3362,3088,3049,3154,3146,3236,2851,3405,3413,3240,3365,3126,3351,3387,3193
1508405865510130545,108,1508405865509885365,plot_matl,0.0,0.0,1.40129846432e-45,4.59163467805e-41,2.11621142461e+28,4.58897221097e-41,0.349065840244,0.30633226037,1.32973480225,-0.00348663586192,0.0173505209386,0.0173505209386,0.0239731241018,0.00205935514532,-96.885635376,-96.885635376,-135.117401123,0.0453274287283,1997,2009,2221,2033,2033,2907,3369,3384,3227,3328,3067,2888,3022,2941,3111,2730,3319,3343,3172,3260,2904,3254,3310,3042,0.010019338,1.080022654,1.082088504,0.680678427219,4500.0,0.652699172497,-0.0191160943359,-0.027979247272,125.906616211,1.34390354156,6000.0,1.32971012592,-0.0146189145744,-0.0141933457926,89.5410232544,0.349065840244,0.0216827709228,0.00840086210519,0.000745604746044,0.00827440619469,0.00827440619469,-0.000987492967397,0.00951211620122,-0.129469737411,-0.129469737411,-0.767580330372,-1.49534344673,2019,2018,2545,2036,2036,2921,3421,3421,3239,3362,3088,3049,3154,3146,3236,2851,3403,3410,3241,3363,3127,3348,3386,3192
1508405865520329862,109,1508405865519907069,plot_matl,0.0,0.0,1.40129846432e-45,4.59163467805e-41,2.11621142461e+28,4.58897221097e-41,0.349065840244,0.30498278141,1.32967233658,-0.00350287603214,0.00280686258338,0.00280686258338,0.0252518430352,0.00239655538462,-96.9440460205,-96.9440460205,-135.124572754,-0.0355022326112,2106,2138,2221,2033,2033,2906,3368,3385,3229,3327,3067,2889,3022,2945,3111,2730,3319,3343,3172,3260,2904,3254,3310,3042,0.010020361,1.090043214,1.092219349,0.680678427219,4500.0,0.654048621655,0.00572805013508,-0.0266297664493,119.833946228,1.34390354156,6000.0,1.329646945,-0.0133160995319,-0.0142565742135,89.5212173462,0.349065840244,0.0192735753953,0.00839260034263,0.000743383308873,-0.0166045706719,-0.0166045706719,-0.0008084254805,0.00955214165151,-0.105992279947,-0.105992279947,-0.7057107687,-1.33853113651,2007,2010,2545,2036,2036,2921,3422,3422,3238,3362,3090,3049,3155,3146,3236,2851,3403,3410,3241,3363,3127,3348,3386,3192
1508405865530296972,110,1508405865529880137,plot_matl,0.0,0.0,1.40129846432e-45,4.59163467805e-41,2.11621142461e+28,4.58897221097e-41,0.349065840244,0.30498278141,1.32963526249,-0.00349192973226,0.00323949661106,0.00323949661106,-0.0140592353418,-0.00759391346946,-97.0065307617,-97.0065307617,-135.091781616,0.0433698818088,1943,2003,2221,2033,2033,2906,3368,3385,3229,3327,3067,2889,3022,2945,3112,2734,3319,3343,3174,3261,2903,3254,3312,3042,0.009972447,1.100015951,1.09696917,0.680678427219,4500.0,0.654048621655,0.00572805013508,-0.0266297664493,119.833946228,1.34390354156,6000.0,1.329646945,-0.0133160995319,-0.0142565742135,89.5212173462,0.349065840244,0.0192735753953,0.00838607084006,0.000773446750827,-0.0151114920154,-0.0151114920154,-0.000666920212097,0.00954335834831,-0.0874395892024,-0.0874395892024,-0.752901077271,-1.59027659893,2027,2019,2545,2036,2036,2921,3422,3422,3238,3362,3090,3049,3155,3146,3237,2851,3403,3411,3238,3362,3128,3351,3386,3193
1508405865540241590,111,1508405865539891376,plot_matl,0.0,0.0,1.40129846432e-45,4.59163467805e-41,2.11621142461e+28,4.58897221097e-41,0.349065840244,0.30498278141,1.3295507431,-0.00348083744757,0.00265991012566,0.00265991012566,-0.0121491625905,0.00195019633975,-97.0350265503,-97.0350265503,-135.049560547,0.0714636519551,1980,2005,2221,2039,2039,2913,3378,3392,3233,3334,3070,2892,3022,2945,3112,2734,3319,3343,3174,3261,2903,3254,3312,3042,0.010009986,1.110027061,1.111108446,0.680678427219,4500.0,0.654048621655,0.00557715259492,-0.0266297664493,119.833946228,1.34390354156,6000.0,1.32963550091,-0.0139720560983,-0.0142680807039,89.6809692383,0.349065840244,0.0216827709228,0.00840760953724,0.000776314467657,0.00796378217638,0.00796378217638,0.0142385233194,0.00935689266771,-0.0715864226222,-0.0715864226222,-0.77789658308,-1.36509668827,2014,2024,2544,2040,2040,2931,3429,3428,3245,3367,3094,3056,3155,3146,3237,2851,3403,3411,3238,3362,3128,3351,3386,3193
1508405865550240642,112,1508405865549881477,plot_matl,0.0,0.0,1.40129846432e-45,4.59163467805e-41,2.11621142461e+28,4.58897221097e-41,0.349065840244,0.30498278141,1.32969224453,-0.00348165235482,0.00146779825445,0.00146779825445,0.0242139343172,0.00196216395125,-97.171661377,-97.171661377,-134.935943604,0.09436044842,2116,2136,2221,2039,2039,2913,3378,3392,3233,3334,3070,2892,3027,2949,3115,2737,3322,3345,3176,3264,2905,3257,3312,3042,0.009990673,1.120017493,1.118955376,0.680678427219,4500.0,0.654048621655,0.00449538882822,-0.0266297664493,119.833946228,1.34390354156,6000.0,1.32959222794,-0.0129469456151,-0.0143112363294,89.4789581299,0.349065840244,0.0216827709228,0.00839814543724,0.000723613076843,0.00652293069288,0.00652293069288,-0.000902738713194,0.0102819856256,0.0358221679926,0.0358221679926,-0.801937878132,-1.51264953613,2009,2019,2544,2040,2040,2931,3429,3428,3245,3367,3094,3056,3159,3151,3239,2853,3407,3415,3242,3365,3130,3351,3386,3193
1508405865559981665,113,1508405865559868476,plot_matl,0.0,0.0,1.40129846432e-45,4.59163467805e-41,2.11621142461e+28,4.58897221097e-41,0.349065840244,0.30498278141,1.3297393322,-0.00349773466587,0.00143047992606,0.00143047992606,-0.0156812407076,-0.00747263384983,-97.3518295288,-97.3518295288,-135.380432129,0.224949896336,1961,2032,2221,2031,2031,2908,3370,3385,3229,3327,3070,2892,3027,2949,3115,2737,3322,3345,3176,3264,2905,3257,3314,3044,0.009983995,1.130003199,1.128191435,0.680678427219,4500.0,0.654048621655,0.0032856951002,-0.0266297664493,119.833946228,1.34390354156,6000.0,1.32972693443,0.0235213916749,-0.0141765419394,77.4572677612,0.349065840244,0.0216827709228,0.00840526819229,0.000736209447496,0.0057522165589,0.0057522165589,-0.00103793875314,0.00995342060924,0.0467365756631,0.0467365756631,-1.20662999153,-1.45724987984,2013,2016,2544,2037,2037,2923,3423,3422,3239,3362,3094,3056,3159,3151,3239,2853,3407,3415,3242,3365,3130,3351,3389,3194
1508405865570241755,114,1508405865569888829,plot_matl,0.0,0.0,1.40129846432e-45,4.59163467805e-41,2.11621142461e+28,4.58897221097e-41,0.349065840244,0.30498278141,1.32976019382,-0.00349616189487,0.00140889314935,0.00140889314935,-0.0162403527647,0.00225264695473,-97.2044372559,-97.2044372559,-135.187026978,0.312932640314,2034,2069,2221,2031,2031,2908,3370,3385,3229,3327,3067,2887,3022,2943,3111,2733,3318,3341,3174,3268,2905,3257,3314,3044,0.010022446,1.140024839,1.142558844,0.680678427219,4500.0,0.654048621655,0.00313889025711,-0.0266297664493,119.833946228,1.34390354156,6000.0,1.32975161076,-0.0163043476641,-0.0141518693417,95.0972290039,0.349065840244,0.0216827709228,0.00842312444001,0.000725726946257,0.00598709704354,0.00598709704354,0.0137802083045,-0.0145408175886,0.155133038759,0.155133038759,-1.27797460556,-1.46308672428,2013,2009,2544,2037,2037,2923,3423,3422,3239,3362,3089,3050,3154,3145,3236,2851,3405,3412,3241,3371,3130,3351,3389,3194
1508405865580177245,115,1508405865579894042,plot_matl,0.0,0.0,1.40129846432e-45,4.59163467805e-41,2.11621142461e+28,4.58897221097e-41,0.349065840244,0.30498278141,1.32976019382,-0.00349616189487,0.00140889314935,0.00140889314935,-0.0162403527647,0.00225264695473,-97.2044372559,-97.2044372559,-135.187026978,0.312932640314,2092,2139,2221,2032,2032,2907,3370,3386,3229,3327,3067,2887,3022,2943,3111,2733,3318,3341,3174,3268,2908,3259,3317,3046,0.010004595,1.150029883,1.150528425,0.680678427219,4500.0,0.655398130417,0.0297701433301,-0.025280283764,113.761283875,1.34390354156,6000.0,1.32972204685,-0.0154093317688,-0.0141814295202,89.5416717529,0.349065840244,0.0216827709228,0.00842312444001,0.000725726946257,0.00598709704354,0.00598709704354,0.0137802083045,-0.0145408175886,0.155133038759,0.155133038759,-1.27797460556,-1.46308672428,2011,2008,2544,2037,2037,2924,3424,3423,3239,3362,3089,3050,3154,3145,3236,2851,3405,3412,3241,3371,3132,3353,3388,3196
1508405865589937501,116,1508405865589852791,plot_matl,0.0,0.0,1.40129846432e-45,4.59163467805e-41,2.11621142461e+28,4.58897221097e-41,0.349065840244,0.30498278141,1.32976019382,-0.00349616189487,0.00140889314935,0.00140889314935,-0.0162403527647,0.00225264695473,-97.2044372559,-97.2044372559,-135.187026978,0.312932640314,2092,2139,2221,2032,2032,2907,3370,3386,3229,3327,3067,2887,3022,2943,3111,2733,3318,3341,3174,3268,2908,3259,3317,3046,0.00995621,1.159987266,1.15492036,0.680678427219,4500.0,0.655398130417,0.0277746971697,-0.025280283764,113.761283875,1.34390354156,6000.0,1.32972311974,-0.0154285347089,-0.0141803761944,89.6051559448,0.349065840244,0.0216827709228,0.00842312444001,0.000725726946257,0.00598709704354,0.00598709704354,0.0137802083045,-0.0145408175886,0.155133038759,0.155133038759,-1.27797460556,-1.46308672428,2011,2008,2544,2037,2037,2924,3424,3423,3239,3362,3089,3050,3154,3145,3236,2851,3405,3412,3241,3371,3132,3353,3388,3196
1508405865600365364,117,1508405865599879181,plot_matl,0.0,0.0,1.40129846432e-45,4.59163467805e-41,2.11621142461e+28,4.58897221097e-41,0.349065840244,0.30498278141,1.32976019382,-0.00349616189487,0.00140889314935,0.00140889314935,-0.0162403527647,0.00225264695473,-97.2044372559,-97.2044372559,-135.187026978,0.312932640314,1945,1997,2223,2032,2032,2905,3370,3386,3227,3330,3068,2890,3022,2949,3113,2734,3321,3346,3173,3260,2903,3256,3315,3044,0.010029231,1.170015282,1.173420027,0.680678427219,4500.0,0.654048621655,0.000418733106926,-0.0266297664493,119.833946228,1.34390354156,6000.0,1.32975852489,-0.0160956606269,-0.0141450213268,90.0737228394,0.349065840244,0.0216827709228,0.00842312444001,0.000725726946257,0.00598709704354,0.00598709704354,0.0137802083045,-0.0145408175886,0.155133038759,0.155133038759,-1.27797460556,-1.46308672428,2026,2019,2544,2038,2038,2920,3424,3423,3239,3363,3092,3052,3155,3148,3236,2851,3403,3412,3243,3365,3129,3350,3385,3190
1508405865610213113,118,1508405865609940439,plot_matl,0.0,0.0,1.40129846432e-45,4.59163467805e-41,2.11621142461e+28,4.58897221097e-41,0.349065840244,0.30498278141,1.32975637913,-0.00351020460948,0.000189905331354,0.000189905331354,-0.0160261169076,0.00254582124762,-97.2668838501,-97.2668838501,-135.223861694,0.374900102615,2063,2140,2223,2032,2032,2905,3371,3385,3226,3328,3067,2888,3019,2949,3111,2736,3321,3346,3173,3260,2903,3256,3315,3044,0.010060551,1.180076365,1.187145018,0.680678427219,4500.0,0.654048621655,0.00136964744888,-0.0266297664493,119.833946228,1.34390354156,6000.0,1.32979393005,0.0223350040615,-0.0141096031293,77.9869308472,0.349065840244,0.0216827709228,0.00840495619923,0.000790021731518,0.00451541598886,0.00451541598886,-0.00111418485176,0.00864164531231,0.14573417604,0.14573417604,-2.86090660095,-0.509702563286,2035,2036,2544,2038,2038,2920,3421,3423,3241,3363,3088,3052,3156,3145,3235,2852,3403,3412,3243,3365,3129,3350,3385,3190
1508405865620270045,119,1508405865619948867,plot_matl,0.0,0.0,1.40129846432e-45,4.59163467805e-41,2.11621142461e+28,4.58897221097e-41,0.349065840244,0.30498278141,1.32975637913,-0.00351020460948,0.000189905331354,0.000189905331354,-0.0160261169076,0.00254582124762,-97.2668838501,-97.2668838501,-135.223861694,0.374900102615,2009,2055,2221,2032,2032,2905,3371,3385,3226,3328,3067,2888,3019,2949,3111,2736,3319,3341,3174,3261,2902,3255,3312,3044,0.010009296,1.190084853,1.191106224,0.680678427219,4500.0,0.654048621655,-0.000386360916309,-0.0266297664493,119.833946228,1.34390354156,6000.0,1.32978761196,0.0225412752479,-0.0141159668565,77.6797714233,0.349065840244,0.0216827709228,0.00840495619923,0.000790021731518,0.00451541598886,0.00451541598886,-0.00111418485176,0.00864164531231,0.14573417604,0.14573417604,-2.86090660095,-0.509702563286,2042,2042,2543,2037,2037,2920,3421,3423,3241,3363,3088,3052,3156,3145,3235,2852,3402,3414,3239,3363,3127,3351,3386,3191
1508405865630222311,120,1508405865629875613,plot_matl,0.0,0.0,1.40129846432e-45,4.59163467805e-41,2.11621142461e+28,4.58897221097e-41,0.349065840244,0.30498278141,1.32975637913,-0.00351020460948,0.000189905331354,0.000189905331354,-0.0160261169076,0.00254582124762,-97.2668838501,-97.2668838501,-135.223861694,0.374900102615,1922,1951,2221,2032,2032,2906,3370,3383,3229,3328,3066,2887,3022,2942,3111,2736,3319,3341,3174,3261,2902,3255,3312,3044,0.009924602,1.200010796,1.19095224,0.680678427219,4500.0,0.654048621655,-0.00222070422024,-0.0266297664493,119.833946228,1.34390354156,6000.0,1.32978141308,-0.016374392435,-0.0141220921651,89.8710708618,0.349065840244,0.0216827709228,0.00840495619923,0.000790021731518,0.00451541598886,0.00451541598886,-0.00111418485176,0.00864164531231,0.14573417604,0.14573417604,-2.86090660095,-0.509702563286,2039,2034,2543,2037,2037,2921,3421,3422,3239,3362,3090,3050,3155,3145,3235,2852,3402,3414,3239,3363,3127,3351,3386,3191
1508405865640234322,121,1508405865639884805,plot_matl,0.0,0.0,1.40129846432e-45,4.59163467805e-41,2.11621142461e+28,4.58897221097e-41,0.349065840244,0.30498278141,1.32975637913,-0.00351020460948,0.000189905331354,0.000189905331354,-0.0160261169076,0.00254582124762,-97.2668838501,-97.2668838501,-135.223861694,0.374900102615,2051,2122,2221,2032,2032,2906,3370,3383,3229,3328,3066,2887,3022,2942,3112,2731,3320,3345,3175,3260,2904,3255,3314,3043,0.010010398,1.210020971,1.211258158,0.680678427219,4500.0,0.654048621655,-0.00134376087226,-0.0266297664493,119.833946228,1.34390354156,6000.0,1.32967352867,-0.0141931399703,-0.0142299933359,90.1283721924,0.349065840244,0.0216827709228,0.00840495619923,0.000790021731518,0.00451541598886,0.00451541598886,-0.00111418485176,0.00864164531231,0.14573417604,0.14573417604,-2.86090660095,-0.509702563286,2026,2030,2543,2037,2037,2921,3421,3422,3239,3362,3090,3050,3155,3145,3238,2853,3402,3412,3238,3365,3127,3350,3387,3192
1508405865650231190,122,1508405865649942730,plot_matl,0.0,0.0,1.40129846432e-45,4.59163467805e-41,2.11621142461e+28,4.58897221097e-41,0.349065840244,0.30498278141,1.32960903645,-0.0035184957087,-0.000608843402006,-0.000608843402006,-0.0128615135327,-0.00709047494456,-97.1646499634,-97.1646499634,-135.395080566,0.251096606255,2064,2085,2222,2029,2029,2908,3367,3386,3227,3329,3066,2890,3022,2942,3112,2731,3320,3345,3175,3260,2904,3255,3314,3043,0.010058642,1.220079197,1.227154324,0.680678427219,4500.0,0.654048621655,-0.00110264180694,-0.0266297664493,119.833946228,1.34390354156,6000.0,1.32965362072,0.0253118760884,-0.0142498938367,78.6393737793,0.349065840244,0.0216827709228,0.00842049531639,0.000776883622166,0.00350527558476,0.00350527558476,-0.00134511746,0.00880568753928,0.126998201013,0.126998201013,-2.33095431328,0.630016505718,2028,2034,2544,2041,2041,2921,3420,3423,3237,3362,3089,3052,3155,3145,3238,2853,3402,3412,3238,3365,3127,3350,3387,3192
1508405865660070437,123,1508405865659975133,plot_matl,0.0,0.0,1.40129846432e-45,4.59163467805e-41,2.11621142461e+28,4.58897221097e-41,0.349065840244,0.30498278141,1.32960903645,-0.0035184957087,-0.000608843402006,-0.000608843402006,-0.0128615135327,-0.00709047494456,-97.1646499634,-97.1646499634,-135.395080566,0.251096606255,2019,2004,2222,2029,2029,2908,3367,3386,3227,3329,3066,2890,3020,2948,3111,2735,3317,3341,3173,3260,2904,3254,3314,3043,0.010027712,1.230109659,1.233408576,0.680678427219,4500.0,0.652699172497,-0.0266220979393,-0.027979247272,125.906616211,1.34390354156,6000.0,1.32974290848,0.0235312506557,-0.0141606116667,77.7813644409,0.349065840244,0.0216827709228,0.00842049531639,0.000776883622166,0.00350527558476,0.00350527558476,-0.00134511746,0.00880568753928,0.126998201013,0.126998201013,-2.33095431328,0.630016505718,2017,2030,2544,2041,2041,2921,3420,3423,3237,3362,3089,3052,3153,3144,3236,2852,3403,3411,3240,3363,3127,3349,3387,3192
1508405865670051219,124,1508405865669862946,plot_matl,0.0,0.0,1.40129846432e-45,4.59163467805e-41,2.11621142461e+28,4.58897221097e-41,0.349065840244,0.30498278141,1.32960903645,-0.0035184957087,-0.000608843402006,-0.000608843402006,-0.0128615135327,-0.00709047494456,-97.1646499634,-97.1646499634,-135.395080566,0.251096606255,2029,2060,2222,2029,2029,2905,3367,3385,3228,3327,3066,2890,3020,2948,3111,2735,3317,3341,3173,3260,2904,3254,3312,3043,0.009889586,1.239998055,1.226308664,0.680678427219,4500.0,0.654048621655,0.000964653678238,-0.0266297664493,119.833946228,1.34390354156,6000.0,1.32981407642,0.0221150070429,-0.0140894828364,78.396812439,0.349065840244,0.0216827709228,0.00842049531639,0.000776883622166,0.00350527558476,0.00350527558476,-0.00134511746,0.00880568753928,0.126998201013,0.126998201013,-2.33095431328,0.630016505718,2014,2016,2544,2038,2038,2920,3421,3421,3239,3361,3089,3052,3153,3144,3236,2852,3403,3411,3240,3363,3127,3349,3387,3191
1508405865680031806,125,1508405865679863095,plot_matl,0.0,0.0,1.40129846432e-45,4.59163467805e-41,2.11621142461e+28,4.58897221097e-41,0.349065840244,0.30498278141,1.32960903645,-0.0035184957087,-0.000608843402006,-0.000608843402006,-0.0128615135327,-0.00709047494456,-97.1646499634,-97.1646499634,-135.395080566,0.251096606255,2086,2133,2222,2029,2029,2905,3367,3385,3228,3327,3065,2889,3020,2946,3111,2735,3317,3342,3171,3259,2904,3254,3312,3043,0.009999255,1.249998063,1.249906875,0.680678427219,4500.0,0.654048621655,0.000260118598817,-0.0266297664493,119.833946228,1.34390354156,6000.0,1.32976591587,-0.0159333199263,-0.0141376620159,89.5440368652,0.349065840244,0.0216827709228,0.00842049531639,0.000776883622166,0.00350527558476,0.00350527558476,-0.00134511746,0.00880568753928,0.126998201013,0.126998201013,-2.33095431328,0.630016505718,2012,2010,2544,2038,2038,2920,3421,3421,3239,3361,3088,3051,3154,3145,3235,2852,3402,3413,3239,3363,3127,3349,3387,3191
1508405865690273654,126,1508405865689881797,plot_matl,0.0,0.0,1.40129846432e-45,4.59163467805e-41,2.11621142461e+28,4.58897221097e-41,0.349065840244,0.30498278141,1.32960903645,-0.0035184957087,-0.000608843402006,-0.000608843402006,-0.0128615135327,-0.00709047494456,-97.1646499634,-97.1646499634,-135.395080566,0.251096606255,2036,2020,2221,2029,2029,2907,3368,3385,3228,3327,3065,2889,3020,2946,3111,2735,3317,3342,3171,3259,2902,3254,3313,3043,0.010020866,1.260018074,1.262629116,0.680678427219,4500.0,0.654048621655,0.000260118598817,-0.0266297664493,119.833946228,1.34390354156,6000.0,1.32980406284,-0.0166499372572,-0.0140994228423,89.7967834473,0.349065840244,0.0216827709228,0.00842049531639,0.000776883622166,0.00350527558476,0.00350527558476,-0.00134511746,0.00880568753928,0.126998201013,0.126998201013,-2.33095431328,0.630016505718,2040,2036,2545,2035,2035,2922,3421,3421,3239,3361,3088,3051,3154,3145,3235,2852,3402,3413,3239,3363,3126,3350,3386,3192
1508405865699980661,127,1508405865699855148,plot_matl,0.0,0.0,1.40129846432e-45,4.59163467805e-41,2.11621142461e+28,4.58897221097e-41,0.349065840244,0.30363330245,1.3297675848,-0.0034753116779,-0.0127464504912,-0.0127464504912,0.0231565702707,0.00181766878814,-97.2635955811,-97.2635955811,-135.332824707,0.116271242499,2036,2020,2221,2029,2029,2907,3368,3385,3228,3327,3065,2889,3020,2946,3111,2735,3317,3342,3171,3259,2902,3254,3313,3043,0.009969547,1.269989661,1.266132469,0.680678427219,4500.0,0.654048621655,0.000666457402986,-0.0266297664493,119.833946228,1.34390354156,6000.0,1.32995593548,0.0207301191986,-0.0139475977048,77.9849777222,0.349065840244,0.0192735753953,0.00843066722155,0.000749385042582,-0.0189113356173,-0.0189113356173,-0.00154988386203,0.00930233113468,-0.00855037756264,-0.00855037756264,-1.68942701817,1.35128712654,2040,2036,2545,2035,2035,2922,3421,3421,3239,3361,3088,3051,3154,3145,3235,2852,3402,3413,3239,3363,3126,3350,3386,3192
1508405865709978369,128,1508405865709854869,plot_matl,0.0,0.0,1.40129846432e-45,4.59163467805e-41,2.11621142461e+28,4.58897221097e-41,0.349065840244,0.30363330245,1.3297675848,-0.0034753116779,-0.0127464504912,-0.0127464504912,0.0231565702707,0.00181766878814,-97.2635955811,-97.2635955811,-135.332824707,0.116271242499,2010,2024,2221,2029,2029,2907,3368,3385,3228,3329,3065,2898,3032,2950,3118,2737,3326,3347,3171,3259,2902,3254,3313,3043,0.010000574,1.27999001,1.280073472,0.680678427219,4500.0,0.655398130417,0.0282059386373,-0.025280283764,113.761283875,1.34390354156,6000.0,1.32988715172,-0.0171890333295,-0.0140163917094,89.534828186,0.349065840244,0.0192735753953,0.00843066722155,0.000749385042582,-0.0189113356173,-0.0189113356173,-0.00154988386203,0.00930233113468,-0.00855037756264,-0.00855037756264,-1.68942701817,1.35128712654,2026,2021,2545,2035,2035,2922,3421,3421,3239,3362,3091,3061,3165,3155,3242,2857,3409,3417,3239,3363,3126,3350,3386,3192
1508405865720028064,129,1508405865719892352,plot_matl,0.0,0.0,1.40129846432e-45,4.59163467805e-41,2.11621142461e+28,4.58897221097e-41,0.349065840244,0.30363330245,1.3297675848,-0.0034753116779,-0.0127464504912,-0.0127464504912,0.0231565702707,0.00181766878814,-97.2635955811,-97.2635955811,-135.332824707,0.116271242499,2113,2147,2220,2029,2029,2909,3368,3385,3228,3329,3065,2898,3032,2950,3118,2737,3326,3347,3178,3265,2908,3259,3317,3046,0.01003737,1.290027459,1.29482073,0.680678427219,4500.0,0.654048621655,0.00117195188068,-0.0266297664493,119.833946228,1.34390354156,6000.0,1.32983112335,0.0228361971676,-0.0140723912045,77.7691955566,0.349065840244,0.0192735753953,0.00843066722155,0.000749385042582,-0.0189113356173,-0.0189113356173,-0.00154988386203,0.00930233113468,-0.00855037756264,-0.00855037756264,-1.68942701817,1.35128712654,2006,2004,2544,2036,2036,2923,3421,3421,3239,3362,3091,3061,3165,3155,3242,2857,3409,3417,3246,3367,3132,3354,3389,3195
1508405865729991254,130,1508405865729854495,plot_matl,0.0,0.0,1.40129846432e-45,4.59163467805e-41,2.11621142461e+28,4.58897221097e-41,0.349065840244,0.30498278141,1.32981526852,-0.00345253013074,0.000575003912672,0.000575003912672,-0.0159175992012,0.00138369819615,-97.067489624,-97.067489624,-135.072525024,0.385169446468,1951,2008,2220,2029,2029,2909,3371,3389,3229,3329,3067,2890,3022,2947,3111,2731,3326,3347,3178,3265,2908,3259,3317,3046,0.009961353,1.299989109,1.29497589,0.680678427219,4500.0,0.655398130417,0.0286815427244,-0.025280283764,113.761283875,1.34390354156,6000.0,1.3297829628,-0.0154156284407,-0.0141205051914,89.5310211182,0.349065840244,0.0216827709228,0.00839758105576,0.000743434939068,0.00316432956606,0.00316432956606,-0.000849883246701,0.00956789683551,0.108522474766,0.108522474766,-1.45975887775,0.763142347336,2031,2021,2544,2036,2036,2923,3424,3424,3241,3363,3090,3053,3155,3146,3237,2853,3409,3417,3246,3367,3132,3354,3389,3195
1508405865739978490,131,1508405865739854259,plot_matl,0.0,0.0,1.40129846432e-45,4.59163467805e-41,2.11621142461e+28,4.58897221097e-41,0.349065840244,0.30498278141,1.32981526852,-0.00345253013074,0.000575003912672,0.000575003912672,-0.0159175992012,0.00138369819615,-97.067489624,-97.067489624,-135.072525024,0.385169446468,2008,2058,2221,2027,2027,2909,3371,3389,3229,3329,3067,2890,3022,2947,3111,2731,3319,3343,3175,3262,2905,3255,3314,3041,0.009999879,1.309989007,1.309984149,0.680678427219,4500.0,0.654048621655,0.00171911728103,-0.0266297664493,119.833946228,1.34390354156,6000.0,1.32977974415,0.023616893217,-0.0141237396747,77.8948440552,0.349065840244,0.0216827709228,0.00839758105576,0.000743434939068,0.00316432956606,0.00316432956606,-0.000849883246701,0.00956789683551,0.108522474766,0.108522474766,-1.45975887775,0.763142347336,2019,2008,2544,2035,2035,2923,3424,3424,3241,3363,3090,3053,3155,3146,3237,2853,3404,3411,3241,3365,3126,3350,3386,3190
1508405865749996147,132,1508405865749854918,plot_matl,0.0,0.0,1.40129846432e-45,4.59163467805e-41,2.11621142461e+28,4.58897221097e-41,0.349065840244,0.30498278141,1.32981526852,-0.00345253013074,0.000575003912672,0.000575003912672,-0.0159175992012,0.00138369819615,-97.067489624,-97.067489624,-135.072525024,0.385169446468,2094,2120,2221,2027,2027,2904,3368,3385,3228,3329,3066,2889,3023,2949,3111,2731,3319,3343,3175,3262,2905,3255,3314,3041,0.010000599,1.319989747,1.320079068,0.680678427219,4500.0,0.654048621655,0.00140723935328,-0.0266297664493,119.833946228,1.34390354156,6000.0,1.32978105545,0.0234963092953,-0.0141224749386,77.3854827881,0.349065840244,0.0216827709228,0.00839758105576,0.000743434939068,0.00316432956606,0.00316432956606,-0.000849883246701,0.00956789683551,0.108522474766,0.108522474766,-1.45975887775,0.763142347336,2026,2021,2544,2035,2035,2921,3421,3423,3239,3361,3089,3052,3156,3145,3237,2853,3404,3411,3241,3365,3126,3350,3386,3190
1508405865759986482,133,1508405865759863442,plot_matl,0.0,0.0,1.40129846432e-45,4.59163467805e-41,2.11621142461e+28,4.58897221097e-41,0.349065840244,0.30498278141,1.32981526852,-0.00345253013074,0.000575003912672,0.000575003912672,-0.0159175992012,0.00138369819615,-97.067489624,-97.067489624,-135.072525024,0.385169446468,2030,2083,2221,2027,2027,2904,3368,3385,3228,3329,3066,2889,3023,2949,3112,2734,3319,3344,3174,3262,2902,3254,3313,3043,0.010008227,1.329998173,1.331094191,0.680678427219,4500.0,0.654048621655,0.00167918391526,-0.0266297664493,119.833946228,1.34390354156,6000.0,1.3298432827,0.0221401005983,-0.0140602216125,77.96875,0.349065840244,0.0216827709228,0.00839758105576,0.000743434939068,0.00316432956606,0.00316432956606,-0.000849883246701,0.00956789683551,0.108522474766,0.108522474766,-1.45975887775,0.763142347336,2036,2031,2544,2035,2035,2921,3421,3423,3239,3361,3089,3052,3156,3145,3236,2850,3403,3412,3239,3364,3128,3350,3387,3192
1508405865769996161,134,1508405865769861467,plot_matl,0.0,0.0,1.40129846432e-45,4.59163467805e-41,2.11621142461e+28,4.58897221097e-41,0.349065840244,0.30498278141,1.329865098,-0.00345119228587,0.000822571862955,0.000822571862955,0.0216912794858,0.00134762376547,-97.2019577026,-97.2019577026,-135.170150757,0.354145556688,1917,1949,2220,2033,2033,2906,3367,3385,3228,3329,3065,2887,3023,2949,3112,2734,3319,3344,3174,3262,2902,3254,3313,3043,0.009998256,1.339996553,1.339766304,0.680678427219,4500.0,0.655398130417,0.0281052216887,-0.025280283764,113.761283875,1.34390354156,6000.0,1.32997214794,0.0194656569511,-0.0139313992113,78.0526657104,0.349065840244,0.0216827709228,0.00838503800333,0.000747404177673,0.00347201363184,0.00347201363184,-0.000593216274865,0.00946090277284,-0.0092497523874,-0.0092497523874,-1.50643908978,0.483331173658,2036,2034,2543,2037,2037,2922,3422,3423,3238,3361,3090,3051,3156,3145,3236,2850,3403,3412,3239,3364,3128,3350,3387,3192
1508405865780084964,135,1508405865779879272,plot_matl,0.0,0.0,1.40129846432e-45,4.59163467805e-41,2.11621142461e+28,4.58897221097e-41,0.349065840244,0.30498278141,1.329865098,-0.00345119228587,0.000822571862955,0.000822571862955,0.0216912794858,0.00134762376547,-97.2019577026,-97.2019577026,-135.170150757,0.354145556688,2094,2081,2220,2033,2033,2906,3367,3385,3228,3329,3065,2887,3020,2942,3111,2731,3318,3342,3175,3260,2903,3255,3313,3043,0.010019869,1.350015382,1.352682315,0.680678427219,4500.0,0.652699172497,-0.0255487393588,-0.027979247272,125.906616211,1.34390354156,6000.0,1.32993471622,-0.018890094012,-0.0139688439667,89.5587081909,0.349065840244,0.0216827709228,0.00838503800333,0.000747404177673,0.00347201363184,0.00347201363184,-0.000593216274865,0.00946090277284,-0.0092497523874,-0.0092497523874,-1.50643908978,0.483331173658,2028,2022,2543,2037,2037,2922,3422,3423,3238,3361,3090,3051,3156,3146,3235,2853,3403,3414,3239,3366,3129,3349,3387,3192
1508405865790187292,136,1508405865789928688,plot_matl,0.0,0.0,1.40129846432e-45,4.59163467805e-41,2.11621142461e+28,4.58897221097e-41,0.349065840244,0.30498278141,1.329865098,-0.00345119228587,0.000822571862955,0.000822571862955,0.0216912794858,0.00134762376547,-97.2019577026,-97.2019577026,-135.170150757,0.354145556688,2055,2079,2221,2033,2033,2906,3369,3385,3227,3328,3065,2887,3020,2942,3111,2731,3318,3342,3175,3260,2903,3255,3315,3043,0.010049007,1.360064999,1.366664952,0.680678427219,4500.0,0.652699172497,-0.0255487393588,-0.027979247272,125.906616211,1.34390354156,6000.0,1.32993471622,-0.018890094012,-0.0139688439667,89.5587081909,0.349065840244,0.0216827709228,0.00838503800333,0.000747404177673,0.00347201363184,0.00347201363184,-0.000593216274865,0.00946090277284,-0.0092497523874,-0.0092497523874,-1.50643908978,0.483331173658,2042,2045,2545,2037,2037,2921,3421,3422,3241,3360,3090,3051,3156,3146,3235,2853,3403,3414,3239,3366,3129,3349,3386,3193
1508405865799976466,137,1508405865799861109,plot_matl,0.0,0.0,1.40129846432e-45,4.59163467805e-41,2.11621142461e+28,4.58897221097e-41,0.349065840244,0.30498278141,1.329865098,-0.00345119228587,0.000822571862955,0.000822571862955,0.0216912794858,0.00134762376547,-97.2019577026,-97.2019577026,-135.170150757,0.354145556688,1935,1983,2221,2033,2033,2906,3369,3385,3227,3328,3065,2891,3021,2947,3109,2730,3318,3344,3175,3260,2903,3255,3315,3043,0.009929975,1.369996018,1.360406575,0.680678427219,4500.0,0.655398130417,0.0287889260799,-0.025280283764,113.761283875,1.34390354156,6000.0,1.32988572121,-0.018052758649,-0.0140178324655,89.5334625244,0.349065840244,0.0216827709228,0.00838503800333,0.000747404177673,0.00347201363184,0.00347201363184,-0.000593216274865,0.00946090277284,-0.0092497523874,-0.0092497523874,-1.50643908978,0.483331173658,2021,2024,2545,2037,2037,2921,3421,3422,3241,3360,3090,3051,3153,3147,3236,2853,3403,3412,3239,3364,3129,3349,3386,3193
1508405865810122546,138,1508405865809877570,plot_matl,0.0,0.0,1.40129846432e-45,4.59163467805e-41,2.11621142461e+28,4.58897221097e-41,0.349065840244,0.30498278141,1.32990634441,-0.00344478106126,0.000747937068809,0.000747937068809,0.0206098072231,0.00121393532027,-97.2436218262,-97.2436218262,-135.253112793,0.391397476196,1987,2000,2222,2033,2033,2905,3368,3384,3227,3328,3065,2891,3021,2947,3109,2730,3318,3344,3175,3260,2902,3255,3314,3044,0.010018414,1.380013916,1.382541132,0.680678427219,4500.0,0.655398130417,0.0284860711545,-0.025280283764,113.761283875,1.34390354156,6000.0,1.32990098,0.0206971466541,-0.0140025168657,77.964805603,0.349065840244,0.0216827709228,0.00842083245516,0.000817141844891,0.00204070517793,0.00204070517793,-0.00132669089362,-0.0164299253374,0.0836546197534,0.0836546197534,-1.07378268242,1.1224322319,2003,2010,2544,2037,2037,2921,3422,3423,3241,3360,3090,3051,3153,3147,3236,2853,3403,3412,3239,3364,3129,3348,3385,3191
1508405865819955262,139,1508405865819859098,plot_matl,0.0,0.0,1.40129846432e-45,4.59163467805e-41,2.11621142461e+28,4.58897221097e-41,0.349065840244,0.30498278141,1.32990634441,-0.00344478106126,0.000747937068809,0.000747937068809,0.0206098072231,0.00121393532027,-97.2436218262,-97.2436218262,-135.253112793,0.391397476196,2123,2152,2222,2033,2033,2905,3368,3384,3229,3328,3066,2889,3021,2949,3112,2733,3319,3342,3175,3260,2902,3255,3314,3044,0.009978277,1.389993725,1.386980503,0.680678427219,4500.0,0.652699172497,-0.0252383109182,-0.027979247272,125.906616211,1.34390354156,6000.0,1.32991218567,-0.0185656305403,-0.0139913503081,89.5343933105,0.349065840244,0.0216827709228,0.00842083245516,0.000817141844891,0.00204070517793,0.00204070517793,-0.00132669089362,-0.0164299253374,0.0836546197534,0.0836546197534,-1.07378268242,1.1224322319,2016,2015,2544,2037,2037,2921,3422,3423,3239,3361,3088,3052,3153,3145,3238,2851,3402,3412,3239,3364,3129,3348,3385,3191
1508405865830417829,140,1508405865829915944,plot_matl,0.0,0.0,1.40129846432e-45,4.59163467805e-41,2.11621142461e+28,4.58897221097e-41,0.349065840244,0.30498278141,1.32990634441,-0.00344478106126,0.000747937068809,0.000747937068809,0.0206098072231,0.00121393532027,-97.2436218262,-97.2436218262,-135.253112793,0.391397476196,1962,2022,2220,2032,2032,2905,3368,3384,3229,3328,3066,2889,3021,2949,3112,2733,3319,3342,3174,3262,2903,3255,3313,3041,0.010061419,1.400053413,1.40859866,0.680678427219,4500.0,0.652699172497,-0.0241574905813,-0.027979247272,125.906616211,1.34390354156,6000.0,1.32992267609,0.0203111935407,-0.0139808189124,77.8220214844,0.349065840244,0.0216827709228,0.00842083245516,0.000817141844891,0.00204070517793,0.00204070517793,-0.00132669089362,-0.0164299253374,0.0836546197534,0.0836546197534,-1.07378268242,1.1224322319,2023,2029,2544,2038,2038,2922,3422,3423,3239,3361,3088,3052,3153,3145,3238,2851,3402,3412,3239,3361,3127,3351,3386,3191
1508405865840084984,141,1508405865839872830,plot_matl,0.0,0.0,1.40129846432e-45,4.59163467805e-41,2.11621142461e+28,4.58897221097e-41,0.349065840244,0.30498278141,1.32990634441,-0.00344478106126,0.000747937068809,0.000747937068809,0.0206098072231,0.00121393532027,-97.2436218262,-97.2436218262,-135.253112793,0.391397476196,1992,2045,2220,2032,2032,2905,3369,3385,3226,3325,3064,2887,3021,2943,3113,2731,3319,3342,3174,3262,2903,3255,3313,3041,0.009952623,1.41000796,1.403319843,0.680678427219,4500.0,0.654048621655,0.0035035808105,-0.0266297664493,119.833946228,1.34390354156,6000.0,1.32986629009,0.0215011127293,-0.0140372375026,77.2879180908,0.349065840244,0.0216827709228,0.00842083245516,0.000817141844891,0.00204070517793,0.00204070517793,-0.00132669089362,-0.0164299253374,0.0836546197534,0.0836546197534,-1.07378268242,1.1224322319,1998,2005,2544,2038,2038,2922,3422,3421,3237,3362,3089,3052,3154,3147,3236,2851,3402,3412,3239,3361,3127,3351,3386,3191
1508405865850280383,142,1508405865849901725,plot_matl,0.0,0.0,1.40129846432e-45,4.59163467805e-41,2.11621142461e+28,4.58897221097e-41,0.349065840244,0.30498278141,1.32988548279,-0.00346527434886,0.00171995686833,0.00171995686833,0.0211103931069,-0.00814460590482,-97.3017196655,-97.3017196655,-135.26864624,0.222967743874,2076,2117,2221,2032,2032,2905,3369,3385,3226,3325,3064,2887,3021,2943,3113,2731,3318,3342,3173,3261,2904,3254,3313,3040,0.010030083,1.420037771,1.424271786,0.680678427219,4500.0,0.652699172497,-0.0247860718518,-0.027979247272,125.906616211,1.34390354156,6000.0,1.32998383045,0.0190465673804,-0.0139197241515,77.9591369629,0.349065840244,0.0216827709228,0.00842598639429,0.000723717210349,0.0051264250651,0.0051264250651,-0.00144873268437,0.0098975347355,-0.0793606266379,-0.0793606266379,-1.38226091862,1.68686664104,2017,2021,2544,2038,2038,2922,3422,3421,3237,3362,3089,3052,3154,3147,3236,2851,3405,3411,3240,3364,3128,3350,3384,3191
1508405865860118122,143,1508405865859868965,plot_matl,0.0,0.0,1.40129846432e-45,4.59163467805e-41,2.11621142461e+28,4.58897221097e-41,0.349065840244,0.30498278141,1.32988548279,-0.00346527434886,0.00171995686833,0.00171995686833,0.0211103931069,-0.00814460590482,-97.3017196655,-97.3017196655,-135.26864624,0.222967743874,2029,2089,2221,2032,2032,2907,3370,3385,3226,3328,3065,2889,3021,2948,3113,2731,3318,3342,3173,3261,2904,3254,3313,3040,0.009965927,1.430004424,1.425127561,0.680678427219,4500.0,0.652699172497,-0.025228774175,-0.027979247272,125.906616211,1.34390354156,6000.0,1.32997345924,0.0192146971822,-0.0139301139861,78.1160125732,0.349065840244,0.0216827709228,0.00842598639429,0.000723717210349,0.0051264250651,0.0051264250651,-0.00144873268437,0.0098975347355,-0.0793606266379,-0.0793606266379,-1.38226091862,1.68686664104,2038,2038,2544,2038,2038,2920,3421,3421,3238,3361,3089,3051,3155,3145,3236,2851,3405,3411,3240,3364,3128,3350,3384,3191
1508405865870251204,144,1508405865869930954,plot_matl,0.0,0.0,1.40129846432e-45,4.59163467805e-41,2.11621142461e+28,4.58897221097e-41,0.349065840244,0.30498278141,1.32988548279,-0.00346527434886,0.00171995686833,0.00171995686833,0.0211103931069,-0.00814460590482,-97.3017196655,-97.3017196655,-135.26864624,0.222967743874,1930,1962,2221,2032,2032,2907,3370,3385,3226,3328,3065,2889,3021,2948,3112,2733,3315,3343,3174,3260,2904,3255,3310,3043,0.010063623,1.44006737,1.449161712,0.680678427219,4500.0,0.652699172497,-0.0240580681711,-0.027979247272,125.906616211,1.34390354156,6000.0,1.32997250557,0.0192157104611,-0.0139310089871,77.2797241211,0.349065840244,0.0216827709228,0.00842598639429,0.000723717210349,0.0051264250651,0.0051264250651,-0.00144873268437,0.0098975347355,-0.0793606266379,-0.0793606266379,-1.38226091862,1.68686664104,2034,2034,2544,2038,2038,2920,3421,3421,3238,3361,3089,3051,3155,3145,3236,2851,3404,3410,3239,3365,3127,3349,3383,3193
1508405865880120036,145,1508405865879871858,plot_matl,0.0,0.0,1.40129846432e-45,4.59163467805e-41,2.11621142461e+28,4.58897221097e-41,0.349065840244,0.30498278141,1.32988548279,-0.00346527434886,0.00171995686833,0.00171995686833,0.0211103931069,-0.00814460590482,-97.3017196655,-97.3017196655,-135.26864624,0.222967743874,2074,2077,2223,2035,2035,2905,3369,3382,3228,3329,3067,2890,3021,2948,3112,2733,3315,3343,3174,3260,2904,3255,3310,3043,0.00993897,1.45000752,1.44115065,0.680678427219,4500.0,0.654048621655,0.00355084775947,-0.0266297664493,119.833946228,1.34390354156,6000.0,1.33003747463,0.0179455764592,-0.0138661041856,77.7168960571,0.349065840244,0.0216827709228,0.00842598639429,0.000723717210349,0.0051264250651,0.0051264250651,-0.00144873268437,0.0098975347355,-0.0793606266379,-0.0793606266379,-1.38226091862,1.68686664104,2017,2025,2544,2034,2034,2922,3422,3420,3238,3361,3090,3050,3155,3145,3236,2851,3404,3410,3239,3365,3127,3349,3383,3193
1508405865890147518,146,1508405865889871937,plot_matl,0.0,0.0,1.40129846432e-45,4.59163467805e-41,2.11621142461e+28,4.58897221097e-41,0.349065840244,0.30633226037,1.33005440235,-0.00348285376094,0.0151055669412,0.0151055669412,0.0175997372717,0.00196923036128,-97.2812271118,-97.2812271118,-135.53074646,0.252875983715,2049,2061,2223,2035,2035,2905,3369,3382,3228,3329,3067,2890,3021,2948,3113,2733,3318,3344,3173,3259,2904,3255,3310,3043,0.009999977,1.460007507,1.459996642,0.680678427219,4500.0,0.654048621655,0.00355084775947,-0.0266297664493,119.833946228,1.34390354156,6000.0,1.33003747463,0.0179455764592,-0.0138661041856,77.7168960571,0.349065840244,0.0216827709228,0.00847801845521,0.000886875379365,0.00547814602032,0.00547814602032,-0.00249507720582,0.00654588080943,0.314404219389,0.314404219389,-1.4272967577,1.30656290054,2035,2038,2544,2034,2034,2922,3422,3420,3238,3361,3090,3050,3153,3145,3236,2853,3403,3412,3239,3363,3128,3349,3383,3193
1508405865900086896,147,1508405865899899472,plot_matl,0.0,0.0,1.40129846432e-45,4.59163467805e-41,2.11621142461e+28,4.58897221097e-41,0.349065840244,0.30633226037,1.33005440235,-0.00348285376094,0.0151055669412,0.0151055669412,0.0175997372717,0.00196923036128,-97.2812271118,-97.2812271118,-135.53074646,0.252875983715,1932,1986,2221,2036,2036,2907,3368,3385,3229,3328,3067,2890,3021,2948,3113,2733,3318,3344,3173,3259,2904,3255,3314,3040,0.010026713,1.470035054,1.473926811,0.680678427219,4500.0,0.654048621655,0.00288997031748,-0.0266297664493,119.833946228,1.34390354156,6000.0,1.33010601997,0.0165365468711,-0.0137975150719,77.8199539185,0.349065840244,0.0216827709228,0.00847801845521,0.000886875379365,0.00547814602032,0.00547814602032,-0.00249507720582,0.00654588080943,0.314404219389,0.314404219389,-1.4272967577,1.30656290054,2023,2034,2543,2038,2038,2922,3420,3423,3239,3361,3090,3050,3153,3145,3236,2853,3403,3412,3239,3363,3128,3349,3386,3191
1508405865910163747,148,1508405865909869331,plot_matl,0.0,0.0,1.40129846432e-45,4.59163467805e-41,2.11621142461e+28,4.58897221097e-41,0.349065840244,0.30633226037,1.33005440235,-0.00348285376094,0.0151055669412,0.0151055669412,0.0175997372717,0.00196923036128,-97.2812271118,-97.2812271118,-135.53074646,0.252875983715,2000,2004,2221,2036,2036,2907,3368,3385,3229,3328,3067,2888,3021,2942,3109,2732,3315,3344,3175,3260,2904,3255,3314,3040,0.009970344,1.480005245,1.475610912,0.680678427219,4500.0,0.652699172497,-0.0244045816362,-0.027979247272,125.906616211,1.34390354156,6000.0,1.33004438877,-0.0213188398629,-0.0138591369614,89.5730056763,0.349065840244,0.0216827709228,0.00847801845521,0.000886875379365,0.00547814602032,0.00547814602032,-0.00249507720582,0.00654588080943,0.314404219389,0.314404219389,-1.4272967577,1.30656290054,2014,2017,2543,2038,2038,2922,3420,3423,3239,3361,3088,3051,3154,3143,3235,2851,3403,3409,3240,3361,3128,3349,3386,3191
1508405865920103350,149,1508405865919872765,plot_matl,0.0,0.0,1.40129846432e-45,4.59163467805e-41,2.11621142461e+28,4.58897221097e-41,0.349065840244,0.30633226037,1.33005440235,-0.00348285376094,0.0151055669412,0.0151055669412,0.0175997372717,0.00196923036128,-97.2812271118,-97.2812271118,-135.53074646,0.252875983715,2113,2149,2221,2035,2035,2907,3369,3384,3229,3328,3067,2888,3021,2942,3109,2732,3315,3344,3175,3260,2904,3254,3312,3044,0.010001779,1.490007855,1.490265071,0.680678427219,4500.0,0.654048621655,0.00379834277555,-0.0266297664493,119.833946228,1.34390354156,6000.0,1.32995140553,-0.0195507518947,-0.0139521332458,89.7442321777,0.349065840244,0.0216827709228,0.00847801845521,0.000886875379365,0.00547814602032,0.00547814602032,-0.00249507720582,0.00654588080943,0.314404219389,0.314404219389,-1.4272967577,1.30656290054,2010,2015,2544,2039,2039,2920,3420,3421,3239,3361,3088,3051,3154,3143,3235,2851,3403,3409,3240,3361,3126,3351,3385,3193
1508405865930304208,150,1508405865929881094,plot_matl,0.0,0.0,1.40129846432e-45,4.59163467805e-41,2.11621142461e+28,4.58897221097e-41,0.349065840244,0.30498278141,1.32993292809,-0.00347091211006,0.00186272221617,0.00186272221617,-0.0191755313426,0.00173562683631,-97.1923675537,-97.1923675537,-135.060791016,0.179279386997,1955,2012,2221,2035,2035,2907,3369,3384,3228,3328,3066,2889,3021,2947,3112,2732,3319,3341,3175,3260,2904,3254,3312,3044,0.010009555,1.50001717,1.50143325,0.680678427219,4500.0,0.654048621655,0.00379834277555,-0.0266297664493,119.833946228,1.34390354156,6000.0,1.32995140553,-0.0195507518947,-0.0139521332458,89.7442321777,0.349065840244,0.0216827709228,0.00847169291228,0.00097829697188,0.00675973296165,0.00675973296165,-0.00234063668177,-0.0196953658015,0.583933830261,0.583933830261,-1.616086483,1.39802777767,2029,2020,2544,2039,2039,2920,3420,3421,3238,3362,3089,3052,3154,3146,3237,2851,3402,3411,3240,3361,3126,3351,3385,3193
1508405865940335433,151,1508405865939933457,plot_matl,0.0,0.0,1.40129846432e-45,4.59163467805e-41,2.11621142461e+28,4.58897221097e-41,0.349065840244,0.30498278141,1.32993292809,-0.00347091211006,0.00186272221617,0.00186272221617,-0.0191755313426,0.00173562683631,-97.1923675537,-97.1923675537,-135.060791016,0.179279386997,2031,2048,2222,2033,2033,2915,3369,3384,3228,3328,3066,2889,3021,2947,3112,2732,3319,3341,3173,3260,2918,3269,3325,3059,0.010051561,1.510069312,1.517785711,0.680678427219,4500.0,0.654048621655,0.00121786864474,-0.0266297664493,119.833946228,1.34390354156,6000.0,1.33003282547,-0.0190400257707,-0.0138706695288,89.0275421143,0.349065840244,0.0216827709228,0.00847169291228,0.00097829697188,0.00675973296165,0.00675973296165,-0.00234063668177,-0.0196953658015,0.583933830261,0.583933830261,-1.616086483,1.39802777767,2036,2030,2544,2036,2036,2928,3420,3421,3238,3362,3089,3052,3154,3146,3237,2851,3402,3411,3240,3363,3144,3365,3398,3207
1508405865950171383,152,1508405865949884269,plot_matl,0.0,0.0,1.40129846432e-45,4.59163467805e-41,2.11621142461e+28,4.58897221097e-41,0.349065840244,0.30498278141,1.32993292809,-0.00347091211006,0.00186272221617,0.00186272221617,-0.0191755313426,0.00173562683631,-97.1923675537,-97.1923675537,-135.060791016,0.179279386997,2034,2065,2222,2033,2033,2915,3377,3391,3233,3334,3070,2895,3026,2952,3117,2737,3319,3341,3173,3260,2918,3269,3325,3059,0.009951203,1.520020255,1.512582856,0.680678427219,4500.0,0.654048621655,0.000992385554127,-0.0266297664493,119.833946228,1.34390354156,6000.0,1.33001291752,0.0200155973434,-0.0138906054199,77.7968063354,0.349065840244,0.0216827709228,0.00847169291228,0.00097829697188,0.00675973296165,0.00675973296165,-0.00234063668177,-0.0196953658015,0.583933830261,0.583933830261,-1.616086483,1.39802777767,2043,2050,2544,2036,2036,2928,3429,3428,3245,3368,3094,3054,3158,3150,3239,2855,3402,3411,3240,3363,3144,3365,3398,3207
1508405865960247527,153,1508405865959879959,plot_matl,0.0,0.0,1.40129846432e-45,4.59163467805e-41,2.11621142461e+28,4.58897221097e-41,0.349065840244,0.30498278141,1.32993292809,-0.00347091211006,0.00186272221617,0.00186272221617,-0.0191755313426,0.00173562683631,-97.1923675537,-97.1923675537,-135.060791016,0.179279386997,1948,1999,2222,2031,2031,2915,3377,3391,3233,3334,3070,2895,3026,2952,3117,2737,3323,3344,3177,3262,2905,3258,3315,3044,0.009995073,1.530015954,1.529246169,0.680678427219,4500.0,0.652699172497,-0.0258978139609,-0.027979247272,125.906616211,1.34390354156,6000.0,1.32993257046,-0.0177178867161,-0.0139709636569,89.6234741211,0.349065840244,0.0216827709228,0.00847169291228,0.00097829697188,0.00675973296165,0.00675973296165,-0.00234063668177,-0.0196953658015,0.583933830261,0.583933830261,-1.616086483,1.39802777767,2030,2028,2544,2036,2036,2928,3429,3428,3245,3368,3094,3054,3158,3150,3239,2855,3407,3413,3241,3365,3128,3353,3389,3193
1508405865970331190,154,1508405865969895623,plot_matl,0.0,0.0,1.40129846432e-45,4.59163467805e-41,2.11621142461e+28,4.58897221097e-41,0.349065840244,0.30498278141,1.32987773418,-0.00344757991843,0.000635984644759,0.000635984644759,-0.0166921187192,0.00160415214486,-96.9657592773,-96.9657592773,-134.804656982,0.0678641423583,1958,2005,2222,2031,2031,2906,3372,3386,3228,3330,3067,2890,3022,2945,3117,2737,3323,3344,3177,3262,2905,3258,3315,3044,0.010015409,1.540031598,1.542372986,0.680678427219,4500.0,0.654048621655,0.00265174312517,-0.0266297664493,119.833946228,1.34390354156,6000.0,1.32991087437,0.0215703062713,-0.013992657885,78.0201187134,0.349065840244,0.0216827709228,0.00843654293567,0.000924719497561,0.00474486127496,0.00474486127496,0.0137137072161,0.00668627070263,0.362943679094,0.362943679094,-0.962691605091,1.63496255875,2006,2020,2544,2036,2036,2923,3424,3424,3241,3362,3091,3052,3155,3147,3239,2855,3407,3413,3241,3365,3128,3353,3389,3193
1508405865980309159,155,1508405865979903184,plot_matl,0.0,0.0,1.40129846432e-45,4.59163467805e-41,2.11621142461e+28,4.58897221097e-41,0.349065840244,0.30498278141,1.32987773418,-0.00344757991843,0.000635984644759,0.000635984644759,-0.0166921187192,0.00160415214486,-96.9657592773,-96.9657592773,-134.804656982,0.0678641423583,2104,2126,2222,2031,2031,2906,3372,3386,3228,3330,3067,2890,3022,2945,3112,2734,3320,3342,3176,3262,2904,3256,3312,3044,0.010007902,1.550039334,1.55122481,0.680678427219,4500.0,0.654048621655,0.00208618608303,-0.0266297664493,119.833946228,1.34390354156,6000.0,1.32984745502,-0.0164085905999,-0.0140560958534,89.2696914673,0.349065840244,0.0216827709228,0.00843654293567,0.000924719497561,0.00474486127496,0.00474486127496,0.0137137072161,0.00668627070263,0.362943679094,0.362943679094,-0.962691605091,1.63496255875,2012,2012,2544,2036,2036,2923,3424,3424,3241,3362,3091,3052,3155,3147,3236,2853,3404,3412,3240,3363,3128,3350,3388,3194
1508405865990198279,156,1508405865989876572,plot_matl,0.0,0.0,1.40129846432e-45,4.59163467805e-41,2.11621142461e+28,4.58897221097e-41,0.349065840244,0.30498278141,1.32987773418,-0.00344757991843,0.000635984644759,0.000635984644759,-0.0166921187192,0.00160415214486,-96.9657592773,-96.9657592773,-134.804656982,0.0678641423583,2104,2126,2222,2031,2031,2906,3372,3386,3228,3330,3067,2890,3022,2945,3112,2734,3320,3342,3176,3262,2904,3256,3312,3044,0.009972233,1.560012593,1.555668348,0.680678427219,4500.0,0.654048621655,0.00208618608303,-0.0266297664493,119.833946228,1.34390354156,6000.0,1.32984745502,-0.0164085905999,-0.0140560958534,89.2696914673,0.349065840244,0.0216827709228,0.00843654293567,0.000924719497561,0.00474486127496,0.00474486127496,0.0137137072161,0.00668627070263,0.362943679094,0.362943679094,-0.962691605091,1.63496255875,2012,2012,2544,2036,2036,2923,3424,3424,3241,3362,3091,3052,3155,3147,3236,2853,3404,3412,3240,3363,3128,3350,3388,3194
1508405866000007800,157,1508405865999860178,plot_matl,0.0,0.0,1.40129846432e-45,4.59163467805e-41,2.11621142461e+28,4.58897221097e-41,0.349065840244,0.30498278141,1.32987773418,-0.00344757991843,0.000635984644759,0.000635984644759,-0.0166921187192,0.00160415214486,-96.9657592773,-96.9657592773,-134.804656982,0.0678641423583,1981,2053,2221,2034,2034,2908,3370,3386,3228,3329,3065,2889,3022,2945,3112,2734,3320,3342,3176,3262,2904,3256,3312,3044,0.009981822,1.569995422,1.567146054,0.680678427219,4500.0,0.652699172497,-0.0254816878587,-0.027979247272,125.906616211,1.34390354156,6000.0,1.32989871502,0.0214482862502,-0.0140047576278,78.0082015991,0.349065840244,0.0216827709228,0.00843654293567,0.000924719497561,0.00474486127496,0.00474486127496,0.0137137072161,0.00668627070263,0.362943679094,0.362943679094,-0.962691605091,1.63496255875,2019,2022,2544,2037,2037,2921,3424,3420,3241,3363,3088,3053,3155,3147,3236,2853,3404,3412,3240,3363,3128,3350,3388,3194
1508405866010034683,158,1508405866009882699,plot_matl,0.0,0.0,1.40129846432e-45,4.59163467805e-41,2.11621142461e+28,4.58897221097e-41,0.349065840244,0.30498278141,1.33004367352,-0.00344709632918,0.000680506636854,0.000680506636854,-0.0180722661316,-0.00830443017185,-97.2787628174,-97.2787628174,-134.445281982,0.00422070501372,2108,2138,2221,2034,2034,2908,3370,3386,3228,3329,3065,2889,3021,2960,3129,2745,3333,3356,3186,3270,2911,3263,3312,3044,0.010024294,1.580019005,1.583838452,0.680678427219,4500.0,0.654048621655,0.00123223301489,-0.0266297664493,119.833946228,1.34390354156,6000.0,1.32990539074,-0.054667878896,-0.0139981908724,101.263153076,0.349065840244,0.0216827709228,0.00842372793704,0.000914034899324,0.00260600727051,0.00260600727051,-0.00136221130379,-0.0180425941944,0.198454886675,0.198454886675,-0.773250937462,1.4037938118,2034,2027,2544,2037,2037,2921,3424,3420,3241,3363,3088,3053,3156,3162,3253,2863,3418,3425,3249,3373,3134,3358,3388,3194
1508405866020100013,159,1508405866019865712,plot_matl,0.0,0.0,1.40129846432e-45,4.59163467805e-41,2.11621142461e+28,4.58897221097e-41,0.349065840244,0.30498278141,1.33004367352,-0.00344709632918,0.000680506636854,0.000680506636854,-0.0180722661316,-0.00830443017185,-97.2787628174,-97.2787628174,-134.445281982,0.00422070501372,2020,2056,2221,2033,2033,2911,3375,3389,3231,3331,3065,2889,3021,2960,3129,2745,3333,3356,3186,3270,2911,3263,3320,3049,0.009980563,1.590000811,1.586909517,0.680678427219,4500.0,0.654048621655,0.00100836227648,-0.0266297664493,119.833946228,1.34390354156,6000.0,1.32988274097,0.0234447978437,-0.014020784758,77.8312225342,0.349065840244,0.0216827709228,0.00842372793704,0.000914034899324,0.00260600727051,0.00260600727051,-0.00136221130379,-0.0180425941944,0.198454886675,0.198454886675,-0.773250937462,1.4037938118,2039,2034,2544,2034,2034,2927,3426,3428,3243,3368,3088,3053,3156,3162,3253,2863,3418,3425,3249,3373,3134,3358,3393,3199
1508405866030156456,160,1508405866029895466,plot_matl,0.0,0.0,1.40129846432e-45,4.59163467805e-41,2.11621142461e+28,4.58897221097e-41,0.349065840244,0.30498278141,1.33004367352,-0.00344709632918,0.000680506636854,0.000680506636854,-0.0180722661316,-0.00830443017185,-97.2787628174,-97.2787628174,-134.445281982,0.00422070501372,1925,1962,2221,2033,2033,2911,3375,3389,3231,3331,3069,2893,3026,2947,3115,2732,3318,3347,3176,3263,2911,3263,3320,3049,0.010032593,1.600031927,1.60521488,0.680678427219,4500.0,0.654048621655,0.00132933759596,-0.0266297664493,119.833946228,1.34390354156,6000.0,1.32975375652,-0.0134485606104,-0.0141497142613,89.8593597412,0.349065840244,0.0216827709228,0.00842372793704,0.000914034899324,0.00260600727051,0.00260600727051,-0.00136221130379,-0.0180425941944,0.198454886675,0.198454886675,-0.773250937462,1.4037938118,2034,2045,2544,2034,2034,2927,3426,3428,3243,3368,3093,3053,3156,3147,3238,2853,3407,3413,3242,3364,3134,3358,3393,3199
1508405866040232893,161,1508405866039870488,plot_matl,0.0,0.0,1.40129846432e-45,4.59163467805e-41,2.11621142461e+28,4.58897221097e-41,0.349065840244,0.30498278141,1.33004367352,-0.00344709632918,0.000680506636854,0.000680506636854,-0.0180722661316,-0.00830443017185,-97.2787628174,-97.2787628174,-134.445281982,0.00422070501372,2094,2126,2221,2031,2031,2907,3372,3386,3231,3331,3069,2893,3026,2947,3115,2732,3318,3347,3176,3263,2906,3255,3315,3042,0.009972943,1.610006418,1.605643823,0.680678427219,4500.0,0.654048621655,0.00152182113379,-0.0266297664493,119.833946228,1.34390354156,6000.0,1.32974815369,-0.0137265445665,-0.0141553198919,89.7387924194,0.349065840244,0.0216827709228,0.00842372793704,0.000914034899324,0.00260600727051,0.00260600727051,-0.00136221130379,-0.0180425941944,0.198454886675,0.198454886675,-0.773250937462,1.4037938118,2014,2025,2545,2034,2034,2921,3425,3423,3243,3368,3093,3053,3156,3147,3238,2853,3407,3413,3242,3364,3127,3352,3388,3194
1508405866050240936,162,1508405866049871364,plot_matl,0.0,0.0,1.40129846432e-45,4.59163467805e-41,2.11621142461e+28,4.58897221097e-41,0.349065840244,0.30498278141,1.32978665829,-0.00343473348767,0.000688567699399,0.000688567699399,-0.0146766752005,0.00109522498678,-97.2461547852,-97.2461547852,-134.50944519,-0.0930752158165,2045,2078,2221,2031,2031,2907,3372,3386,3228,3328,3067,2890,3020,2950,3114,2733,3320,3343,3176,3263,2906,3255,3315,3042,0.009999698,1.620006873,1.619951076,0.680678427219,4500.0,0.654048621655,0.00229005282745,-0.0266297664493,119.833946228,1.34390354156,6000.0,1.32977795601,-0.0147524448112,-0.0141255604103,89.3080368042,0.349065840244,0.0192735753953,0.0084331696853,0.000940592843108,-0.0211427491158,-0.0211427491158,-0.00154789665248,-0.0188416000456,0.0547085106373,0.0547085106373,-1.37483799458,1.20960354805,2026,2036,2545,2034,2034,2921,3425,3423,3241,3362,3090,3053,3155,3146,3236,2851,3405,3412,3242,3364,3127,3352,3388,3194
1508405866060234453,163,1508405866059858584,plot_matl,0.0,0.0,1.40129846432e-45,4.59163467805e-41,2.11621142461e+28,4.58897221097e-41,0.349065840244,0.30498278141,1.32978665829,-0.00343473348767,0.000688567699399,0.000688567699399,-0.0146766752005,0.00109522498678,-97.2461547852,-97.2461547852,-134.50944519,-0.0930752158165,1978,1973,2222,2029,2029,2907,3372,3386,3228,3328,3067,2890,3020,2950,3114,2733,3320,3343,3176,3262,2904,3254,3313,3043,0.009985357,1.629993274,1.627613191,0.680678427219,4500.0,0.654048621655,0.00235560792498,-0.0266297664493,119.833946228,1.34390354156,6000.0,1.32980287075,-0.0154483774677,-0.01410066057,89.9013061523,0.349065840244,0.0192735753953,0.0084331696853,0.000940592843108,-0.0211427491158,-0.0211427491158,-0.00154789665248,-0.0188416000456,0.0547085106373,0.0547085106373,-1.37483799458,1.20960354805,2023,2027,2544,2031,2031,2922,3425,3423,3241,3362,3090,3053,3155,3146,3236,2851,3405,3412,3240,3365,3127,3351,3388,3195
