%time,field.header.seq,field.header.stamp,field.header.frame_id,field.FFJ4_set_point,field.FFJ4_position_gain,field.FFJ4_process_value,field.FFJ4_process_value_dot,field.FFJ4_error,field.FFJ4_command,field.FFJ1,field.FFJ2,field.FFJ3,field.FFJ4,field.FFJ1_dot,field.FFJ2_dot,field.FFJ3_dot,field.FFJ4_dot,field.FFJ1_tao,field.FFJ2_tao,field.FFJ3_tao,field.FFJ4_tao,field.pac0,field.pac1,field.pdc0,field.tac0,field.tdc0,field.el0,field.el1,field.el2,field.el3,field.el4,field.el5,field.el6,field.el7,field.el8,field.el9,field.el10,field.el11,field.el12,field.el13,field.el14,field.el15,field.el16,field.el17,field.el18,field.dt,field.time,field.test_time2,field.FFJ0_set_point,field.FFJ0_position_gain,field.FFJ0_process_value,field.FFJ0_process_value_dot,field.FFJ0_error,field.FFJ0_command,field.FFJ3_set_point,field.FFJ3_position_gain,field.FFJ3_process_value,field.FFJ3_process_value_dot,field.FFJ3_error,field.FFJ3_command,field.MFJ1,field.MFJ2,field.MFJ3,field.MFJ4,field.MFJ1_dot,field.MFJ2_dot,field.MFJ3_dot,field.MFJ4_dot,field.MFJ1_tao,field.MFJ2_tao,field.MFJ3_tao,field.MFJ4_tao,field.Mpac0,field.Mpac1,field.Mpdc0,field.Mtac0,field.Mtdc0,field.Mel0,field.Mel1,field.Mel2,field.Mel3,field.Mel4,field.Mel5,field.Mel6,field.Mel7,field.Mel8,field.Mel9,field.Mel10,field.Mel11,field.Mel12,field.Mel13,field.Mel14,field.Mel15,field.Mel16,field.Mel17,field.Mel18
1508405995231085776,80,1508405995230904749,plot_matl,0.0,0.0,1.40129846432e-45,4.59163467805e-41,1.09158437171e-20,4.5760802651e-41,0.349065840244,0.30498278141,1.32993590832,-0.00348128261976,-0.000150438238052,-0.000150438238052,-0.0191972609609,0.00197586044669,-96.4211425781,-96.4211425781,-134.115615845,-0.411482900381,2269,2188,2219,2023,2023,2907,3369,3385,3227,3330,3066,2888,3019,2945,3115,2738,3321,3344,3175,3263,2907,3255,3315,3048,0.009948153,0.799964393,0.79585224,0.680678427219,4500.0,0.654048621655,-0.000300876476103,-0.0266297664493,119.833946228,1.34390354156,6000.0,1.32993590832,-0.0191972609609,-0.0139676239341,89.8914871216,0.349065840244,0.0216827709228,0.00841818097979,0.00100730126724,0.00199322658591,0.00199322658591,0.0141018722206,0.00419526686892,0.640404760838,0.640404760838,-1.56849861145,0.210636973381,1992,2021,2545,2032,2032,2922,3421,3424,3239,3363,3089,3050,3155,3145,3234,2851,3403,3412,3238,3363,3129,3349,3386,3195
1508405995241337652,81,1508405995240966647,plot_matl,0.0,0.0,1.40129846432e-45,4.59163467805e-41,1.09158437171e-20,4.5760802651e-41,0.349065840244,0.30498278141,1.33004283905,-0.00346379075199,-0.000114174166811,-0.000114174166811,0.0177131071687,0.0016195117496,-96.3451919556,-96.3451919556,-134.203536987,-0.482880502939,2258,2185,2224,2024,2024,2902,3368,3387,3228,3330,3069,2888,3019,2945,3115,2738,3321,3344,3175,3263,2907,3255,3315,3048,0.010063136,0.810027063,0.815114016,0.680678427219,4500.0,0.654048621655,-0.000228348333621,-0.0266297664493,119.833946228,1.34390354156,6000.0,1.33004283905,0.0177131071687,-0.0138606671244,77.842338562,0.349065840244,0.0216827709228,0.00842042453587,0.000980191398412,0.00204041134566,0.00204041134566,-0.0012875291286,-0.0197408366948,0.542852163315,0.542852163315,-1.10526692867,-0.048508848995,1989,2011,2545,2032,2032,2921,3422,3421,3239,3363,3090,3049,3155,3145,3234,2851,3403,3412,3238,3363,3129,3349,3386,3195
1508405995251416104,82,1508405995250916069,plot_matl,0.0,0.0,1.40129846432e-45,4.59163467805e-41,1.09158437171e-20,4.5760802651e-41,0.349065840244,0.30363330245,1.33016240597,-0.00347499502823,-0.0129954442382,-0.0129954442382,-0.0237924344838,0.00184441951569,-96.4227142334,-96.4227142334,-134.279632568,-0.59320384264,2282,2216,2224,2024,2024,2902,3368,3387,3228,3330,3069,2888,3023,2952,3116,2737,3321,3344,3175,3263,2907,3256,3315,3048,0.009948173,0.819976155,0.815750186,0.680678427219,4500.0,0.652699172497,-0.0259908884764,-0.027979247272,125.906616211,1.34390354156,6000.0,1.33016240597,-0.0237924344838,-0.0137411644682,89.8968276978,0.349065840244,0.0216827709228,0.00842301733792,0.000936877331696,0.00123824819457,0.00123824819457,-0.00134573772084,0.00560403428972,0.750587284565,0.750587284565,-0.596447527409,-0.0850144028664,1990,2018,2545,2032,2032,2921,3422,3421,3239,3363,3090,3049,3154,3145,3237,2850,3402,3410,3238,3363,3126,3351,3386,3195
1508405995261281899,83,1508405995260924004,plot_matl,0.0,0.0,1.40129846432e-45,4.59163467805e-41,1.09158437171e-20,4.5760802651e-41,0.349065840244,0.30498278141,1.33016109467,-0.00347654218785,0.000258113635937,0.000258113635937,0.0153821092099,0.00186898827087,-96.4190444946,-96.4190444946,-134.331970215,-0.59886354208,2289,2226,2217,2021,2021,2907,3368,3386,3231,3329,3069,2888,3023,2952,3116,2737,3321,3344,3175,3263,2907,3256,3315,3046,0.01000884,0.8299845,0.83073372,0.680678427219,4500.0,0.654048621655,0.000516227271874,-0.0266297664493,119.833946228,1.34390354156,6000.0,1.33016109467,0.0153821092099,-0.0137424152344,77.5842208862,0.349065840244,0.0216827709228,0.00844050850719,0.000964402221143,0.00105351733509,0.00105351733509,-0.00167692697141,0.00504489429295,0.829237699509,0.829237699509,-0.790939688683,-0.246992975473,2004,2027,2544,2030,2030,2921,3422,3423,3238,3364,3090,3049,3154,3145,3237,2850,3402,3410,3238,3363,3126,3351,3386,3195
1508405995271299119,84,1508405995270934435,plot_matl,0.0,0.0,1.40129846432e-45,4.59163467805e-41,1.09158437171e-20,4.5760802651e-41,0.349065840244,0.30498278141,1.33011889458,-0.00349555490538,0.000688660424203,0.000688660424203,0.016253836453,-0.00752314738929,-96.4937515259,-96.4937515259,-133.832427979,-0.568073809147,2266,2180,2217,2021,2021,2907,3368,3386,3231,3329,3068,2892,3022,2953,3115,2733,3321,3345,3177,3265,2907,3256,3315,3046,0.010009748,0.839994918,0.840818832,0.680678427219,4500.0,0.654048621655,0.00137732084841,-0.0266297664493,119.833946228,1.34390354156,6000.0,1.33011889458,0.016253836453,-0.0137846367434,77.5517120361,0.349065840244,0.0216827709228,0.00842500664294,0.00094188132789,0.00124141399283,0.00124141399283,-0.00137185258791,-0.0190079864115,0.860303580761,0.860303580761,-0.503983438015,-0.418609261513,1989,2009,2544,2030,2030,2921,3422,3423,3238,3364,3089,3050,3155,3144,3236,2849,3402,3412,3240,3363,3126,3351,3386,3195
1508405995281384949,85,1508405995280989574,plot_matl,0.0,0.0,1.40129846432e-45,4.59163467805e-41,1.09158437171e-20,4.5760802651e-41,0.349065840244,0.30498278141,1.3300549984,-0.00346671114676,0.000329387024976,0.000329387024976,-0.0215290877968,0.00165333948098,-96.4044418335,-96.4044418335,-133.932418823,-0.539014041424,2259,2178,2224,2023,2023,2907,3369,3386,3231,3329,3068,2892,3022,2953,3115,2733,3321,3345,3177,3265,2908,3256,3313,3046,0.010056206,0.850050232,0.85477751,0.680678427219,4500.0,0.654048621655,0.000658774049953,-0.0266297664493,119.833946228,1.34390354156,6000.0,1.3300549984,-0.0215290877968,-0.013848528266,89.2588806152,0.349065840244,0.0216827709228,0.00841239839792,0.000968199165072,9.78764801403e-05,9.78764801403e-05,-0.0011237191502,0.00494468258694,0.813170790672,0.813170790672,-0.194193512201,-0.625338673592,1980,2012,2545,2031,2031,2921,3421,3423,3238,3364,3089,3050,3155,3144,3236,2849,3402,3412,3240,3363,3126,3350,3386,3193
1508405995291334800,86,1508405995290938848,plot_matl,0.0,0.0,1.40129846432e-45,4.59163467805e-41,1.09158437171e-20,4.5760802651e-41,0.349065840244,0.30498278141,1.33000636101,-0.00345176737756,0.000778098357841,0.000778098357841,0.0185327064246,0.00135355617385,-96.3717727661,-96.3717727661,-133.710968018,-0.508615016937,2276,2179,2224,2023,2023,2907,3369,3386,3229,3331,3067,2893,3025,2947,3113,2731,3322,3344,3177,3265,2908,3256,3313,3046,0.009947805,0.859999331,0.85551123,0.680678427219,4500.0,0.654048621655,0.00155619671568,-0.0266297664493,119.833946228,1.34390354156,6000.0,1.33000636101,0.0185327064246,-0.0138971917331,77.6879272461,0.349065840244,0.0216827709228,0.00841676536947,0.00101241131779,0.000509523670189,0.000509523670189,-0.00122156646103,0.00404811324552,0.776108205318,0.776108205318,-0.0175564233214,-0.659141540527,2000,2029,2545,2031,2031,2921,3421,3423,3240,3363,3088,3050,3153,3146,3234,2848,3402,3410,3240,3363,3126,3350,3386,3193
1508405995301315235,87,1508405995300947286,plot_matl,0.0,0.0,1.40129846432e-45,4.59163467805e-41,1.09158437171e-20,4.5760802651e-41,0.349065840244,0.30498278141,1.3300293684,-0.00344765698537,0.000413747358834,0.000413747358834,0.0180124696344,0.00127890019212,-96.4456634521,-96.4456634521,-133.793457031,-0.379550158978,2290,2190,2220,2022,2022,2904,3369,3386,3229,3331,3067,2893,3025,2947,3113,2731,3322,3344,3178,3264,2905,3257,3315,3047,0.010007866,0.870007844,0.870684342,0.680678427219,4500.0,0.654048621655,0.000827494717669,-0.0266297664493,119.833946228,1.34390354156,6000.0,1.3300293684,0.0180124696344,-0.0138741545379,77.868850708,0.349065840244,0.0216827709228,0.00842054374516,0.00102820608299,0.000789665733464,0.000789665733464,-0.00129496084992,0.00374297471717,0.740997314453,0.740997314453,-0.98639190197,-0.548525035381,2001,2029,2546,2033,2033,2921,3421,3423,3240,3363,3088,3050,3153,3146,3234,2848,3402,3410,3239,3365,3126,3350,3386,3194
1508405995311353015,88,1508405995310978485,plot_matl,0.0,0.0,1.40129846432e-45,4.59163467805e-41,1.09158437171e-20,4.5760802651e-41,0.349065840244,0.30498278141,1.3300293684,-0.00344765698537,0.000413747358834,0.000413747358834,0.0180124696344,0.00127890019212,-96.4456634521,-96.4456634521,-133.793457031,-0.379550158978,2290,2190,2220,2022,2022,2904,3369,3386,3229,3331,3067,2893,3025,2947,3113,2731,3322,3344,3178,3264,2905,3257,3315,3047,0.010031901,0.880039254,0.882807288,0.680678427219,4500.0,0.654048621655,0.000827494717669,-0.0266297664493,119.833946228,1.34390354156,6000.0,1.3300293684,0.0180124696344,-0.0138741545379,77.868850708,0.349065840244,0.0216827709228,0.00842054374516,0.00102820608299,0.000789665733464,0.000789665733464,-0.00129496084992,0.00374297471717,0.740997314453,0.740997314453,-0.98639190197,-0.548525035381,2001,2029,2546,2033,2033,2921,3421,3423,3240,3363,3088,3050,3153,3146,3234,2848,3402,3410,3239,3365,3126,3350,3386,3194
1508405995321271873,89,1508405995320939962,plot_matl,0.0,0.0,1.40129846432e-45,4.59163467805e-41,1.09158437171e-20,4.5760802651e-41,0.349065840244,0.30363330245,1.33019208908,-0.0034452280961,-0.0128822205588,-0.0128822205588,0.0147216897458,0.00119585637003,-96.6752548218,-96.6752548218,-133.640045166,-0.4495023489,1737,1907,2222,2022,2022,2904,3367,3387,3230,3330,3065,2890,3022,2941,3112,2748,3331,3355,3187,3273,2913,3264,3320,3051,0.009959908,0.890000317,0.886431812,0.680678427219,4500.0,0.654048621655,0.00161505374126,-0.0266297664493,119.833946228,1.34390354156,6000.0,1.33011507988,-0.0227946061641,-0.0137884505093,89.7490921021,0.349065840244,0.0216827709228,0.00841403566301,0.00101755664218,0.0013565676054,0.0013565676054,0.0141728613526,0.00388689176179,0.784994065762,0.784994065762,-0.335707813501,-0.836355626583,2058,2043,2544,2030,2030,2921,3422,3420,3240,3365,3090,3049,3155,3146,3235,2861,3414,3420,3247,3372,3133,3356,3390,3198
1508405995331344633,90,1508405995330951773,plot_matl,0.0,0.0,1.40129846432e-45,4.59163467805e-41,1.09158437171e-20,4.5760802651e-41,0.349065840244,0.30498278141,1.33008277416,-0.00345095922239,0.000886363442987,0.000886363442987,0.0169209353626,0.00131591700483,-96.8464889526,-96.8464889526,-133.571243286,-0.364600419998,1738,1922,2222,2022,2022,2908,3373,3389,3233,3333,3069,2894,3025,2953,3112,2748,3331,3355,3187,3273,2913,3264,3320,3051,0.010011769,0.900012491,0.90105921,0.680678427219,4500.0,0.654048621655,0.00138539052568,-0.0266297664493,119.833946228,1.34390354156,6000.0,1.33011376858,-0.0227807518095,-0.0137897254899,89.5694503784,0.349065840244,0.0240919683129,0.00840336177498,0.00103369774297,0.0249580144882,0.0249580144882,-0.000954861345235,0.0280366130173,0.754551410675,0.754551410675,-0.803148806095,-0.755844950676,2053,2043,2544,2030,2030,2924,3425,3426,3243,3366,3091,3053,3157,3145,3235,2861,3414,3420,3247,3372,3133,3356,3390,3198
1508405995341307723,91,1508405995340938617,plot_matl,0.0,0.0,1.40129846432e-45,4.59163467805e-41,1.09158437171e-20,4.5760802651e-41,0.349065840244,0.30498278141,1.32995319366,-0.00345641025342,0.00072673894465,0.00072673894465,-0.0195513796061,0.00143588811625,-96.8417205811,-96.8417205811,-133.682281494,-0.414056509733,1715,1888,2222,2022,2022,2908,3373,3389,3233,3333,3069,2894,3025,2953,3115,2731,3321,3347,3178,3266,2910,3257,3317,3047,0.009985477,0.909998518,0.908678407,0.680678427219,4500.0,0.654048621655,0.00160627625883,-0.0266297664493,119.833946228,1.34390354156,6000.0,1.33001565933,-0.0208040736616,-0.0138878459111,89.4449386597,0.349065840244,0.0216827709228,0.00839470606297,0.0010206727311,0.000126740953419,0.000126740953419,-0.000782901130151,0.00383985950612,0.837870180607,0.837870180607,-1.6514993906,-0.730907380581,2052,2028,2544,2030,2030,2924,3425,3426,3243,3366,3091,3053,3157,3145,3239,2852,3404,3414,3241,3366,3129,3351,3388,3194
1508405995351135254,92,1508405995350916472,plot_matl,0.0,0.0,1.40129846432e-45,4.59163467805e-41,1.09158437171e-20,4.5760802651e-41,0.349065840244,0.30498278141,1.3297419548,-0.0034613374155,0.000607458932791,0.000607458932791,-0.0152411973104,-0.00821188744158,-96.7684173584,-96.7684173584,-133.799072266,-0.522912979126,1711,1876,2218,2020,2020,2907,3368,3384,3229,3330,3066,2892,3025,2953,3115,2731,3321,3347,3178,3266,2910,3257,3317,3047,0.009978235,0.91997635,0.91799762,0.680678427219,4500.0,0.654048621655,0.00130319246091,-0.0266297664493,119.833946228,1.34390354156,6000.0,1.32986140251,-0.0176936481148,-0.0140421343967,89.6513671875,0.349065840244,0.0216827709228,0.00838756468147,0.00100726971868,0.00051806459669,0.00051806459669,-0.000641025078949,0.00410500541329,0.901639640331,0.901639640331,-1.28448534012,-0.801881074905,2048,2032,2546,2031,2031,2923,3424,3424,3240,3365,3090,3052,3157,3145,3239,2852,3404,3414,3241,3366,3129,3351,3388,3194
1508405995361369416,93,1508405995360925249,plot_matl,0.0,0.0,1.40129846432e-45,4.59163467805e-41,1.09158437171e-20,4.5760802651e-41,0.349065840244,0.30498278141,1.32976984978,-0.00345640885644,0.000485091353767,0.000485091353767,-0.0157959498465,0.00146000680979,-96.7797241211,-96.7797241211,-133.860198975,-0.609269320965,1743,1893,2218,2020,2020,2907,3368,3384,3229,3330,3066,2892,3021,2944,3112,2732,3322,3345,3177,3264,2905,3256,3317,3047,0.01000935,0.929985903,0.93086955,0.680678427219,4500.0,0.654048621655,0.00109741510823,-0.0266297664493,119.833946228,1.34390354156,6000.0,1.32985603809,0.0215429551899,-0.0140474885702,77.4065475464,0.349065840244,0.0216827709228,0.00836695171893,0.000978824566118,0.000857290928252,0.000857290928252,-0.000226739590289,0.00470383651555,0.880917012691,0.880917012691,-0.984499931335,-0.630537986755,2073,2039,2546,2031,2031,2923,3424,3424,3240,3365,3090,3052,3155,3147,3237,2850,3402,3411,3239,3363,3128,3352,3388,3194
1508405995371330431,94,1508405995370931126,plot_matl,0.0,0.0,1.40129846432e-45,4.59163467805e-41,1.09158437171e-20,4.5760802651e-41,0.349065840244,0.30498278141,1.32977390289,-0.00344334146939,0.000901013729163,0.000901013729163,0.0232263673097,0.0011954496149,-96.7767105103,-96.7767105103,-133.809341431,-0.608955621719,1736,1884,2225,2022,2022,2905,3368,3385,3227,3329,3066,2892,3021,2944,3112,2732,3322,3345,3177,3264,2905,3256,3315,3047,0.01000479,0.93999164,0.94045026,0.680678427219,4500.0,0.654048621655,0.00140723539516,-0.0266297664493,119.833946228,1.34390354156,6000.0,1.32973265648,-0.0150472447276,-0.014170835726,89.4420852661,0.349065840244,0.0216827709228,0.00837743096054,0.000931699236389,-0.000148960694787,-0.000148960694787,-0.000446233752882,0.00566047010943,0.980681657791,0.980681657791,-0.736900150776,-0.74229413271,2062,2036,2546,2032,2032,2921,3421,3423,3239,3365,3090,3052,3155,3147,3237,2850,3402,3411,3239,3363,3128,3352,3386,3193
1508405995381319731,95,1508405995381004767,plot_matl,0.0,0.0,1.40129846432e-45,4.59163467805e-41,1.09158437171e-20,4.5760802651e-41,0.349065840244,0.30363330245,1.32977366447,-0.00346083985642,-0.0126322563738,-0.0126322563738,-0.0158304851502,0.00152028212324,-96.7810897827,-96.7810897827,-133.802597046,-0.604670286179,1721,1902,2225,2022,2022,2905,3368,3385,3227,3329,3067,2888,3021,2944,3115,2735,3318,3345,3173,3263,2905,3256,3315,3047,0.010074217,0.950065712,0.957050615,0.680678427219,4500.0,0.654048621655,0.00163482944481,-0.0266297664493,119.833946228,1.34390354156,6000.0,1.3298112154,0.0224365200847,-0.0140922581777,77.3860168457,0.349065840244,0.0216827709228,0.00837364327163,0.000938314478844,-0.000136487084092,-0.000136487084092,-0.01567924954,0.00551411323249,0.915589153767,0.915589153767,-0.671833217144,-0.571276545525,2053,2018,2546,2032,2032,2921,3421,3423,3239,3365,3089,3049,3155,3145,3236,2850,3402,3412,3241,3364,3128,3352,3386,3193
1508405995391162643,96,1508405995390915328,plot_matl,0.0,0.0,1.40129846432e-45,4.59163467805e-41,1.09158437171e-20,4.5760802651e-41,0.349065840244,0.30498278141,1.32976579666,-0.00346616539173,0.000583428423852,0.000583428423852,-0.0157223213464,-0.00814234372228,-96.8557128906,-96.8557128906,-133.846633911,-0.620148003101,1726,1882,2219,2022,2022,2903,3368,3387,3227,3329,3067,2888,3021,2944,3115,2735,3318,3345,3173,3263,2907,3257,3316,3049,0.009908953,0.959975355,0.951259488,0.680678427219,4500.0,0.654048621655,0.00129006500356,-0.0266297664493,119.833946228,1.34390354156,6000.0,1.32980918884,0.0225332994014,-0.0140943713486,77.8607788086,0.349065840244,0.0216827709228,0.00837030727416,0.000917923636734,0.00118256208953,0.00118256208953,-0.000273854384432,-0.0185650978237,1.00616359711,1.00616359711,-0.481825619936,-0.316698789597,2057,2025,2546,2030,2030,2921,3422,3421,3239,3365,3089,3049,3155,3145,3236,2850,3402,3412,3241,3364,3127,3350,3386,3193
1508405995401095239,97,1508405995400915244,plot_matl,0.0,0.0,1.40129846432e-45,4.59163467805e-41,1.09158437171e-20,4.5760802651e-41,0.349065840244,0.30363330245,1.32973301411,-0.00346043123864,-0.012646782212,-0.012646782212,0.0240329932421,0.00151215028018,-96.7009353638,-96.7009353638,-133.920776367,-0.689549386501,1743,1911,2219,2022,2022,2903,3368,3387,3230,3330,3065,2888,3023,2948,3113,2739,3322,3345,3173,3263,2907,3257,3316,3049,0.009999415,0.969975256,0.969943255,0.680678427219,4500.0,0.654048621655,0.00157815997954,-0.0266297664493,119.833946228,1.34390354156,6000.0,1.32972943783,-0.0149763589725,-0.0141740748659,89.3285827637,0.349065840244,0.0192735753953,0.00836759246886,0.00094837252982,-0.023803152144,-0.023803152144,-0.000224321047426,0.00530405156314,0.928711950779,0.928711950779,-0.394675552845,-0.358133584261,2066,2033,2546,2030,2030,2921,3422,3421,3239,3364,3090,3051,3154,3145,3236,2850,3403,3412,3241,3364,3127,3350,3386,3193
1508405995411390240,98,1508405995410967474,plot_matl,0.0,0.0,1.40129846432e-45,4.59163467805e-41,1.09158437171e-20,4.5760802651e-41,0.349065840244,0.30498278141,1.3297688961,-0.00346407294273,0.00128558883443,0.00128558883443,0.0233036018908,-0.00817589927465,-96.7286987305,-96.7286987305,-134.100570679,-0.59727203846,1729,1882,2223,2028,2028,2906,3368,3387,3230,3330,3065,2888,3023,2948,3113,2739,3322,3345,3176,3264,2906,3257,3314,3047,0.010051472,0.980027336,0.985044256,0.680678427219,4500.0,0.652699172497,-0.0244184136391,-0.027979247272,125.906616211,1.34390354156,6000.0,1.32981002331,0.022481335327,-0.0140934884548,77.8818817139,0.349065840244,0.0216827709228,0.0083788447082,0.000909921596758,-0.000456568202935,-0.000456568202935,-0.000457773654489,0.00605792878196,1.05689430237,1.05689430237,-0.964679598808,-0.279875963926,2058,2026,2545,2035,2035,2921,3422,3421,3239,3364,3090,3051,3154,3145,3236,2850,3403,3412,3240,3363,3127,3349,3386,3193
1508405995421104181,99,1508405995420916117,plot_matl,0.0,0.0,1.40129846432e-45,4.59163467805e-41,1.09158437171e-20,4.5760802651e-41,0.349065840244,0.30498278141,1.32986843586,-0.003475778969,0.00154079997446,0.00154079997446,0.0213089380413,0.00183308543637,-96.5964126587,-96.5964126587,-134.100997925,-0.60310447216,1715,1876,2223,2028,2028,2906,3371,3386,3229,3331,3068,2889,3023,2954,3116,2736,3322,3345,3176,3264,2906,3257,3314,3047,0.009949179,0.989976365,0.984968721,0.680678427219,4500.0,0.654048621655,0.00283697596751,-0.0266297664493,119.833946228,1.34390354156,6000.0,1.32987761497,0.0211033243686,-0.0140258828178,77.8202514648,0.349065840244,0.0216827709228,0.00837457086891,0.000898224068806,-0.00037368707126,-0.00037368707126,-0.000374673720216,0.00631552468985,1.07923531532,1.07923531532,-0.864815592766,-0.334428280592,2057,2028,2545,2035,2035,2921,3422,3422,3238,3363,3089,3050,3154,3145,3235,2850,3403,3412,3240,3363,3127,3349,3386,3193
1508405995431359967,100,1508405995430978432,plot_matl,0.0,0.0,1.40129846432e-45,4.59163467805e-41,1.09158437171e-20,4.5760802651e-41,0.349065840244,0.30498278141,1.32989227772,-0.0034870095551,0.00121814012527,0.00121814012527,0.0208190195262,-0.00770777883008,-96.5685424805,-96.5685424805,-134.104354858,-0.581186413765,1723,1892,2222,2025,2025,2906,3371,3386,3229,3331,3068,2889,3023,2954,3116,2736,3321,3344,3174,3264,2907,3257,3315,3044,0.010064195,1.000039461,1.0064195,0.680678427219,4500.0,0.654048621655,0.0032930097077,-0.0266297664493,119.833946228,1.34390354156,6000.0,1.32982361317,0.0222088135779,-0.0140798659995,77.8420028687,0.349065840244,0.0240919683129,0.0083710802719,0.000886934576556,0.0244166720659,0.0244166720659,-0.000306812522467,0.00656030513346,1.06488406658,1.06488406658,-0.708179593086,-0.259324669838,2069,2041,2545,2031,2031,2921,3422,3422,3238,3363,3089,3050,3154,3145,3235,2850,3403,3412,3240,3362,3126,3350,3389,3193
1508405995441250018,101,1508405995440926037,plot_matl,0.0,0.0,1.40129846432e-45,4.59163467805e-41,1.09158437171e-20,4.5760802651e-41,0.349065840244,0.30498278141,1.32990121841,-0.00347658642568,0.000721272139344,0.000721272139344,-0.0184384360909,0.00185186194722,-96.5009002686,-96.5009002686,-134.119155884,-0.569302499294,1730,1910,2222,2025,2025,2905,3367,3386,3229,3330,3067,2892,3023,2952,3116,2736,3321,3344,3174,3264,2907,3257,3315,3044,0.009944171,1.009985879,1.004361271,0.680678427219,4500.0,0.654048621655,0.00217166543007,-0.0266297664493,119.833946228,1.34390354156,6000.0,1.32991731167,0.020321842283,-0.0139862028882,77.8216247559,0.349065840244,0.0216827709228,0.00836823508143,0.000878750346601,-0.00123001611792,-0.00123001611792,-0.000251497724093,-0.0177466664463,1.01383006573,1.01383006573,-0.477788150311,-0.0664263963699,2064,2043,2545,2031,2031,2921,3421,3423,3239,3362,3090,3051,3154,3145,3235,2850,3403,3412,3240,3362,3126,3350,3389,3193
1508405995451517833,102,1508405995450998445,plot_matl,0.0,0.0,1.40129846432e-45,4.59163467805e-41,1.09158437171e-20,4.5760802651e-41,0.349065840244,0.30498278141,1.32994508743,-0.00346960499883,0.000868672505021,0.000868672505021,0.0197783336043,-0.00805576983839,-96.6999206543,-96.6999206543,-134.081787109,-0.561108708382,1713,1889,2222,2025,2025,2905,3367,3386,3229,3330,3067,2892,3023,2952,3113,2728,3321,3346,3177,3264,2908,3257,3316,3046,0.010074954,1.020059179,1.027645308,0.680678427219,4500.0,0.654048621655,0.000801810761914,-0.0266297664493,119.833946228,1.34390354156,6000.0,1.3299227953,-0.0188641101122,-0.0139807313681,89.6850967407,0.349065840244,0.0216827709228,0.00837981142104,0.00083054183051,-0.00143389008008,-0.00143389008008,-0.000486566976178,-0.0167777612805,0.978276669979,0.978276669979,-0.312576174736,0.0570989400148,2061,2030,2545,2031,2031,2921,3421,3423,3239,3362,3090,3051,3154,3145,3233,2849,3402,3411,3239,3363,3126,3352,3387,3193
1508405995461293828,103,1508405995460951643,plot_matl,0.0,0.0,1.40129846432e-45,4.59163467805e-41,1.09158437171e-20,4.5760802651e-41,0.349065840244,0.30363330245,1.32998561859,-0.00346407201141,-0.012669201009,-0.012669201009,0.0189539939165,-0.00816319510341,-96.5733108521,-96.5733108521,-133.890014648,-0.599914491177,1710,1881,2217,2026,2026,2907,3370,3385,3229,3330,3067,2892,3023,2952,3113,2728,3321,3346,3177,3264,2908,3257,3316,3046,0.009951689,1.030012282,1.025023967,0.680678427219,4500.0,0.655398130417,0.0287969131023,-0.025280283764,113.761283875,1.34390354156,6000.0,1.32992649078,-0.0189226344228,-0.0139770330861,89.5527267456,0.349065840244,0.0216827709228,0.00838981289417,0.000854750804137,-0.00117450766265,-0.00117450766265,-0.000693414534908,0.00721694994718,0.912716209888,0.912716209888,-0.856208741665,0.0998954698443,2058,2036,2546,2029,2029,2922,3421,3420,3238,3362,3090,3051,3154,3145,3233,2849,3402,3411,3239,3363,3126,3352,3387,3193
1508405995471407796,104,1508405995470940356,plot_matl,0.0,0.0,1.40129846432e-45,4.59163467805e-41,1.09158437171e-20,4.5760802651e-41,0.349065840244,0.30498278141,1.33001923561,-0.00344952498563,0.00177331164014,0.00177331164014,0.0182596351951,0.00131612119731,-96.6247406006,-96.6247406006,-133.864578247,-0.669807553291,1721,1898,2217,2026,2026,2907,3370,3385,3229,3330,3067,2892,3024,2944,3111,2731,3321,3344,3179,3263,2904,3255,3316,3046,0.009989019,1.04000123,1.038857976,0.680678427219,4500.0,0.652699172497,-0.0244699399918,-0.027979247272,125.906616211,1.34390354156,6000.0,1.32996618748,0.019327191636,-0.0139373214915,77.8781509399,0.349065840244,0.0216827709228,0.00839702785015,0.000856897619087,-0.000947258959059,-0.000947258959059,-0.000836086110212,0.0071631744504,0.822349667549,0.822349667549,-1.16187644005,0.133596405387,2054,2032,2546,2029,2029,2922,3421,3420,3238,3362,3090,3051,3153,3147,3237,2850,3402,3411,3240,3364,3127,3351,3387,3193
1508405995481390826,105,1508405995480968188,plot_matl,0.0,0.0,1.40129846432e-45,4.59163467805e-41,1.09158437171e-20,4.5760802651e-41,0.349065840244,0.30363330245,1.33001112938,-0.00345516391098,-0.0121549945325,-0.0121549945325,0.0184095930308,0.00144183752127,-96.6576004028,-96.6576004028,-133.964035034,-0.636819660664,1722,1907,2224,2025,2025,2903,3370,3387,3228,3332,3067,2892,3024,2944,3111,2731,3321,3344,3179,3263,2904,3255,3316,3046,0.010026569,1.050028596,1.052789745,0.680678427219,4500.0,0.655398130417,0.0299289934337,-0.025280283764,113.761283875,1.34390354156,6000.0,1.32995712757,-0.0195757318288,-0.0139464139938,89.591217041,0.349065840244,0.0216827709228,0.00838951673359,0.000898702768609,-0.000795978237875,-0.000795978237875,-0.000685581413563,0.00636123772711,0.78733164072,0.78733164072,-0.850950658321,0.58844178915,2051,2030,2546,2032,2032,2921,3422,3421,3238,3363,3090,3051,3153,3147,3237,2850,3402,3411,3240,3364,3127,3351,3388,3191
1508405995491139224,106,1508405995490948777,plot_matl,0.0,0.0,1.40129846432e-45,4.59163467805e-41,1.09158437171e-20,4.5760802651e-41,0.349065840244,0.30498278141,1.32996535301,-0.00346074299887,0.00147086998913,0.00147086998913,0.0192917995155,0.00155151844956,-96.5381851196,-96.5381851196,-133.93939209,-0.559927523136,1717,1901,2224,2025,2025,2903,3370,3387,3228,3332,3068,2890,3020,2944,3112,2734,3323,3345,3174,3263,2904,3255,3316,3046,0.00997821,1.060008159,1.05769026,0.680678427219,4500.0,0.654048621655,0.00267301988788,-0.0266297664493,119.833946228,1.34390354156,6000.0,1.32998681068,0.0188782811165,-0.0139167672023,77.8103408813,0.349065840244,0.0216827709228,0.00837258156389,0.000912214454729,-0.00073073792737,-0.00073073792737,-0.00033051634091,-0.0183850377798,0.862238705158,0.862238705158,-0.524392366409,0.600003182888,2047,2032,2546,2032,2032,2921,3422,3421,3238,3363,3090,3052,3154,3144,3235,2851,3402,3413,3239,3363,3127,3351,3388,3191
1508405995501246006,107,1508405995500944592,plot_matl,0.0,0.0,1.40129846432e-45,4.59163467805e-41,1.09158437171e-20,4.5760802651e-41,0.349065840244,0.30498278141,1.33002817631,-0.0034557711333,0.00142976047937,0.00142976047937,0.0180067531765,0.00144460366573,-96.5074386597,-96.5074386597,-134.078201294,-0.566614210606,1730,1901,2218,2020,2020,2903,3368,3387,3228,3332,3068,2890,3020,2944,3112,2734,3323,3345,3174,3263,2908,3256,3315,3047,0.009997265,1.070005005,1.069707355,0.680678427219,4500.0,0.654048621655,0.00315754045732,-0.0266297664493,119.833946228,1.34390354156,6000.0,1.33005702496,0.0174391791224,-0.0138464430347,77.7057189941,0.349065840244,0.0216827709228,0.008356096223,0.000922859355342,-0.000143864832353,-0.000143864832353,-1.6574484107e-05,0.00589256361127,0.848493516445,0.848493516445,-0.39586570859,0.545731425285,2055,2034,2547,2034,2034,2920,3423,3423,3238,3363,3090,3052,3154,3144,3235,2851,3402,3413,3239,3363,3128,3351,3387,3194
1508405995511306963,108,1508405995510919560,plot_matl,0.0,0.0,1.40129846432e-45,4.59163467805e-41,1.09158437171e-20,4.5760802651e-41,0.349065840244,0.30498278141,1.33011674881,-0.00345174618997,0.00114473467693,0.00114473467693,0.0162155553699,0.00135923770722,-96.5637359619,-96.5637359619,-134.175979614,-0.648431956768,1723,1891,2218,2020,2020,2903,3368,3387,3226,3330,3066,2887,3021,2950,3114,2738,3319,3347,3174,3263,2908,3256,3315,3047,0.009975513,1.079980328,1.077355404,0.680678427219,4500.0,0.652699172497,-0.0241325926036,-0.027979247272,125.906616211,1.34390354156,6000.0,1.33011293411,0.0162977315485,-0.01379064098,77.831199646,0.349065840244,0.0240919683129,0.00835595093668,0.000933454255573,0.0233171544969,0.0233171544969,-1.35553609653e-05,0.00568135641515,0.836319565773,0.836319565773,-0.290427088737,0.283599704504,2050,2033,2547,2034,2034,2920,3423,3423,3239,3362,3090,3049,3154,3145,3236,2851,3403,3411,3239,3363,3128,3351,3387,3194
1508405995521341334,109,1508405995520938431,plot_matl,0.0,0.0,1.40129846432e-45,4.59163467805e-41,1.09158437171e-20,4.5760802651e-41,0.349065840244,0.30498278141,1.33011817932,-0.0034487254452,0.00145929632708,0.00145929632708,-0.0229037161916,0.00129922060296,-96.6762390137,-96.6762390137,-134.034378052,-0.802373468876,1725,1871,2222,2021,2021,2907,3368,3387,3226,3330,3066,2887,3021,2950,3114,2738,3319,3347,3175,3261,2906,3254,3313,3046,0.010017892,1.089998918,1.091950228,0.680678427219,4500.0,0.654048621655,0.00207453873008,-0.0266297664493,119.833946228,1.34390354156,6000.0,1.33011651039,-0.0228651352227,-0.0137870181352,89.3701324463,0.349065840244,0.0216827709228,0.00835583359003,0.000915420358069,-0.000421388249379,-0.000421388249379,-1.11081999421e-05,0.00603015581146,0.762470245361,0.762470245361,-0.164604440331,0.31984347105,2060,2028,2546,2033,2033,2921,3423,3423,3239,3362,3090,3049,3154,3145,3236,2851,3403,3411,3240,3364,3128,3351,3386,3193
1508405995531413798,110,1508405995530924213,plot_matl,0.0,0.0,1.40129846432e-45,4.59163467805e-41,1.09158437171e-20,4.5760802651e-41,0.349065840244,0.30498278141,1.33015835285,-0.00344613008201,0.000935503165238,0.000935503165238,0.0153651777655,0.00124672218226,-96.6187438965,-96.6187438965,-134.090957642,-0.852540910244,1727,1883,2222,2021,2021,2907,3367,3387,3229,3330,3070,2889,3023,2953,3115,2737,3319,3347,3175,3261,2906,3254,3313,3046,0.009986282,1.099985037,1.09849102,0.680678427219,4500.0,0.654048621655,0.00264105992392,-0.0266297664493,119.833946228,1.34390354156,6000.0,1.3301564455,-0.0236788187176,-0.0137470830232,89.5293197632,0.349065840244,0.0216827709228,0.00839964393526,0.000902038067579,0.000566105009057,0.000566105009057,0.0144636062905,0.0063101942651,0.84622335434,0.84622335434,-0.0641967207193,0.0700896158814,2059,2029,2546,2033,2033,2921,3421,3424,3240,3362,3091,3049,3154,3145,3236,2849,3403,3411,3240,3364,3128,3351,3386,3193
1508405995541391277,111,1508405995540962108,plot_matl,0.0,0.0,1.40129846432e-45,4.59163467805e-41,1.09158437171e-20,4.5760802651e-41,0.349065840244,0.30498278141,1.33029544353,-0.00345275085419,0.00103537586983,0.00103537586983,0.0126021001488,0.00138273998164,-96.8671340942,-96.8671340942,-133.999710083,-0.827780127525,1730,1886,2221,2019,2019,2907,3367,3387,3229,3330,3070,2889,3023,2953,3115,2737,3321,3347,3177,3265,2908,3255,3313,3045,0.010036557,1.110022586,1.114057827,0.680678427219,4500.0,0.654048621655,0.00117697461974,-0.0266297664493,119.833946228,1.34390354156,6000.0,1.33022987843,0.0139229912311,-0.0136735979468,77.8868331909,0.349065840244,0.0216827709228,0.00840517599136,0.000914526404813,0.00135373778176,0.00135373778176,-0.000989845022559,0.0305281188339,0.726635754108,0.726635754108,-0.0148355895653,0.4647154212,2064,2031,2545,2033,2033,2921,3421,3424,3240,3362,3091,3049,3154,3145,3236,2849,3402,3413,3240,3363,3128,3349,3387,3194
1508405995551361943,112,1508405995550928530,plot_matl,0.0,0.0,1.40129846432e-45,4.59163467805e-41,1.09158437171e-20,4.5760802651e-41,0.349065840244,0.30498278141,1.330270648,-0.0034652473405,0.00187088467646,0.00187088467646,0.0130988555029,0.00163613457698,-96.7099304199,-96.7099304199,-134.01701355,-0.823488414288,1720,1889,2221,2019,2019,2903,3370,3386,3229,3332,3066,2892,3024,2949,3115,2737,3321,3347,3177,3265,2908,3255,3313,3045,0.009968558,1.119989605,1.116478496,0.680678427219,4500.0,0.654048621655,0.00241522002034,-0.0266297664493,119.833946228,1.34390354156,6000.0,1.33028113842,0.0128819588572,-0.0136223258451,77.8715667725,0.349065840244,0.0216827709228,0.00842414330691,0.00088271923596,0.00152350659482,0.00152350659482,-0.00137671176344,0.00667491881177,0.598876416683,0.598876416683,-0.0111761121079,0.331561803818,2054,2032,2545,2033,2033,2922,3421,3422,3240,3361,3088,3051,3154,3143,3236,2849,3402,3413,3240,3363,3128,3349,3387,3194
1508405995561245542,113,1508405995560925818,plot_matl,0.0,0.0,1.40129846432e-45,4.59163467805e-41,1.09158437171e-20,4.5760802651e-41,0.349065840244,0.30498278141,1.3302475214,-0.00346812885255,0.00229060277343,0.00229060277343,-0.0255152266473,0.00170223030727,-96.653427124,-96.653427124,-133.846755981,-0.714861929417,1727,1888,2221,2019,2019,2903,3370,3386,3229,3332,3066,2892,3024,2949,3114,2729,3318,3347,3178,3263,2907,3256,3314,3046,0.009994982,1.129986349,1.129432966,0.680678427219,4500.0,0.654048621655,0.00390008860268,-0.0266297664493,119.833946228,1.34390354156,6000.0,1.33021843433,-0.0249212644994,-0.0136850848794,90.0128479004,0.349065840244,0.0192735753953,0.00841164309531,0.000898919650353,-0.0230461359024,-0.0230461359024,-0.00112673197873,0.00634951796383,0.745104789734,0.745104789734,-0.00914678163826,0.062074560672,2071,2043,2545,2033,2033,2922,3421,3422,3240,3361,3088,3051,3154,3143,3236,2850,3403,3413,3239,3366,3128,3352,3386,3192
1508405995571371878,114,1508405995570951896,plot_matl,0.0,0.0,1.40129846432e-45,4.59163467805e-41,1.09158437171e-20,4.5760802651e-41,0.349065840244,0.30498278141,1.33036935329,-0.00346155744046,0.00333322980441,0.00333322980441,0.0111008044332,0.00157207029406,-96.5352020264,-96.5352020264,-133.738677979,-0.717995226383,1731,1893,2217,2019,2019,2905,3368,3386,3228,3330,3065,2890,3024,2949,3114,2729,3318,3347,3178,3263,2907,3256,3314,3046,0.010025415,1.140012384,1.14289731,0.680678427219,4500.0,0.652699172497,-0.0210288930684,-0.027979247272,125.906616211,1.34390354156,6000.0,1.33031141758,0.0122663257644,-0.0135920671746,77.9553833008,0.349065840244,0.0216827709228,0.00840144883841,0.000912597577553,0.000167965234141,0.000167965234141,-0.000922877457924,0.0060599418357,0.825918018818,0.825918018818,-0.00749189639464,-0.239200368524,2070,2040,2546,2033,2033,2921,3421,3422,3238,3363,3090,3050,3154,3143,3236,2850,3403,3413,3239,3366,3128,3352,3386,3192
1508405995581452004,115,1508405995581002485,plot_matl,0.0,0.0,1.40129846432e-45,4.59163467805e-41,1.09158437171e-20,4.5760802651e-41,0.349065840244,0.30498278141,1.33043479919,-0.0034472940024,0.00349421286955,0.00349421286955,0.00976079702377,0.00126288738102,-96.5825653076,-96.5825653076,-133.575469971,-0.797625541687,1723,1884,2217,2019,2019,2905,3368,3386,3228,3330,3065,2890,3022,2943,3112,2733,3322,3346,3176,3262,2906,3258,3314,3046,0.010051922,1.150063178,1.15597103,0.680678427219,4500.0,0.654048621655,0.00602819537744,-0.0266297664493,119.833946228,1.34390354156,6000.0,1.33038341999,0.0107925189659,-0.0135201187804,78.0431137085,0.349065840244,0.0216827709228,0.00840879324824,0.000904319924302,0.000137364317197,0.000137364317197,-0.00106007454451,0.0062275538221,0.637490332127,0.637490332127,0.0320299230516,-0.435538560152,2064,2032,2546,2033,2033,2921,3421,3422,3238,3363,3090,3050,3155,3144,3236,2851,3402,3411,3239,3366,3126,3350,3386,3192
1508405995591470462,116,1508405995590991895,plot_matl,0.0,0.0,1.40129846432e-45,4.59163467805e-41,1.09158437171e-20,4.5760802651e-41,0.349065840244,0.30363330245,1.33037662506,-0.00348055479117,-0.0100047243759,-0.0100047243759,-0.0281565524638,0.00192274234723,-96.5552902222,-96.5552902222,-133.618942261,-0.704986512661,1727,1901,2225,2018,2018,2905,3369,3385,3228,3331,3065,2890,3022,2943,3112,2733,3322,3346,3176,3262,2906,3258,3314,3048,0.009988628,1.160052659,1.158680848,0.680678427219,4500.0,0.652699172497,-0.0203915610909,-0.027979247272,125.906616211,1.34390354156,6000.0,1.33044195175,-0.0294639468193,-0.0134615665302,89.750579834,0.349065840244,0.0216827709228,0.00841258838773,0.000913681811653,-0.000341850885889,-0.000341850885889,-0.00115099118557,0.00598808005452,0.632611989975,0.632611989975,0.1342869699,-0.296571522951,2060,2030,2546,2033,2033,2920,3424,3421,3240,3362,3090,3050,3155,3144,3236,2851,3402,3411,3239,3366,3126,3350,3387,3195
1508405995601211707,117,1508405995600933857,plot_matl,0.0,0.0,1.40129846432e-45,4.59163467805e-41,1.09158437171e-20,4.5760802651e-41,0.349065840244,0.30363330245,1.33033227921,-0.00348013662733,-0.00916165020317,-0.00916165020317,-0.027223771438,-0.0078334743157,-96.6693267822,-96.6693267822,-133.525421143,-0.722483456135,1737,1903,2225,2018,2018,2905,3369,3385,3228,3331,3068,2890,3021,2943,3114,2735,3319,3345,3175,3262,2906,3258,3314,3048,0.009954345,1.170007981,1.164658365,0.680678427219,4500.0,0.654048621655,0.00757866585627,-0.0266297664493,119.833946228,1.34390354156,6000.0,1.33039104939,-0.0284389741719,-0.0135125340894,89.5184326172,0.349065840244,0.0216827709228,0.00841726455837,0.000905141758267,-0.000737282505725,-0.000737282505725,-0.00123080261983,-0.018262937665,0.807896733284,0.807896733284,0.0688408091664,-0.17891484499,2060,2038,2546,2033,2033,2920,3424,3421,3240,3362,3089,3049,3154,3146,3236,2849,3403,3410,3240,3363,3126,3350,3387,3195
1508405995611329735,118,1508405995610925667,plot_matl,0.0,0.0,1.40129846432e-45,4.59163467805e-41,1.09158437171e-20,4.5760802651e-41,0.349065840244,0.30363330245,1.33026242256,-0.00347944349051,-0.0091272611171,-0.0091272611171,-0.0258248653263,0.00192551524378,-96.6269073486,-96.6269073486,-133.506393433,-0.719432830811,1733,1891,2219,2018,2018,2904,3367,3386,3228,3331,3068,2890,3021,2943,3114,2735,3319,3345,3175,3262,2906,3255,3314,3048,0.00997826,1.179986441,1.17743468,0.680678427219,4500.0,0.652699172497,-0.0196471009403,-0.027979247272,125.906616211,1.34390354156,6000.0,1.33027780056,-0.0261292885989,-0.0136257624254,89.7376022339,0.349065840244,0.0216827709228,0.00840588100255,0.000873844721355,-0.00103503093123,-0.00103503093123,0.0143362712115,0.00686657940969,0.842929720879,0.842929720879,0.0562866292894,-0.275197386742,2051,2034,2545,2030,2030,2921,3422,3424,3240,3362,3089,3049,3154,3146,3236,2849,3403,3410,3240,3363,3127,3349,3385,3193
1508405995621428080,119,1508405995620975820,plot_matl,0.0,0.0,1.40129846432e-45,4.59163467805e-41,1.09158437171e-20,4.5760802651e-41,0.349065840244,0.30363330245,1.33027553558,-0.0034617674537,-0.00819014478475,-0.00819014478475,0.0130175407976,0.00156604172662,-96.5138015747,-96.5138015747,-133.575622559,-0.613629162312,1727,1889,2219,2018,2018,2904,3367,3386,3227,3330,3066,2889,3022,2949,3114,2737,3320,3346,3175,3262,2906,3255,3314,3048,0.010050643,1.190036689,1.196026517,0.680678427219,4500.0,0.652699172497,-0.0180841814727,-0.027979247272,125.906616211,1.34390354156,6000.0,1.3302885294,-0.0263252519071,-0.0136150233448,89.0786132812,0.349065840244,0.0216827709228,0.00842392258346,0.000893157499377,-0.000888512586243,-0.000888512586243,-0.00137890933547,0.00647852057591,0.906415462494,0.906415462494,0.00258859875612,-0.71509873867,2051,2039,2545,2030,2030,2921,3422,3424,3237,3364,3088,3051,3154,3144,3236,2852,3404,3411,3240,3363,3127,3349,3385,3193
1508405995631364655,120,1508405995630935202,plot_matl,0.0,0.0,1.40129846432e-45,4.59163467805e-41,1.09158437171e-20,4.5760802651e-41,0.349065840244,0.30363330245,1.33028924465,-0.00347392773256,-0.00818491447717,-0.00818491447717,0.0127505715936,0.00180914101657,-96.6472854614,-96.6472854614,-133.534011841,-0.572915494442,1736,1891,2222,2017,2017,2908,3367,3386,3227,3330,3066,2889,3022,2949,3114,2737,3320,3346,3173,3263,2906,3258,3316,3048,0.00995877,1.199995926,1.1950524,0.680678427219,4500.0,0.654048621655,0.0108450632542,-0.0266297664493,119.833946228,1.34390354156,6000.0,1.33026444912,0.0132449362427,-0.0136391269043,77.7540130615,0.349065840244,0.0216827709228,0.0084126368165,0.00088449876057,-0.000260682019871,-0.000260682019871,-0.00114564201795,0.00665075704455,0.923393309116,0.923393309116,0.0415970236063,-0.650008797646,2058,2035,2545,2032,2032,2921,3422,3424,3237,3364,3088,3051,3154,3144,3236,2852,3404,3411,3238,3365,3126,3351,3386,3194
1508405995641435259,121,1508405995640940307,plot_matl,0.0,0.0,1.40129846432e-45,4.59163467805e-41,1.09158437171e-20,4.5760802651e-41,0.349065840244,0.30498278141,1.33026325703,-0.00348347169347,0.00496433954686,0.00496433954686,-0.0258052367717,0.0019990906585,-96.5300674438,-96.5300674438,-133.401199341,-0.670037209988,1734,1887,2222,2017,2017,2908,3369,3386,3228,3332,3067,2887,3023,2952,3116,2736,3320,3346,3173,3263,2906,3258,3316,3048,0.010004194,1.210001322,1.210507474,0.680678427219,4500.0,0.655398130417,0.0371128804982,-0.025280283764,113.761283875,1.34390354156,6000.0,1.33027684689,0.0129959285259,-0.0136267263442,77.8911437988,0.349065840244,0.0216827709228,0.008414872922,0.000831146142446,-0.00106339470949,-0.00106339470949,-0.0011917570373,-0.0167738012969,0.937265992165,0.937265992165,0.140309467912,-0.612948477268,2060,2034,2545,2032,2032,2921,3421,3423,3240,3362,3089,3051,3154,3146,3236,2849,3404,3411,3238,3365,3126,3351,3386,3194
1508405995651284657,122,1508405995650984165,plot_matl,0.0,0.0,1.40129846432e-45,4.59163467805e-41,1.09158437171e-20,4.5760802651e-41,0.349065840244,0.30498278141,1.33024168015,-0.00347437174059,0.00332120410167,0.00332120410167,0.0137145733461,0.00181535293814,-96.5734481812,-96.5734481812,-133.256393433,-0.766158878803,1738,1908,2221,2020,2020,2908,3369,3386,3228,3332,3067,2887,3023,2952,3116,2736,3320,3345,3175,3265,2909,3256,3314,3046,0.010044169,1.220044979,1.225388618,0.680678427219,4500.0,0.652699172497,-0.0182351786643,-0.027979247272,125.906616211,1.34390354156,6000.0,1.33029043674,0.0127254938707,-0.0136130861938,77.8498153687,0.349065840244,0.0216827709228,0.00840407703072,0.000833082012832,-0.000425835023634,-0.000425835023634,-0.000975784147158,-0.0168182980269,0.982051312923,0.982051312923,0.114882275462,-0.496469289064,2062,2034,2545,2030,2030,2921,3421,3423,3240,3362,3089,3051,3154,3146,3236,2849,3403,3410,3238,3362,3127,3351,3385,3195
1508405995661334729,123,1508405995660936902,plot_matl,0.0,0.0,1.40129846432e-45,4.59163467805e-41,1.09158437171e-20,4.5760802651e-41,0.349065840244,0.30363330245,1.33022427559,-0.00347574520856,-0.0104171307757,-0.0104171307757,-0.0250209420919,-0.00791810359806,-96.4692001343,-96.4692001343,-133.246185303,-0.771863996983,1733,1892,2221,2020,2020,2904,3370,3387,3229,3328,3065,2893,3023,2951,3116,2736,3320,3345,3175,3265,2909,3256,3314,3046,0.009952085,1.229997646,1.224106455,0.680678427219,4500.0,0.654048621655,0.00651940237731,-0.0266297664493,119.833946228,1.34390354156,6000.0,1.33023333549,0.0139037640765,-0.0136701902375,78.0303192139,0.349065840244,0.0240919683129,0.00840876530856,0.000838622625452,0.0235113278031,0.0235113278031,-0.00109136966057,0.00753684248775,0.949410319328,0.949410319328,-0.442098140717,-0.443742096424,2055,2037,2545,2030,2030,2920,3423,3422,3240,3362,3089,3051,3154,3145,3236,2849,3403,3410,3238,3362,3127,3351,3385,3195
1508405995671361559,124,1508405995670948327,plot_matl,0.0,0.0,1.40129846432e-45,4.59163467805e-41,1.09158437171e-20,4.5760802651e-41,0.349065840244,0.30363330245,1.33020806313,-0.00348446099088,-0.0102079706267,-0.0102079706267,0.014366527088,0.00203001848422,-96.4591064453,-96.4591064453,-133.23274231,-0.667547702789,1733,1888,2221,2020,2020,2904,3370,3387,3229,3328,3065,2893,3023,2951,3115,2730,3319,3345,3177,3266,2909,3255,3315,3044,0.010010939,1.240009171,1.241356436,0.680678427219,4500.0,0.654048621655,0.00636430643499,-0.0266297664493,119.833946228,1.34390354156,6000.0,1.33025336266,0.0134424846619,-0.013650143519,77.9397125244,0.349065840244,0.0216827709228,0.00841573812068,0.00084019015776,-0.000683258927893,-0.000683258927893,-0.00120139424689,0.00750294746831,1.13528704643,1.13528704643,-0.290909081697,-0.500959217548,2052,2036,2545,2030,2030,2920,3423,3422,3240,3362,3089,3051,3154,3145,3236,2849,3403,3411,3238,3364,3127,3349,3388,3192
1508405995681373604,125,1508405995680960013,plot_matl,0.0,0.0,1.40129846432e-45,4.59163467805e-41,1.09158437171e-20,4.5760802651e-41,0.349065840244,0.30498278141,1.33023488522,-0.00347653101198,0.00308084976859,0.00308084976859,0.01386133302,0.00188081793021,-96.5308151245,-96.5308151245,-133.167541504,-0.622187435627,1726,1902,2217,2021,2021,2906,3367,3386,3228,3329,3065,2892,3023,2951,3115,2730,3319,3345,3177,3266,2909,3255,3315,3044,0.010010353,1.250020616,1.251294125,0.680678427219,4500.0,0.654048621655,0.00566282402724,-0.0266297664493,119.833946228,1.34390354156,6000.0,1.33024179935,0.013712996617,-0.0136617813259,77.9404907227,0.349065840244,0.0216827709228,0.00840481370687,0.000864227185957,-0.000988383661024,-0.000988383661024,-0.000984247308224,0.00704363593832,1.25930094719,1.25930094719,-0.0572577193379,-0.640138030052,2048,2031,2545,2034,2034,2921,3421,3424,3240,3361,3089,3051,3154,3145,3236,2849,3403,3411,3238,3364,3127,3349,3388,3192
1508405995691207231,126,1508405995690925555,plot_matl,0.0,0.0,1.40129846432e-45,4.59163467805e-41,1.09158437171e-20,4.5760802651e-41,0.349065840244,0.30633226037,1.33028554916,-0.00345973158255,0.0170625410974,0.0170625410974,0.0128068970516,0.00153825455345,-96.5004806519,-96.5004806519,-133.203796387,-0.673623502254,1739,1890,2217,2021,2021,2906,3367,3386,3228,3329,3065,2892,3024,2943,3113,2732,3321,3344,3177,3263,2906,3257,3315,3044,0.009963095,1.259984819,1.25534997,0.680678427219,4500.0,0.652699172497,-0.0195820257068,-0.027979247272,125.906616211,1.34390354156,6000.0,1.33026206493,-0.0257682483643,-0.0136414803565,89.6099853516,0.349065840244,0.0216827709228,0.00839579571038,0.000905204273295,0.000442702759756,0.000442702759756,-0.000804981100373,0.00620240811259,1.18641495705,1.18641495705,-0.0114748338237,-0.734872460365,2058,2037,2545,2034,2034,2921,3421,3424,3240,3361,3089,3051,3154,3145,3236,2848,3404,3413,3240,3364,3128,3349,3388,3192
1508405995701270536,127,1508405995700926489,plot_matl,0.0,0.0,1.40129846432e-45,4.59163467805e-41,1.09158437171e-20,4.5760802651e-41,0.349065840244,0.30498278141,1.33014917374,-0.00348124443553,0.00354720815085,0.00354720815085,-0.0235471297055,-0.00779332127422,-96.6922683716,-96.6922683716,-133.175201416,-0.655097424984,1738,1899,2224,2021,2021,2904,3370,3385,3228,3331,3065,2892,3024,2943,3113,2732,3321,3344,3177,3263,2906,3257,3315,3047,0.010002355,1.269987008,1.270299085,0.680678427219,4500.0,0.652699172497,-0.0194320250303,-0.027979247272,125.906616211,1.34390354156,6000.0,1.33023262024,-0.0252133831382,-0.0136708812788,89.4329376221,0.349065840244,0.0216827709228,0.00838850717992,0.000854490092024,0.000760165276006,0.000760165276006,-0.000660091347527,-0.0172263346612,1.0569627285,1.0569627285,-0.00164140143897,-0.60261040926,2054,2029,2545,2036,2036,2921,3421,3423,3240,3363,3089,3051,3154,3145,3236,2848,3404,3413,3240,3364,3128,3349,3388,3193
1508405995711041999,128,1508405995710903298,plot_matl,0.0,0.0,1.40129846432e-45,4.59163467805e-41,1.09158437171e-20,4.5760802651e-41,0.349065840244,0.30498278141,1.33014917374,-0.00348124443553,0.00354720815085,0.00354720815085,-0.0235471297055,-0.00779332127422,-96.6922683716,-96.6922683716,-133.175201416,-0.655097424984,1738,1899,2224,2021,2021,2904,3370,3385,3228,3331,3065,2892,3024,2943,3113,2732,3321,3344,3177,3263,2906,3257,3315,3047,0.009975026,1.279962813,1.276803328,0.680678427219,4500.0,0.652699172497,-0.0194320250303,-0.027979247272,125.906616211,1.34390354156,6000.0,1.33014667034,-0.0235194414854,-0.0137568823993,89.5714187622,0.349065840244,0.0216827709228,0.00838850717992,0.000854490092024,0.000760165276006,0.000760165276006,-0.000660091347527,-0.0172263346612,1.0569627285,1.0569627285,-0.00164140143897,-0.60261040926,2054,2029,2545,2036,2036,2921,3421,3423,3240,3363,3089,3051,3154,3145,3236,2848,3404,3413,3240,3364,3128,3349,3388,3193
1508405995721145674,129,1508405995720909471,plot_matl,0.0,0.0,1.40129846432e-45,4.59163467805e-41,1.09158437171e-20,4.5760802651e-41,0.349065840244,0.30363330245,1.330072999,-0.0034906717483,-0.00989110581577,-0.00989110581577,-0.0220478698611,0.00216134847142,-96.7213821411,-96.7213821411,-133.252807617,-0.652784466743,1727,1879,2218,2020,2020,2905,3369,3386,3228,3331,3067,2888,3019,2943,3112,2735,3319,3344,3176,3264,2905,3257,3316,3050,0.010006139,1.289969138,1.290791931,0.680678427219,4500.0,0.652699172497,-0.0195990409702,-0.027979247272,125.906616211,1.34390354156,6000.0,1.33010411263,-0.0226952377707,-0.013799409382,89.8364562988,0.349065840244,0.0216827709228,0.00840276386589,0.000894110358786,0.000509736477397,0.000509736477397,-0.000951502763201,0.00646624341607,1.0677614212,1.0677614212,-0.446452438831,-0.441848754883,2056,2027,2546,2036,2036,2921,3423,3421,3240,3363,3088,3049,3154,3147,3235,2849,3402,3410,3240,3365,3126,3350,3388,3194
1508405995731242031,130,1508405995730942287,plot_matl,0.0,0.0,1.40129846432e-45,4.59163467805e-41,1.09158437171e-20,4.5760802651e-41,0.349065840244,0.30363330245,1.33008468151,-0.00348920933902,-0.00933217350394,-0.00933217350394,0.0167672559619,0.0021253421437,-96.8052597046,-96.8052597046,-133.210754395,-0.624564349651,1737,1902,2218,2020,2020,2905,3369,3386,3228,3331,3065,2887,3022,2948,3115,2737,3321,3346,3176,3264,2905,3257,3316,3050,0.010034959,1.300003346,1.30454467,0.680678427219,4500.0,0.652699172497,-0.018372181803,-0.027979247272,125.906616211,1.34390354156,6000.0,1.33007705212,-0.0221615843475,-0.0138264223933,90.0880966187,0.349065840244,0.0216827709228,0.00839413981885,0.000904631218873,0.000417112198193,0.000417112198193,-0.000778605113737,-0.0182854309678,1.10021996498,1.10021996498,-0.933049976826,-0.506352305412,2057,2036,2546,2036,2036,2921,3423,3421,3238,3364,3091,3051,3153,3145,3236,2849,3405,3412,3240,3365,3126,3350,3388,3194
1508405995741178276,131,1508405995740927667,plot_matl,0.0,0.0,1.40129846432e-45,4.59163467805e-41,1.09158437171e-20,4.5760802651e-41,0.349065840244,0.30363330245,1.33002638817,-0.00347922556102,-0.00987553875893,-0.00987553875893,-0.0211133379489,0.00192284223158,-96.881652832,-96.881652832,-133.354858398,-0.517312407494,1733,1897,2222,2023,2023,2907,3369,3386,3228,3331,3065,2887,3022,2948,3115,2737,3321,3346,3178,3262,2904,3255,3316,3048,0.009984248,1.309988151,1.307936488,0.680678427219,4500.0,0.655398130417,0.0355388447642,-0.025280283764,113.761283875,1.34390354156,6000.0,1.33001613617,-0.0209183115512,-0.0138874165714,89.5951461792,0.349065840244,0.0192735753953,0.0084144724533,0.000889620860107,-0.0230636317283,-0.0230636317283,-0.00118473393377,-0.0179752595723,1.19224202633,1.19224202633,-1.23900508881,-0.497372955084,2054,2028,2545,2033,2033,2919,3423,3421,3238,3364,3091,3051,3153,3145,3236,2849,3405,3412,3240,3363,3127,3350,3386,3194
1508405995751153824,132,1508405995750935449,plot_matl,0.0,0.0,1.40129846432e-45,4.59163467805e-41,1.09158437171e-20,4.5760802651e-41,0.349065840244,0.30498278141,1.33008432388,-0.00347864534706,0.00308857345954,0.00308857345954,0.0168104823679,0.00191082817037,-96.7218093872,-96.7218093872,-133.435302734,-0.419024348259,1737,1888,2222,2023,2023,2907,3369,3386,3229,3330,3070,2891,3023,2955,3115,2736,3321,3346,3178,3262,2904,3255,3316,3048,0.010008052,1.319996173,1.321062864,0.680678427219,4500.0,0.654048621655,0.00627606036142,-0.0266297664493,119.833946228,1.34390354156,6000.0,1.33007621765,0.0169700812548,-0.0138273471966,77.855430603,0.349065840244,0.0216827709228,0.00841788109392,0.000860762491357,0.00233486876823,0.00233486876823,-0.00125582516193,0.00709351943806,1.19219946861,1.19219946861,-1.61659693718,-0.482701092958,2063,2035,2545,2033,2033,2919,3423,3421,3240,3362,3089,3050,3152,3143,3235,2850,3405,3412,3240,3363,3127,3350,3386,3194
1508405995761318727,133,1508405995760958295,plot_matl,0.0,0.0,1.40129846432e-45,4.59163467805e-41,1.09158437171e-20,4.5760802651e-41,0.349065840244,0.30498278141,1.33017075062,-0.00347870192491,0.00303180515766,0.00303180515766,0.0150827178732,0.0019111080328,-96.8113632202,-96.8113632202,-133.608154297,-0.327527105808,1729,1888,2222,2022,2022,2907,3369,3386,3229,3330,3070,2891,3023,2955,3115,2736,3321,3344,3176,3264,2910,3256,3315,3047,0.010022389,1.330018878,1.332977737,0.680678427219,4500.0,0.654048621655,0.00558930076659,-0.0266297664493,119.833946228,1.34390354156,6000.0,1.33009183407,0.016668939963,-0.0138117019087,77.850112915,0.349065840244,0.0216827709228,0.00840653665364,0.000901662453543,0.0019116292242,0.0019116292242,-0.00102818291634,-0.0182193610817,1.19213867188,1.19213867188,-1.29012703896,-0.340173959732,2061,2037,2545,2034,2034,2919,3423,3421,3240,3362,3089,3050,3152,3143,3235,2850,3403,3411,3240,3362,3126,3350,3387,3193
1508405995771502402,134,1508405995770999998,plot_matl,0.0,0.0,1.40129846432e-45,4.59163467805e-41,1.09158437171e-20,4.5760802651e-41,0.349065840244,0.30498278141,1.33012592793,-0.00346158700995,0.00372529611923,0.00372529611923,-0.0230592079461,0.00156464590691,-96.9600524902,-96.9600524902,-133.608551025,-0.305119991302,1725,1898,2222,2022,2022,2903,3371,3387,3228,3331,3067,2891,3023,2950,3115,2736,3321,3344,3176,3264,2910,3256,3315,3047,0.01004229,1.340060687,1.34566686,0.680678427219,4500.0,0.652699172497,-0.0207337643951,-0.027979247272,125.906616211,1.34390354156,6000.0,1.33020567894,-0.024677971378,-0.0136978067458,89.224609375,0.349065840244,0.0216827709228,0.0083972485736,0.000936348515097,0.00199592392892,0.00199592392892,-0.000841785047669,0.00556306028739,1.09051096439,1.09051096439,-1.68646156788,-0.391095876694,2054,2028,2545,2034,2034,2921,3423,3422,3239,3365,3088,3051,3154,3145,3235,2850,3403,3411,3240,3362,3126,3350,3387,3193
1508405995781173886,135,1508405995780951317,plot_matl,0.0,0.0,1.40129846432e-45,4.59163467805e-41,1.09158437171e-20,4.5760802651e-41,0.349065840244,0.30498278141,1.33016848564,-0.00346447248012,0.00379059137776,0.00379059137776,0.0151896411553,0.00163547857665,-96.7860488892,-96.7860488892,-133.503738403,-0.288626015186,1736,1906,2222,2022,2022,2903,3371,3387,3228,3331,3067,2891,3023,2950,3114,2730,3321,3345,3178,3263,2906,3254,3312,3045,0.00995005,1.35001197,1.34325675,0.680678427219,4500.0,0.654048621655,0.00724210217595,-0.0266297664493,119.833946228,1.34390354156,6000.0,1.33012759686,0.0159695539623,-0.0137759428471,77.8427810669,0.349065840244,0.0216827709228,0.0083896452561,0.000940204947256,0.00209375354461,0.00209375354461,-0.000689211883582,0.00544795487076,1.0741058588,1.0741058588,-2.56931209564,-0.624399662018,2064,2028,2545,2034,2034,2921,3423,3422,3239,3365,3088,3051,3154,3145,3236,2851,3402,3412,3239,3363,3127,3352,3387,3193
1508405995791180563,136,1508405995790925171,plot_matl,0.0,0.0,1.40129846432e-45,4.59163467805e-41,1.09158437171e-20,4.5760802651e-41,0.349065840244,0.307681769133,1.33030498028,-0.00345846754499,0.0305698364973,0.0305698364973,0.0124359326437,0.00151778594591,-96.7816619873,-96.7816619873,-133.556243896,-0.273294329643,1738,1927,2217,2022,2022,2907,3367,3386,3227,3329,3067,2892,3023,2950,3114,2730,3321,3345,3178,3263,2906,3254,3312,3045,0.009972998,1.359985481,1.356327728,0.680678427219,4500.0,0.655398130417,0.0345971621573,-0.025280283764,113.761283875,1.34390354156,6000.0,1.33024060726,0.0137333804742,-0.0136628681794,77.8949050903,0.349065840244,0.0240919683129,0.00839811563492,0.000947479100432,0.0250963866711,0.0250963866711,-0.000862240209244,0.0298007689416,1.02519774437,1.02519774437,-2.06812500954,-0.762045621872,2057,2036,2546,2030,2030,2921,3423,3423,3239,3362,3089,3052,3154,3145,3236,2851,3402,3412,3239,3363,3127,3352,3387,3193
1508405995801345039,137,1508405995800957679,plot_matl,0.0,0.0,1.40129846432e-45,4.59163467805e-41,1.09158437171e-20,4.5760802651e-41,0.349065840244,0.30363330245,1.33034694195,-0.00345395179465,-0.0104194534943,-0.0104194534943,0.0116129182279,0.00140404491685,-96.6399230957,-96.6399230957,-133.584854126,-0.274101704359,1723,1902,2217,2022,2022,2907,3367,3386,3227,3329,3067,2892,3022,2945,3111,2732,3320,3346,3177,3263,2903,3254,3312,3045,0.01003361,1.370018433,1.37460457,0.680678427219,4500.0,0.654048621655,0.00594757637009,-0.0266297664493,119.833946228,1.34390354156,6000.0,1.33032822609,-0.0270824208856,-0.013575239107,88.9112167358,0.349065840244,0.0216827709228,0.00837784912437,0.000931823218707,0.00150967109948,0.00150967109948,-0.00044101011008,0.00564607279375,1.05551218987,1.05551218987,-2.29386806488,-0.860536456108,2052,2026,2546,2030,2030,2921,3423,3423,3239,3362,3089,3052,3156,3145,3235,2850,3403,3411,3237,3362,3127,3349,3387,3193
1508405995811097716,138,1508405995810948562,plot_matl,0.0,0.0,1.40129846432e-45,4.59163467805e-41,1.09158437171e-20,4.5760802651e-41,0.349065840244,0.30363330245,1.33034694195,-0.00345395179465,-0.0104194534943,-0.0104194534943,0.0116129182279,0.00140404491685,-96.6399230957,-96.6399230957,-133.584854126,-0.274101704359,1723,1902,2217,2022,2022,2907,3367,3386,3227,3329,3067,2892,3022,2945,3111,2732,3320,3346,3177,3263,2903,3254,3312,3045,0.00998954,1.380009286,1.37855652,0.680678427219,4500.0,0.654048621655,0.0068489103578,-0.0266297664493,119.833946228,1.34390354156,6000.0,1.33032858372,0.0119765549898,-0.0135749587789,77.8447647095,0.349065840244,0.0216827709228,0.00837784912437,0.000931823218707,0.00150967109948,0.00150967109948,-0.00044101011008,0.00564607279375,1.05551218987,1.05551218987,-2.29386806488,-0.860536456108,2052,2026,2546,2030,2030,2921,3423,3423,3239,3362,3089,3052,3156,3145,3235,2850,3403,3411,3237,3362,3127,3349,3387,3193
1508405995821326240,139,1508405995820960673,plot_matl,0.0,0.0,1.40129846432e-45,4.59163467805e-41,1.09158437171e-20,4.5760802651e-41,0.349065840244,0.30498278141,1.33037137985,-0.00343962432817,0.00397568754852,0.00397568754852,0.0110975895077,0.00111808790825,-96.4946060181,-96.4946060181,-133.576217651,-0.23345130682,1741,1919,2225,2026,2026,2903,3369,3386,3226,3330,3068,2889,3020,2941,3111,2735,3322,3345,3173,3262,2903,3254,3314,3046,0.010012132,1.390021352,1.391686348,0.680678427219,4500.0,0.652699172497,-0.0201694481075,-0.027979247272,125.906616211,1.34390354156,6000.0,1.33043575287,0.00980927050114,-0.0134677467868,77.868019104,0.349065840244,0.0216827709228,0.00838159397244,0.000949577253778,0.00324062420987,0.00324062420987,-0.000521353154909,0.00530203152448,1.12341606617,1.12341606617,-1.91104567051,-0.766955018044,2055,2038,2547,2032,2032,2922,3422,3422,3240,3362,3091,3050,3154,3145,3235,2849,3402,3410,3239,3364,3127,3349,3385,3193
1508405995831150914,140,1508405995830944525,plot_matl,0.0,0.0,1.40129846432e-45,4.59163467805e-41,1.09158437171e-20,4.5760802651e-41,0.349065840244,0.30498278141,1.33037137985,-0.00343962432817,0.00397568754852,0.00397568754852,0.0110975895077,0.00111808790825,-96.4946060181,-96.4946060181,-133.576217651,-0.23345130682,1733,1900,2218,2024,2024,2904,3368,3387,3226,3330,3068,2889,3020,2941,3111,2735,3322,3345,3173,3262,2907,3257,3314,3046,0.009985893,1.400006571,1.39802502,0.680678427219,4500.0,0.654048621655,0.00770724285394,-0.0266297664493,119.833946228,1.34390354156,6000.0,1.33031082153,-0.0267681386322,-0.013592723757,89.7513656616,0.349065840244,0.0216827709228,0.00838159397244,0.000949577253778,0.00324062420987,0.00324062420987,-0.000521353154909,0.00530203152448,1.12341606617,1.12341606617,-1.91104567051,-0.766955018044,2053,2029,2545,2029,2029,2922,3421,3422,3240,3362,3091,3050,3154,3145,3235,2849,3402,3410,3239,3364,3128,3349,3388,3192
