%time,field.header.seq,field.header.stamp,field.header.frame_id,field.FFJ4_set_point,field.FFJ4_position_gain,field.FFJ4_process_value,field.FFJ4_process_value_dot,field.FFJ4_error,field.FFJ4_command,field.FFJ1,field.FFJ2,field.FFJ3,field.FFJ4,field.FFJ1_dot,field.FFJ2_dot,field.FFJ3_dot,field.FFJ4_dot,field.FFJ1_tao,field.FFJ2_tao,field.FFJ3_tao,field.FFJ4_tao,field.pac0,field.pac1,field.pdc0,field.tac0,field.tdc0,field.el0,field.el1,field.el2,field.el3,field.el4,field.el5,field.el6,field.el7,field.el8,field.el9,field.el10,field.el11,field.el12,field.el13,field.el14,field.el15,field.el16,field.el17,field.el18,field.dt,field.time,field.test_time2,field.FFJ0_set_point,field.FFJ0_position_gain,field.FFJ0_process_value,field.FFJ0_process_value_dot,field.FFJ0_error,field.FFJ0_command,field.FFJ3_set_point,field.FFJ3_position_gain,field.FFJ3_process_value,field.FFJ3_process_value_dot,field.FFJ3_error,field.FFJ3_command,field.MFJ1,field.MFJ2,field.MFJ3,field.MFJ4,field.MFJ1_dot,field.MFJ2_dot,field.MFJ3_dot,field.MFJ4_dot,field.MFJ1_tao,field.MFJ2_tao,field.MFJ3_tao,field.MFJ4_tao,field.Mpac0,field.Mpac1,field.Mpdc0,field.Mtac0,field.Mtdc0,field.Mel0,field.Mel1,field.Mel2,field.Mel3,field.Mel4,field.Mel5,field.Mel6,field.Mel7,field.Mel8,field.Mel9,field.Mel10,field.Mel11,field.Mel12,field.Mel13,field.Mel14,field.Mel15,field.Mel16,field.Mel17,field.Mel18
1508405958654622585,93,1508405958654415068,plot_matl,0.0,0.0,1.40129846432e-45,4.59163467805e-41,-0.00262461788952,4.59107415867e-41,0.349065840244,0.30498278141,1.32967567444,-0.00345487426966,0.00418244628236,0.00418244628236,-0.0134825054556,0.00140511232894,-97.0388336182,-97.0388336182,-133.098190308,0.342346280813,2196,2287,2218,2011,2011,2903,3366,3385,3227,3330,3067,2890,3022,2945,3113,2732,3319,3346,3177,3263,2906,3255,3312,3046,0.009997975,0.929972191,0.929811675,0.680678427219,4500.0,0.652699172497,-0.0185865499079,-0.027979247272,125.906616211,1.34390354156,6000.0,1.3297482729,0.0241658948362,-0.0141552975401,77.564414978,0.349065840244,0.0216827709228,0.00842530466616,0.000685699516907,-0.000412141758716,-0.000412141758716,-0.00141410878859,0.0102973515168,0.626402258873,0.626402258873,-3.02520513535,-0.588001787663,2038,2024,2545,2036,2036,2921,3421,3422,3236,3364,3088,3051,3154,3145,3235,2850,3403,3412,3240,3365,3130,3352,3385,3192
1508405958664580946,94,1508405958664416382,plot_matl,0.0,0.0,1.40129846432e-45,4.59163467805e-41,-0.00262461788952,4.59107415867e-41,0.349065840244,0.30363330245,1.32965815067,-0.00345113920048,-0.00943383201957,-0.00943383201957,-0.0131680043414,0.00133222655859,-97.2134170532,-97.2134170532,-133.093582153,0.280161201954,1798,1738,2218,2011,2011,2903,3366,3385,3227,3330,3067,2890,3023,2950,3113,2734,3320,3344,3178,3264,2908,3255,3312,3046,0.010000927,0.939973444,0.940087138,0.680678427219,4500.0,0.652699172497,-0.0191474147141,-0.027979247272,125.906616211,1.34390354156,6000.0,1.32964897156,-0.0129388812929,-0.014254595153,89.529006958,0.349065840244,0.0216827709228,0.00841258838773,0.000758528476581,-0.000739874260034,-0.000739874260034,-0.00115724466741,0.00888402853161,0.618833422661,0.618833422661,-2.57649707794,-0.57255333662,2072,2080,2545,2036,2036,2921,3421,3422,3236,3364,3088,3051,3154,3145,3236,2850,3403,3413,3239,3364,3129,3352,3385,3192
1508405958674589716,95,1508405958674418808,plot_matl,0.0,0.0,1.40129846432e-45,4.59163467805e-41,-0.00262461788952,4.59107415867e-41,0.349065840244,0.30363330245,1.32965815067,-0.00345113920048,-0.00943383201957,-0.00943383201957,-0.0131680043414,0.00133222655859,-97.2134170532,-97.2134170532,-133.093582153,0.280161201954,1915,1799,2220,2009,2009,2904,3366,3382,3226,3330,3067,2890,3023,2950,3113,2734,3320,3344,3178,3264,2908,3255,3315,3046,0.010002329,0.949975845,0.950221255,0.680678427219,4500.0,0.654048621655,0.00760210258886,-0.0266297664493,119.833946228,1.34390354156,6000.0,1.32966935635,0.0256297830492,-0.014234171249,77.6902236938,0.349065840244,0.0216827709228,0.00841258838773,0.000758528476581,-0.000739874260034,-0.000739874260034,-0.00115724466741,0.00888402853161,0.618833422661,0.618833422661,-2.57649707794,-0.57255333662,2020,2039,2545,2032,2032,2920,3422,3424,3238,3364,3088,3051,3154,3145,3236,2850,3403,3413,3239,3364,3129,3349,3386,3193
1508405958684678866,96,1508405958684442963,plot_matl,0.0,0.0,1.40129846432e-45,4.59163467805e-41,-0.00262461788952,4.59107415867e-41,0.349065840244,0.30363330245,1.32960438728,-0.00344822392799,-0.00965449027717,-0.00965449027717,-0.0121567696333,0.00127671984956,-97.1489944458,-97.1489944458,-133.065155029,0.288844108582,2260,2365,2220,2009,2009,2904,3366,3382,3226,3329,3066,2888,3020,2946,3111,2734,3320,3345,3175,3264,2908,3255,3315,3046,0.010025702,0.960000747,0.962467392,0.680678427219,4500.0,0.654048621655,0.00872441194952,-0.0266297664493,119.833946228,1.34390354156,6000.0,1.32954609394,-0.0110097927973,-0.0143574522808,89.498664856,0.349065840244,0.0216827709228,0.00841498281807,0.000773991283495,-0.00105363538023,-0.00105363538023,-0.00119808258023,0.00861144810915,0.759531795979,0.759531795979,-2.29129314423,-0.461476325989,1968,1965,2545,2032,2032,2920,3422,3424,3238,3363,3090,3049,3153,3145,3234,2851,3403,3412,3238,3364,3129,3349,3386,3193
1508405958694588430,97,1508405958694418108,plot_matl,0.0,0.0,1.40129846432e-45,4.59163467805e-41,-0.00262461788952,4.59107415867e-41,0.349065840244,0.30498278141,1.32953321934,-0.00345454155467,0.00419906480238,0.00419906480238,-0.0107078701258,0.00141516432632,-97.1590652466,-97.1590652466,-133.092697144,0.308097034693,2260,2365,2220,2009,2009,2904,3366,3382,3226,3329,3066,2888,3020,2946,3111,2734,3320,3345,3175,3264,2908,3255,3315,3046,0.009973297,0.969975235,0.967409809,0.680678427219,4500.0,0.654048621655,0.00758665101603,-0.0266297664493,119.833946228,1.34390354156,6000.0,1.32954609394,-0.0110097927973,-0.0143574522808,89.498664856,0.349065840244,0.0240919683129,0.00842007808387,0.000762448180467,0.0225896593183,0.0225896593183,-0.00127514998894,-0.0156363341957,0.661415219307,0.661415219307,-1.87242627144,-0.517709255219,1968,1965,2545,2032,2032,2920,3422,3424,3238,3363,3090,3049,3153,3145,3234,2851,3403,3412,3238,3364,3129,3349,3386,3193
1508405958704905549,98,1508405958704438315,plot_matl,0.0,0.0,1.40129846432e-45,4.59163467805e-41,-0.00262461788952,4.59107415867e-41,0.349065840244,0.30498278141,1.32957661152,-0.00349431158975,0.00280001270585,0.00280001270585,-0.01165365614,0.00221628090367,-97.1278076172,-97.1278076172,-133.279785156,0.260266810656,1802,1745,2223,2008,2008,2908,3369,3385,3227,3328,3065,2889,3022,2943,3110,2731,3319,3345,3175,3263,2903,3253,3314,3047,0.01002155,0.979996138,0.9821119,0.680678427219,4500.0,0.652699172497,-0.0205064676702,-0.027979247272,125.906616211,1.34390354156,6000.0,1.32955694199,0.0278057083488,-0.014346591197,77.8390808105,0.349065840244,0.0216827709228,0.00839871633798,0.000750398612581,-0.00114373245742,-0.00114373245742,-0.000854640733451,0.00914864055812,0.210507705808,0.210507705808,-1.51167237759,-0.672045350075,2067,2080,2545,2031,2031,2920,3422,3423,3238,3361,3091,3050,3153,3144,3235,2849,3403,3412,3238,3364,3129,3350,3388,3192
1508405958714791315,99,1508405958714502898,plot_matl,0.0,0.0,1.40129846432e-45,4.59163467805e-41,-0.00262461788952,4.59107415867e-41,0.349065840244,0.30498278141,1.32961595058,-0.0034909627866,0.00304182083346,0.00304182083346,0.0265836715698,0.00215040682815,-97.0733795166,-97.0733795166,-133.441238403,0.249586135149,1903,1807,2215,2011,2011,2908,3369,3385,3227,3328,3065,2889,3022,2943,3110,2731,3319,3344,3176,3263,2907,3256,3312,3044,0.010088795,0.990085049,0.998790705,0.680678427219,4500.0,0.654048621655,0.0055739316158,-0.0266297664493,119.833946228,1.34390354156,6000.0,1.32955801487,-0.011304016225,-0.0143455034122,89.5119400024,0.349065840244,0.0216827709228,0.00843223929405,0.000725397490896,0.000800199399237,0.000800199399237,-0.00153374602087,0.00970219261944,0.101078405976,0.101078405976,-1.34559643269,-0.823466300964,2016,2038,2546,2029,2029,2920,3422,3423,3238,3361,3091,3050,3153,3144,3235,2849,3403,3412,3240,3363,3128,3349,3385,3193
1508405958724577659,100,1508405958724417100,plot_matl,0.0,0.0,1.40129846432e-45,4.59163467805e-41,-0.00262461788952,4.59107415867e-41,0.349065840244,0.30498278141,1.32957565784,-0.00347167579457,0.00371192675084,0.00371192675084,0.0273267701268,0.00176158710383,-97.0247192383,-97.0247192383,-133.40335083,0.262193411589,2266,2373,2215,2011,2011,2906,3369,3387,3226,3329,3067,2888,3022,2949,3113,2731,3319,3344,3176,3263,2907,3256,3312,3044,0.009887978,0.999974144,0.9887978,0.680678427219,4500.0,0.654048621655,0.00650015706196,-0.0266297664493,119.833946228,1.34390354156,6000.0,1.32955574989,-0.0113015836105,-0.0143478075042,89.727973938,0.349065840244,0.0216827709228,0.00843112636358,0.000772825616878,0.00159806478769,0.00159806478769,-0.00151129043661,0.00876021105796,0.0142700411379,0.0142700411379,-1.28489518166,-0.883087813854,1970,1969,2546,2029,2029,2920,3422,3421,3239,3363,3089,3051,3154,3146,3235,2849,3403,3412,3240,3363,3128,3349,3385,3193
1508405958734604821,101,1508405958734420014,plot_matl,0.0,0.0,1.40129846432e-45,4.59163467805e-41,-0.00262461788952,4.59107415867e-41,0.349065840244,0.30363330245,1.32956767082,-0.00347434263676,-0.00934982299805,-0.00934982299805,-0.011656742543,0.00179514242336,-97.1320877075,-97.1320877075,-133.263961792,0.231136396527,2165,2284,2219,2011,2011,2906,3369,3387,3226,3329,3067,2888,3022,2949,3113,2735,3321,3345,3176,3264,2908,3255,3314,3045,0.010002539,1.009977207,1.010256439,0.680678427219,4500.0,0.652699172497,-0.0189730096608,-0.027979247272,125.906616211,1.34390354156,6000.0,1.32959163189,-0.0121124396101,-0.0143118342385,89.5054702759,0.349065840244,0.0216827709228,0.0084171090275,0.000809372751974,0.00127901381347,0.00127901381347,-0.00124501052778,0.00806174147874,-0.108294904232,-0.108294904232,-1.08450007439,-0.834873139858,2022,2012,2545,2029,2029,2920,3422,3421,3239,3363,3089,3051,3154,3146,3235,2849,3404,3410,3238,3364,3127,3350,3388,3193
1508405958744563439,102,1508405958744420042,plot_matl,0.0,0.0,1.40129846432e-45,4.59163467805e-41,-0.00262461788952,4.59107415867e-41,0.349065840244,0.30363330245,1.32963836193,-0.00348588498309,-0.00884843245149,-0.00884843245149,-0.013107216917,-0.00773186190054,-97.2138748169,-97.2138748169,-133.134353638,0.219674453139,1802,1741,2219,2012,2012,2906,3368,3385,3227,3329,3065,2888,3019,2949,3113,2735,3321,3345,3176,3264,2908,3255,3314,3045,0.009999888,1.019977055,1.019988576,0.680678427219,4500.0,0.654048621655,0.00826426409185,-0.0266297664493,119.833946228,1.34390354156,6000.0,1.32958555222,-0.0120404809713,-0.0143179418519,89.3656311035,0.349065840244,0.0216827709228,0.00839295424521,0.000837366504129,0.000188911930309,0.000188911930309,-0.000759888032917,-0.0169674195349,-0.0886238068342,-0.0886238068342,-1.03001666069,-0.686893880367,2069,2080,2545,2033,2033,2921,3421,3422,3239,3364,3091,3050,3154,3146,3235,2849,3404,3410,3238,3364,3127,3350,3388,3193
1508405958754586373,103,1508405958754421700,plot_matl,0.0,0.0,1.40129846432e-45,4.59163467805e-41,-0.00262461788952,4.59107415867e-41,0.349065840244,0.30363330245,1.32968723774,-0.00349655025639,-0.0082332175225,-0.0082332175225,-0.0142196509987,0.00222644512542,-97.1394424438,-97.1394424438,-133.146102905,0.217306122184,1888,1811,2219,2012,2012,2906,3368,3385,3227,3329,3065,2888,3019,2943,3112,2733,3319,3344,3175,3263,2906,3255,3313,3045,0.010001812,1.029978807,1.030186636,0.680678427219,4500.0,0.654048621655,0.00965909287333,-0.0266297664493,119.833946228,1.34390354156,6000.0,1.32968425751,-0.0140845496207,-0.0142192943022,90.0227813721,0.349065840244,0.0216827709228,0.00840010028332,0.000790328544099,-0.00028216582723,-0.00028216582723,0.0144291529432,-0.0160354468971,-0.138776093721,-0.138776093721,-1.89675545692,-0.652221918106,2025,2053,2545,2033,2033,2921,3421,3422,3239,3364,3091,3050,3154,3145,3236,2850,3403,3414,3240,3365,3128,3351,3387,3193
1508405958764590736,104,1508405958764418302,plot_matl,0.0,0.0,1.40129846432e-45,4.59163467805e-41,-0.00262461788952,4.59107415867e-41,0.349065840244,0.30498278141,1.32976937294,-0.00349356164224,0.00511732324958,0.00511732324958,0.0231835097075,0.00217372528277,-97.0715332031,-97.0715332031,-133.113052368,0.402447193861,2258,2368,2221,2011,2011,2906,3369,3384,3228,3327,3065,2888,3019,2943,3112,2733,3319,3344,3175,3263,2906,3255,3313,3044,0.009996521,1.039975467,1.039638184,0.680678427219,4500.0,0.652699172497,-0.0159474611282,-0.027979247272,125.906616211,1.34390354156,6000.0,1.32972931862,0.0239826627076,-0.0141741642728,78.2823791504,0.349065840244,0.0216827709228,0.00839197542518,0.000819301407319,-0.000230994744925,-0.000230994744925,-0.000751890125684,-0.0166165512055,-0.113608904183,-0.113608904183,-2.26202726364,-0.619913995266,1969,1972,2545,2031,2031,2919,3422,3420,3238,3363,3089,3050,3154,3145,3236,2850,3403,3414,3240,3365,3128,3351,3387,3193
1508405958774586185,105,1508405958774419548,plot_matl,0.0,0.0,1.40129846432e-45,4.59163467805e-41,-0.00262461788952,4.59107415867e-41,0.349065840244,0.30363330245,1.3298060894,-0.00348178297281,-0.00844512600452,-0.00844512600452,0.022448413074,0.00193749915343,-96.9522323608,-96.9522323608,-133.150695801,0.363971829414,2175,2279,2221,2011,2011,2906,3369,3384,3228,3327,3065,2890,3020,2946,3113,2731,3318,3345,3176,3264,2906,3255,3313,3044,0.010000773,1.049976638,1.050081165,0.680678427219,4500.0,0.654048621655,0.0102743888274,-0.0266297664493,119.833946228,1.34390354156,6000.0,1.3297713995,0.0231590066105,-0.0141321280971,77.7337722778,0.349065840244,0.0216827709228,0.00838529970497,0.000778340501711,0.000244210124947,0.000244210124947,-0.000615029421169,0.00869428087026,-0.0550572611392,-0.0550572611392,-1.92540705204,-0.383479893208,2025,2018,2545,2031,2031,2919,3422,3420,3238,3363,3089,3050,3154,3143,3236,2849,3404,3412,3240,3363,3128,3351,3387,3193
1508405958784623099,106,1508405958784427387,plot_matl,0.0,0.0,1.40129846432e-45,4.59163467805e-41,-0.00262461788952,4.59107415867e-41,0.349065840244,0.30363330245,1.3298060894,-0.00348178297281,-0.00844512600452,-0.00844512600452,0.022448413074,0.00193749915343,-96.9522323608,-96.9522323608,-133.150695801,0.363971829414,1791,1743,2217,2014,2014,2905,3368,3386,3228,3327,3065,2890,3020,2946,3113,2731,3318,3345,3176,3264,2906,3257,3315,3044,0.010008264,1.059984859,1.060875984,0.680678427219,4500.0,0.654048621655,0.0102743888274,-0.0266297664493,119.833946228,1.34390354156,6000.0,1.3297713995,0.0231590066105,-0.0141321280971,77.7337722778,0.349065840244,0.0216827709228,0.00838529970497,0.000778340501711,0.000244210124947,0.000244210124947,-0.000615029421169,0.00869428087026,-0.0550572611392,-0.0550572611392,-1.92540705204,-0.383479893208,2080,2095,2545,2032,2032,2920,3422,3423,3237,3363,3089,3050,3154,3143,3236,2849,3404,3412,3240,3363,3128,3350,3385,3192
1508405958794808731,107,1508405958794469299,plot_matl,0.0,0.0,1.40129846432e-45,4.59163467805e-41,-0.00262461788952,4.59107415867e-41,0.349065840244,0.30363330245,1.32972812653,-0.00349853001535,-0.0102479783818,-0.0102479783818,-0.0150012942031,0.00229130242951,-96.9521331787,-96.9521331787,-133.089187622,0.339373737574,1906,1815,2217,2014,2014,2905,3368,3386,3228,3330,3066,2887,3021,2949,3112,2736,3319,3345,3175,3264,2906,3257,3315,3044,0.010043931,1.070028236,1.074700617,0.680678427219,4500.0,0.654048621655,0.00631362991408,-0.0266297664493,119.833946228,1.34390354156,6000.0,1.3297637701,-0.01574180834,-0.0141397286206,89.4486618042,0.349065840244,0.0216827709228,0.00837543979287,0.000781366426963,0.000163340533618,0.000163340533618,-0.000412894267356,0.00866810511798,0.0272870548069,0.0272870548069,-1.53082275391,-0.209697291255,2035,2045,2545,2032,2032,2920,3422,3423,3237,3363,3090,3050,3155,3146,3236,2850,3402,3411,3238,3363,3128,3350,3385,3192
1508405958804644800,108,1508405958804450424,plot_matl,0.0,0.0,1.40129846432e-45,4.59163467805e-41,-0.00262461788952,4.59107415867e-41,0.349065840244,0.30363330245,1.32966065407,-0.00349554652348,-0.0106252767146,-0.0106252767146,-0.0136264413595,0.00223608571105,-96.8486328125,-96.8486328125,-133.073043823,0.26085716486,2243,2349,2221,2010,2010,2904,3366,3386,3228,3330,3066,2887,3021,2949,3112,2736,3319,3345,3175,3263,2907,3255,3314,3046,0.009978054,1.080007481,1.077629832,0.680678427219,4500.0,0.654048621655,0.00717072747648,-0.0266297664493,119.833946228,1.34390354156,6000.0,1.32973122597,-0.0150538375601,-0.0141722653061,89.5508575439,0.349065840244,0.0216827709228,0.00837178714573,0.000794428691734,0.00147165998351,0.00147165998351,-0.000338015437592,0.00841859728098,-0.00860944762826,-0.00860944762826,-2.31597328186,-0.131685763597,1964,1951,2545,2033,2033,2919,3423,3423,3237,3363,3090,3050,3155,3146,3236,2850,3402,3411,3238,3363,3128,3349,3386,3194
1508405958814592802,109,1508405958814423103,plot_matl,0.0,0.0,1.40129846432e-45,4.59163467805e-41,-0.00262461788952,4.59107415867e-41,0.349065840244,0.30498278141,1.32967567444,-0.0035115967039,0.00193301402032,0.00193301402032,0.0251552183181,-0.00720893917605,-96.8433761597,-96.8433761597,-133.010375977,0.213451683521,2172,2289,2221,2010,2010,2904,3366,3383,3226,3328,3063,2887,3020,2944,3112,2735,3319,3345,3175,3263,2907,3255,3314,3046,0.009972382,1.089980181,1.086989638,0.680678427219,4500.0,0.654048621655,0.00541344145313,-0.0266297664493,119.833946228,1.34390354156,6000.0,1.32970559597,-0.0145275117829,-0.0141978720203,89.5365829468,0.349065840244,0.0216827709228,0.00838323868811,0.000781320908573,0.0016899103066,0.0016899103066,-0.000566575268749,-0.0157948695123,-0.0732033327222,-0.0732033327222,-1.85691487789,0.0111195873469,2032,2019,2545,2033,2033,2919,3423,3420,3239,3365,3091,3050,3156,3146,3234,2851,3403,3411,3238,3363,3128,3349,3386,3194
1508405958824537564,110,1508405958824420886,plot_matl,0.0,0.0,1.40129846432e-45,4.59163467805e-41,-0.00262461788952,4.59107415867e-41,0.349065840244,0.30498278141,1.32972657681,-0.00349702709354,0.00110514147673,0.00110514147673,0.0241553522646,0.00226855534129,-96.9147567749,-96.9147567749,-133.241760254,0.179825380445,1813,1757,2221,2012,2012,2904,3366,3383,3226,3328,3063,2887,3020,2944,3112,2735,3319,3342,3176,3263,2905,3258,3313,3046,0.009997249,1.099977747,1.09969739,0.680678427219,4500.0,0.655398130417,0.0296991057694,-0.025280283764,113.761283875,1.34390354156,6000.0,1.32972157001,0.0242460891604,-0.0141819212586,78.0068283081,0.349065840244,0.0216827709228,0.00839214492589,0.000861013890244,0.000550944474526,0.000550944474526,-0.000747911457438,0.00709724705666,-0.206872835755,-0.206872835755,-2.0947496891,-0.102984249592,2078,2083,2545,2032,2032,2919,3423,3420,3239,3365,3091,3050,3156,3146,3234,2851,3403,3411,3239,3365,3127,3348,3385,3194
1508405958834586537,111,1508405958834425148,plot_matl,0.0,0.0,1.40129846432e-45,4.59163467805e-41,-0.00262461788952,4.59107415867e-41,0.349065840244,0.30498278141,1.32970190048,-0.00348530127667,0.00090342090698,0.00090342090698,-0.0144412647933,0.00203871633857,-96.7885360718,-96.7885360718,-133.250091553,0.18332618475,1904,1808,2221,2012,2012,2905,3368,3387,3228,3325,3064,2890,3021,2946,3113,2735,3319,3342,3176,3263,2905,3258,3313,3046,0.010004837,1.109982277,1.110536907,0.680678427219,4500.0,0.654048621655,0.00199986575171,-0.0266297664493,119.833946228,1.34390354156,6000.0,1.32965612411,-0.0135114956647,-0.0142474230379,89.3212890625,0.349065840244,0.0216827709228,0.00839947909117,0.000885028450284,0.000887818343472,0.000887818343472,-0.000880709092598,0.0066483290866,-0.24623054266,-0.24623054266,-2.08152866364,0.193658784032,2025,2044,2545,2032,2032,2920,3422,3421,3238,3363,3089,3049,3154,3145,3235,2851,3403,3411,3239,3365,3127,3348,3385,3194
1508405958844552340,112,1508405958844421847,plot_matl,0.0,0.0,1.40129846432e-45,4.59163467805e-41,-0.00262461788952,4.59107415867e-41,0.349065840244,0.30498278141,1.32960808277,-0.00348341069184,0.000747859361582,0.000747859361582,-0.0125647401437,0.0020064713899,-96.6464309692,-96.6464309692,-133.133407593,0.170033439994,2259,2362,2218,2012,2012,2905,3368,3387,3228,3325,3064,2890,3021,2946,3113,2734,3319,3342,3175,3263,2908,3252,3315,3045,0.009996379,1.119978913,1.119594448,0.680678427219,4500.0,0.655398130417,0.0283483397216,-0.025280283764,113.761283875,1.34390354156,6000.0,1.32963418961,-0.0130748199299,-0.0142693147063,89.6759033203,0.349065840244,0.0192735753953,0.00840559508651,0.000837765692268,-0.0226808581501,-0.0226808581501,-0.000997702707537,0.00759924435988,-0.346937358379,-0.346937358379,-1.62965095043,0.205211222172,1966,1959,2546,2032,2032,2920,3422,3421,3238,3363,3089,3049,3154,3145,3235,2849,3404,3411,3239,3362,3127,3352,3387,3194
1508405958854592025,113,1508405958854432376,plot_matl,0.0,0.0,1.40129846432e-45,4.59163467805e-41,-0.00262461788952,4.59107415867e-41,0.349065840244,0.30498278141,1.32956337929,-0.00349095533602,0.000874648452736,0.000874648452736,-0.011683601886,-0.00760766724125,-96.6736755371,-96.6736755371,-133.032150269,0.189415708184,2180,2296,2218,2011,2011,2904,3368,3385,3225,3329,3067,2888,3020,2946,3113,2734,3319,3342,3175,3263,2908,3252,3315,3045,0.010010399,1.129989325,1.131175087,0.680678427219,4500.0,0.654048621655,0.0013517603511,-0.0266297664493,119.833946228,1.34390354156,6000.0,1.3295841217,-0.0120753236115,-0.0143194068223,89.4975738525,0.349065840244,0.0192735753953,0.00839644297957,0.000835435057525,-0.0229098256677,-0.0229098256677,-0.000816149287857,-0.0168977044523,-0.24783270061,-0.24783270061,-2.46358036995,0.169814452529,2027,2018,2546,2038,2038,2921,3421,3423,3239,3363,3090,3049,3155,3145,3235,2849,3404,3411,3239,3362,3127,3352,3387,3194
1508405958864530881,114,1508405958864415844,plot_matl,0.0,0.0,1.40129846432e-45,4.59163467805e-41,-0.00262461788952,4.59107415867e-41,0.349065840244,0.30498278141,1.329631567,-0.00348057667725,0.00121951149777,0.00121951149777,-0.0130609320477,0.00194499653298,-96.6988830566,-96.6988830566,-132.920227051,0.133127242327,1804,1750,2218,2011,2011,2904,3368,3385,3225,3329,3067,2888,3020,2950,3112,2735,3322,3345,3176,3264,2907,3255,3313,3045,0.009983262,1.139972967,1.138091868,0.680678427219,4500.0,0.652699172497,-0.0251483730972,-0.027979247272,125.906616211,1.34390354156,6000.0,1.32961928844,0.0262726973742,-0.014284257777,78.1587524414,0.349065840244,0.0216827709228,0.00840310938656,0.000838661915623,0.00200798455626,0.00200798455626,-0.000940419908147,0.00753766391426,-0.203070908785,-0.203070908785,-2.01862573624,0.362811714411,2083,2083,2546,2038,2038,2921,3421,3423,3239,3363,3090,3049,3155,3146,3234,2851,3405,3409,3238,3363,3127,3350,3389,3194
1508405958874566704,115,1508405958874415549,plot_matl,0.0,0.0,1.40129846432e-45,4.59163467805e-41,-0.00262461788952,4.59107415867e-41,0.349065840244,0.30498278141,1.32965600491,-0.00347069557756,0.00200461572967,0.00200461572967,-0.0135090406984,0.00175165059045,-96.7668533325,-96.7668533325,-133.013671875,-0.00684151053429,1891,1806,2225,2011,2011,2905,3368,3385,3225,3329,3063,2888,3020,2950,3112,2735,3322,3345,3176,3264,2907,3255,3313,3046,0.009999519,1.149972506,1.149944685,0.680678427219,4500.0,0.652699172497,-0.0244987104088,-0.027979247272,125.906616211,1.34390354156,6000.0,1.32964408398,0.0257664006203,-0.0142594110221,77.2627029419,0.349065840244,0.0216827709228,0.00841963663697,0.000909351510927,0.00118043285329,0.00118043285329,-0.00131300813518,0.0061189988628,-0.0940170437098,-0.0940170437098,-2.22709584236,0.611690998077,2018,2035,2544,2031,2031,2920,3422,3421,3239,3364,3090,3049,3155,3146,3234,2851,3405,3409,3238,3363,3127,3350,3389,3193
1508405958884599693,116,1508405958884436965,plot_matl,0.0,0.0,1.40129846432e-45,4.59163467805e-41,-0.00262461788952,4.59107415867e-41,0.349065840244,0.30498278141,1.32965600491,-0.00347069557756,0.00200461572967,0.00200461572967,-0.0135090406984,0.00175165059045,-96.7668533325,-96.7668533325,-133.013671875,-0.00684151053429,2257,2369,2225,2011,2011,2905,3368,3385,3225,3329,3063,2886,3020,2944,3111,2732,3320,3345,3174,3263,2904,3255,3313,3046,0.010021637,1.159994072,1.162509892,0.680678427219,4500.0,0.654048621655,0.00466428790241,-0.0266297664493,119.833946228,1.34390354156,6000.0,1.32966291904,-0.0136513570324,-0.0142405629158,89.6085662842,0.349065840244,0.0216827709228,0.00841963663697,0.000909351510927,0.00118043285329,0.00118043285329,-0.00131300813518,0.0061189988628,-0.0940170437098,-0.0940170437098,-2.22709584236,0.611690998077,1967,1960,2544,2031,2031,2920,3422,3421,3239,3364,3090,3049,3153,3145,3235,2850,3402,3410,3242,3365,3128,3350,3389,3193
1508405958894539867,117,1508405958894422326,plot_matl,0.0,0.0,1.40129846432e-45,4.59163467805e-41,-0.00262461788952,4.59107415867e-41,0.349065840244,0.30498278141,1.32965600491,-0.00347069557756,0.00200461572967,0.00200461572967,-0.0135090406984,0.00175165059045,-96.7668533325,-96.7668533325,-133.013671875,-0.00684151053429,2175,2295,2223,2012,2012,2905,3367,3388,3228,3329,3063,2886,3020,2944,3111,2732,3320,3345,3174,3263,2904,3254,3313,3046,0.009984975,1.169979363,1.168242075,0.680678427219,4500.0,0.652699172497,-0.0213922969997,-0.027979247272,125.906616211,1.34390354156,6000.0,1.32971036434,-0.0146394344047,-0.0141931064427,89.5494842529,0.349065840244,0.0216827709228,0.00841963663697,0.000909351510927,0.00118043285329,0.00118043285329,-0.00131300813518,0.0061189988628,-0.0940170437098,-0.0940170437098,-2.22709584236,0.611690998077,2025,2019,2545,2035,2035,2921,3420,3421,3238,3364,3090,3049,3153,3145,3235,2850,3402,3410,3242,3365,3128,3350,3386,3194
1508405958904529221,118,1508405958904418392,plot_matl,0.0,0.0,1.40129846432e-45,4.59163467805e-41,-0.00262461788952,4.59107415867e-41,0.349065840244,0.30498278141,1.3295892477,-0.00344801298343,0.00235412688926,0.00235412688926,-0.0122080883011,0.00129508192185,-96.8330230713,-96.8330230713,-132.905975342,0.11339918524,1796,1745,2223,2012,2012,2905,3367,3388,3228,3330,3063,2890,3022,2948,3114,2732,3318,3345,3176,3263,2904,3254,3313,3046,0.009996366,1.179975598,1.179571188,0.680678427219,4500.0,0.654048621655,0.0057468903251,-0.0266297664493,119.833946228,1.34390354156,6000.0,1.32961308956,-0.0126809822395,-0.0142904073,89.5476608276,0.349065840244,0.0240919683129,0.00840328168124,0.000954993010964,0.0235096029937,0.0235096029937,-0.000968387932517,0.00520086288452,-0.350469231606,-0.350469231606,-1.94832599163,0.413124591112,2072,2081,2545,2035,2035,2921,3420,3421,3238,3361,3091,3049,3154,3143,3236,2848,3404,3413,3240,3365,3128,3350,3386,3194
1508405958914638202,119,1508405958914422565,plot_matl,0.0,0.0,1.40129846432e-45,4.59163467805e-41,-0.00262461788952,4.59107415867e-41,0.349065840244,0.30498278141,1.3295892477,-0.00344801298343,0.00235412688926,0.00235412688926,-0.0122080883011,0.00129508192185,-96.8330230713,-96.8330230713,-132.905975342,0.11339918524,1796,1745,2223,2012,2012,2905,3367,3388,3228,3330,3063,2890,3022,2948,3114,2732,3318,3345,3176,3263,2904,3254,3313,3046,0.010003996,1.18998001,1.190475524,0.680678427219,4500.0,0.652699172497,-0.0208935718983,-0.027979247272,125.906616211,1.34390354156,6000.0,1.32960486412,-0.012537186034,-0.014298629947,89.5317153931,0.349065840244,0.0240919683129,0.00840328168124,0.000954993010964,0.0235096029937,0.0235096029937,-0.000968387932517,0.00520086288452,-0.350469231606,-0.350469231606,-1.94832599163,0.413124591112,2072,2081,2545,2035,2035,2921,3420,3421,3238,3361,3091,3049,3154,3143,3236,2848,3404,3413,3240,3365,3128,3350,3386,3194
1508405958924577572,120,1508405958924421756,plot_matl,0.0,0.0,1.40129846432e-45,4.59163467805e-41,-0.00262461788952,4.59107415867e-41,0.349065840244,0.30363330245,1.32964372635,-0.00342396879569,-0.0100339297205,-0.0100339297205,-0.0133228665218,0.000811380916275,-97.0175704956,-97.0175704956,-132.629074097,0.162319540977,2248,2364,2219,2008,2008,2903,3368,3387,3229,3330,3066,2886,3020,2949,3114,2736,3319,3345,3176,3264,2907,3254,3315,3046,0.009998773,1.199978904,1.19985276,0.680678427219,4500.0,0.654048621655,0.00622429372743,-0.0266297664493,119.833946228,1.34390354156,6000.0,1.32963228226,-0.0130978170782,-0.0142711969092,89.6159896851,0.349065840244,0.0192735753953,0.00839864648879,0.000996738788672,-0.0249452125281,-0.0249452125281,-0.000876206206158,-0.0201271213591,-0.342674106359,-0.342674106359,-0.874774992466,0.592408657074,1968,1960,2545,2031,2031,2920,3423,3422,3239,3363,3090,3050,3152,3145,3236,2850,3402,3413,3240,3366,3126,3351,3387,3194
1508405958934549875,121,1508405958934421610,plot_matl,0.0,0.0,1.40129846432e-45,4.59163467805e-41,-0.00262461788952,4.59107415867e-41,0.349065840244,0.30498278141,1.32952344418,-0.00342748989351,0.00370013527572,0.00370013527572,-0.0108847729862,-0.00888823531568,-97.0550765991,-97.0550765991,-132.840896606,0.153531312943,2167,2294,2226,2008,2008,2903,3368,3387,3229,3330,3066,2886,3020,2949,3114,2736,3319,3344,3178,3264,2905,3254,3314,3046,0.009999511,1.209978638,1.209940831,0.680678427219,4500.0,0.652699172497,-0.0196887906641,-0.027979247272,125.906616211,1.34390354156,6000.0,1.32958114147,-0.0120543111116,-0.0143223684281,89.541847229,0.349065840244,0.0216827709228,0.0084032593295,0.00099266518373,-0.0013532647863,-0.0013532647863,-0.000967148458585,0.00445075472817,-0.470720052719,-0.470720052719,-0.606990218163,0.584586799145,2036,2017,2544,2032,2032,2920,3423,3422,3239,3363,3090,3050,3152,3145,3236,2850,3402,3411,3238,3364,3127,3351,3387,3195
1508405958944546590,122,1508405958944421541,plot_matl,0.0,0.0,1.40129846432e-45,4.59163467805e-41,-0.00262461788952,4.59107415867e-41,0.349065840244,0.30498278141,1.32946586609,-0.00342820421793,0.00400079414248,0.00400079414248,0.0293720122427,0.000886656634975,-97.0848846436,-97.0848846436,-132.806045532,0.175056561828,1791,1733,2226,2008,2008,2906,3367,3386,3227,3327,3063,2888,3022,2944,3112,2736,3319,3344,3178,3264,2905,3254,3314,3046,0.009999841,1.219978573,1.219980602,0.680678427219,4500.0,0.654048621655,0.00771466596052,-0.0266297664493,119.833946228,1.34390354156,6000.0,1.32947266102,-0.0098558338359,-0.0144308134913,89.4685821533,0.349065840244,0.0216827709228,0.00840676669031,0.00097732746508,-0.00112216721755,-0.00112216721755,-0.00103343231604,-0.0197410527617,-0.462952554226,-0.462952554226,-0.531262636185,0.439685642719,2073,2080,2544,2032,2032,2920,3421,3421,3237,3363,3088,3049,3155,3145,3236,2850,3402,3411,3238,3364,3127,3351,3387,3195
1508405958954573622,123,1508405958954421644,plot_matl,0.0,0.0,1.40129846432e-45,4.59163467805e-41,-0.00262461788952,4.59107415867e-41,0.349065840244,0.30363330245,1.32941782475,-0.00344699178822,-0.00912443269044,-0.00912443269044,0.0303507223725,-0.00849909055978,-96.9579544067,-96.9579544067,-132.933700562,0.197154521942,1908,1806,2223,2008,2008,2906,3367,3386,3227,3327,3063,2888,3022,2944,3112,2733,3316,3344,3175,3264,2906,3254,3313,3043,0.010000075,1.229978739,1.230009225,0.680678427219,4500.0,0.654048621655,0.00877394806594,-0.0266297664493,119.833946228,1.34390354156,6000.0,1.32941997051,-0.00877734925598,-0.0144835654646,89.4620819092,0.349065840244,0.0216827709228,0.00838433671743,0.000931654998567,-0.00132578762714,-0.00132578762714,-0.000571285898332,-0.0188126545399,-0.448595672846,-0.448595672846,-1.62871587276,0.560011982918,2024,2037,2545,2032,2032,2920,3421,3421,3237,3363,3088,3049,3155,3145,3236,2849,3402,3411,3239,3365,3129,3349,3385,3193
1508405958964581094,124,1508405958964431952,plot_matl,0.0,0.0,1.40129846432e-45,4.59163467805e-41,-0.00262461788952,4.59107415867e-41,0.349065840244,0.30498278141,1.32941877842,-0.00344415428117,0.00366770359688,0.00366770359688,0.0303069520742,0.00121767842211,-96.9376831055,-96.9376831055,-132.859069824,0.20311704278,2261,2369,2223,2005,2005,2903,3367,3387,3228,3329,3066,2890,3021,2944,3112,2733,3316,3344,3175,3264,2906,3254,3313,3043,0.010010077,1.239988952,1.241249548,0.680678427219,4500.0,0.654048621655,0.00814420636743,-0.0266297664493,119.833946228,1.34390354156,6000.0,1.32937681675,-0.00792853441089,-0.0145266782492,89.5252609253,0.349065840244,0.0216827709228,0.00837901979685,0.000982644269243,-0.00145556603093,-0.00145556603093,-0.000466691242764,0.00466893427074,-0.59677273035,-0.59677273035,-1.4093991518,0.917178332806,1972,1962,2545,2034,2034,2920,3422,3420,3238,3362,3089,3050,3154,3145,3236,2849,3402,3411,3239,3365,3129,3349,3385,3193
1508405958974598070,125,1508405958974421404,plot_matl,0.0,0.0,1.40129846432e-45,4.59163467805e-41,-0.00262461788952,4.59107415867e-41,0.349065840244,0.30498278141,1.32941877842,-0.00344415428117,0.00366770359688,0.00366770359688,0.0303069520742,0.00121767842211,-96.9376831055,-96.9376831055,-132.859069824,0.20311704278,2176,2289,2223,2005,2005,2903,3367,3387,3228,3329,3066,2890,3021,2950,3111,2732,3319,3344,3177,3263,2908,3253,3313,3043,0.009989827,1.249978604,1.248728375,0.680678427219,4500.0,0.652699172497,-0.0185688436031,-0.027979247272,125.906616211,1.34390354156,6000.0,1.32952177525,-0.0108378222212,-0.0143817067146,89.4261856079,0.349065840244,0.0216827709228,0.00837901979685,0.000982644269243,-0.00145556603093,-0.00145556603093,-0.000466691242764,0.00466893427074,-0.59677273035,-0.59677273035,-1.4093991518,0.917178332806,2032,2015,2545,2034,2034,2920,3422,3420,3238,3362,3089,3050,3154,3144,3236,2849,3403,3411,3239,3366,3129,3349,3388,3193
1508405958984590829,126,1508405958984422607,plot_matl,0.0,0.0,1.40129846432e-45,4.59163467805e-41,-0.00262461788952,4.59107415867e-41,0.349065840244,0.30363330245,1.32950842381,-0.00344150210731,-0.00917795300484,-0.00917795300484,-0.0105762239546,0.001161997905,-97.0486984253,-97.0486984253,-132.883224487,0.163290351629,2176,2289,2223,2005,2005,2903,3367,3387,3228,3329,3066,2890,3021,2950,3111,2732,3319,3344,3177,3263,2908,3253,3313,3043,0.010000735,1.259979862,1.26009261,0.680678427219,4500.0,0.652699172497,-0.0185688436031,-0.027979247272,125.906616211,1.34390354156,6000.0,1.32952177525,-0.0108378222212,-0.0143817067146,89.4261856079,0.349065840244,0.0216827709228,0.00837474036962,0.000960199162364,-0.00158453767654,-0.00158453767654,-0.0003824919404,-0.019350701943,-0.564331531525,-0.564331531525,-1.26853680611,1.10308480263,2032,2015,2545,2034,2034,2920,3422,3420,3238,3362,3089,3050,3154,3144,3236,2849,3403,3411,3239,3366,3129,3349,3388,3193
1508405958994758177,127,1508405958994438678,plot_matl,0.0,0.0,1.40129846432e-45,4.59163467805e-41,-0.00262461788952,4.59107415867e-41,0.349065840244,0.30498278141,1.32956302166,-0.0034396040719,0.00379798258655,0.00379798258655,0.0275868084282,0.00112312834244,-97.0288619995,-97.0288619995,-132.649276733,0.19671946764,2403,2488,2222,2009,2009,2924,3384,3398,3240,3340,3073,2890,3021,2950,3111,2732,3319,3344,3177,3263,2908,3253,3313,3046,0.010020285,1.269997104,1.272576195,0.680678427219,4500.0,0.654048621655,0.00867487024516,-0.0266297664493,119.833946228,1.34390354156,6000.0,1.32948410511,-0.00984496250749,-0.0144194466993,89.5897903442,0.349065840244,0.0216827709228,0.00838261004537,0.000966875872109,-0.00107247906271,-0.00107247906271,-0.000541246437933,0.00624166522175,-0.359632402658,-0.359632402658,-1.58817446232,0.540281355381,1973,1978,2545,2033,2033,2933,3439,3436,3250,3374,3098,3050,3154,3144,3236,2849,3403,3411,3239,3366,3129,3349,3388,3195
1508405959004601637,128,1508405959004418098,plot_matl,0.0,0.0,1.40129846432e-45,4.59163467805e-41,-0.00262461788952,4.59107415867e-41,0.349065840244,0.30363330245,1.32956516743,-0.00345497718081,-0.00978196598589,-0.00978196598589,0.0274674538523,0.00144254532643,-96.9879608154,-96.9879608154,-132.707504272,0.158304661512,2209,2080,2222,2009,2009,2924,3384,3398,3240,3340,3073,2898,3028,2950,3117,2736,3325,3350,3183,3266,2907,3253,3313,3046,0.009974944,1.279975372,1.276792832,0.680678427219,4500.0,0.654048621655,0.0076761697419,-0.0266297664493,119.833946228,1.34390354156,6000.0,1.32952940464,-0.0108320806175,-0.0143741052598,89.5344085693,0.349065840244,0.0216827709228,0.00840511452407,0.000947643304244,-0.00135166244581,-0.00135166244581,-0.00100313976873,0.00642133643851,-0.48157119751,-0.48157119751,-1.26678371429,0.409485965967,2013,1996,2545,2033,2033,2933,3439,3436,3250,3374,3098,3057,3161,3152,3242,2853,3407,3415,3244,3368,3133,3349,3388,3195
1508405959014590349,129,1508405959014421734,plot_matl,0.0,0.0,1.40129846432e-45,4.59163467805e-41,-0.00262461788952,4.59107415867e-41,0.349065840244,0.30363330245,1.32956516743,-0.00345497718081,-0.00978196598589,-0.00978196598589,0.0274674538523,0.00144254532643,-96.9879608154,-96.9879608154,-132.707504272,0.158304661512,1606,1573,2216,2011,2011,2907,3369,3387,3231,3340,3073,2898,3028,2950,3117,2736,3325,3350,3183,3266,2907,3257,3316,3049,0.010002888,1.289978592,1.290372552,0.680678427219,4500.0,0.652699172497,-0.0194719992578,-0.027979247272,125.906616211,1.34390354156,6000.0,1.32960581779,-0.0124374395236,-0.0142977647483,89.5435028076,0.349065840244,0.0216827709228,0.00840511452407,0.000947643304244,-0.00135166244581,-0.00135166244581,-0.00100313976873,0.00642133643851,-0.48157119751,-0.48157119751,-1.26678371429,0.409485965967,2079,2069,2547,2033,2033,2922,3424,3422,3241,3374,3098,3057,3161,3152,3242,2853,3407,3415,3244,3368,3133,3354,3390,3197
1508405959024558150,130,1508405959024422808,plot_matl,0.0,0.0,1.40129846432e-45,4.59163467805e-41,-0.00262461788952,4.59107415867e-41,0.349065840244,0.30363330245,1.32956516743,-0.00345497718081,-0.00978196598589,-0.00978196598589,0.0274674538523,0.00144254532643,-96.9879608154,-96.9879608154,-132.707504272,0.158304661512,1798,1969,2216,2011,2011,2907,3369,3387,3231,3333,3069,2889,3025,2950,3115,2736,3323,3347,3178,3266,2907,3257,3316,3049,0.010001354,1.299979828,1.30017602,0.680678427219,4500.0,0.654048621655,0.00836037378758,-0.0266297664493,119.833946228,1.34390354156,6000.0,1.32959640026,-0.0122684286907,-0.0143071813509,89.5161743164,0.349065840244,0.0216827709228,0.00840511452407,0.000947643304244,-0.00135166244581,-0.00135166244581,-0.00100313976873,0.00642133643851,-0.48157119751,-0.48157119751,-1.26678371429,0.409485965967,2052,2060,2547,2033,2033,2922,3424,3422,3241,3363,3091,3052,3156,3146,3238,2852,3404,3412,3242,3368,3133,3354,3390,3197
1508405959034572732,131,1508405959034420114,plot_matl,0.0,0.0,1.40129846432e-45,4.59163467805e-41,-0.00262461788952,4.59107415867e-41,0.349065840244,0.30363330245,1.32956516743,-0.00345497718081,-0.00978196598589,-0.00978196598589,0.0274674538523,0.00144254532643,-96.9879608154,-96.9879608154,-132.707504272,0.158304661512,2391,2477,2219,2010,2010,2904,3368,3387,3231,3333,3069,2889,3025,2950,3115,2736,3323,3347,3178,3266,2909,3255,3316,3046,0.009997242,1.309977266,1.309638702,0.680678427219,4500.0,0.652699172497,-0.0184728670865,-0.027979247272,125.906616211,1.34390354156,6000.0,1.32965886593,-0.0134774688631,-0.014244614169,89.3283691406,0.349065840244,0.0216827709228,0.00840511452407,0.000947643304244,-0.00135166244581,-0.00135166244581,-0.00100313976873,0.00642133643851,-0.48157119751,-0.48157119751,-1.26678371429,0.409485965967,1963,1963,2545,2034,2034,2921,3421,3422,3241,3363,3091,3052,3156,3146,3238,2852,3404,3412,3242,3365,3129,3351,3387,3195
1508405959044616503,132,1508405959044416611,plot_matl,0.0,0.0,1.40129846432e-45,4.59163467805e-41,-0.00262461788952,4.59107415867e-41,0.349065840244,0.30498278141,1.32967734337,-0.00345253455453,0.00431904103607,0.00431904103607,-0.0138595970348,-0.00838672369719,-96.7787017822,-96.7787017822,-132.965179443,0.0583669245243,2187,2063,2219,2010,2010,2904,3368,3385,3224,3329,3065,2887,3021,2945,3112,2733,3319,3347,3178,3266,2909,3255,3316,3046,0.009996369,1.319973571,1.319520708,0.680678427219,4500.0,0.655398130417,0.0359280370176,-0.025280283764,113.761283875,1.34390354156,6000.0,1.3296380043,-0.0130707826465,-0.0142654981464,89.286277771,0.349065840244,0.0240919683129,0.00839168578386,0.000912337447517,0.0234859865159,0.0234859865159,-0.000737815629691,-0.0178914442658,-0.555834889412,-0.555834889412,-2.01215314865,0.293775826693,2009,2004,2545,2034,2034,2921,3421,3425,3240,3363,3090,3052,3154,3146,3235,2851,3403,3412,3242,3365,3129,3351,3387,3195
1508405959054585043,133,1508405959054418034,plot_matl,0.0,0.0,1.40129846432e-45,4.59163467805e-41,-0.00262461788952,4.59107415867e-41,0.349065840244,0.30498278141,1.32967734337,-0.00345253455453,0.00431904103607,0.00431904103607,-0.0138595970348,-0.00838672369719,-96.7787017822,-96.7787017822,-132.965179443,0.0583669245243,1622,1592,2221,2010,2010,2904,3368,3385,3224,3329,3065,2887,3021,2945,3112,2733,3319,3345,3175,3264,2906,3256,3315,3046,0.010001065,1.329974872,1.330141645,0.680678427219,4500.0,0.654048621655,0.00857050064951,-0.0266297664493,119.833946228,1.34390354156,6000.0,1.32973003387,-0.0149568105116,-0.0141735216603,89.5247344971,0.349065840244,0.0240919683129,0.00839168578386,0.000912337447517,0.0234859865159,0.0234859865159,-0.000737815629691,-0.0178914442658,-0.555834889412,-0.555834889412,-2.01215314865,0.293775826693,2076,2069,2544,2030,2030,2921,3421,3425,3240,3363,3090,3052,3154,3146,3235,2851,3403,3411,3241,3365,3127,3349,3385,3193
1508405959064563528,134,1508405959064432463,plot_matl,0.0,0.0,1.40129846432e-45,4.59163467805e-41,-0.00262461788952,4.59107415867e-41,0.349065840244,0.30498278141,1.32967734337,-0.00345253455453,0.00431904103607,0.00431904103607,-0.0138595970348,-0.00838672369719,-96.7787017822,-96.7787017822,-132.965179443,0.0583669245243,1798,1983,2221,2010,2010,2907,3369,3385,3229,3331,3065,2889,3021,2946,3113,2733,3319,3345,3175,3264,2906,3256,3315,3046,0.01001445,1.339989548,1.3419363,0.680678427219,4500.0,0.655398130417,0.0347267724574,-0.025280283764,113.761283875,1.34390354156,6000.0,1.32970416546,0.0246148761362,-0.0141993071884,77.8291320801,0.349065840244,0.0240919683129,0.00839168578386,0.000912337447517,0.0234859865159,0.0234859865159,-0.000737815629691,-0.0178914442658,-0.555834889412,-0.555834889412,-2.01215314865,0.293775826693,2045,2056,2544,2030,2030,2920,3423,3423,3237,3361,3088,3050,3154,3145,3236,2851,3403,3411,3241,3365,3127,3349,3385,3193
1508405959074576094,135,1508405959074423200,plot_matl,0.0,0.0,1.40129846432e-45,4.59163467805e-41,-0.00262461788952,4.59107415867e-41,0.349065840244,0.30498278141,1.32967734337,-0.00345253455453,0.00431904103607,0.00431904103607,-0.0138595970348,-0.00838672369719,-96.7787017822,-96.7787017822,-132.965179443,0.0583669245243,2388,2478,2216,2010,2010,2907,3369,3385,3229,3331,3065,2889,3021,2946,3113,2732,3318,3345,3177,3264,2905,3257,3316,3045,0.009990632,1.349980328,1.34873532,0.680678427219,4500.0,0.654048621655,0.00857258029282,-0.0266297664493,119.833946228,1.34390354156,6000.0,1.32971644402,0.0244103800505,-0.0141870221123,77.8526535034,0.349065840244,0.0240919683129,0.00839168578386,0.000912337447517,0.0234859865159,0.0234859865159,-0.000737815629691,-0.0178914442658,-0.555834889412,-0.555834889412,-2.01215314865,0.293775826693,1958,1966,2546,2030,2030,2920,3423,3423,3237,3361,3088,3050,3154,3145,3236,2849,3403,3410,3239,3364,3128,3351,3385,3194
1508405959084582549,136,1508405959084417351,plot_matl,0.0,0.0,1.40129846432e-45,4.59163467805e-41,-0.00262461788952,4.59107415867e-41,0.349065840244,0.30498278141,1.32965767384,-0.00341903255321,0.0039702183567,0.0039702183567,-0.013480104506,0.000693443522323,-97.0865402222,-97.0865402222,-133.059829712,0.0519032068551,2388,2478,2216,2010,2010,2907,3369,3385,3229,3331,3065,2889,3021,2946,3113,2732,3318,3345,3177,3264,2905,3257,3316,3045,0.009994122,1.359974547,1.359200592,0.680678427219,4500.0,0.654048621655,0.00799753330648,-0.0266297664493,119.833946228,1.34390354156,6000.0,1.32969558239,0.0248622577637,-0.0142079209909,77.7302932739,0.349065840244,0.0216827709228,0.00841427780688,0.000990139204077,-0.00074466643855,-0.00074466643855,-0.00118846085388,-0.0197333879769,-0.428773909807,-0.428773909807,-2.02015662193,0.382869660854,1958,1966,2546,2030,2030,2920,3423,3423,3237,3361,3088,3050,3154,3145,3236,2849,3403,3410,3239,3364,3128,3351,3385,3194
1508405959094548415,137,1508405959094422299,plot_matl,0.0,0.0,1.40129846432e-45,4.59163467805e-41,-0.00262461788952,4.59107415867e-41,0.349065840244,0.30498278141,1.32965767384,-0.00341903255321,0.0039702183567,0.0039702183567,-0.013480104506,0.000693443522323,-97.0865402222,-97.0865402222,-133.059829712,0.0519032068551,1623,1587,2216,2011,2011,2904,3368,3385,3229,3327,3066,2889,3021,2950,3112,2736,3319,3345,3176,3263,2907,3255,3313,3045,0.010004759,1.369979557,1.370651983,0.680678427219,4500.0,0.654048621655,0.00749583682045,-0.0266297664493,119.833946228,1.34390354156,6000.0,1.32967245579,-0.0137595245615,-0.014231110923,89.6741485596,0.349065840244,0.0216827709228,0.00841427780688,0.000990139204077,-0.00074466643855,-0.00074466643855,-0.00118846085388,-0.0197333879769,-0.428773909807,-0.428773909807,-2.02015662193,0.382869660854,2084,2076,2546,2032,2032,2922,3422,3422,3238,3365,3089,3051,3153,3145,3235,2850,3403,3412,3239,3365,3127,3350,3388,3194
1508405959104564101,138,1508405959104448248,plot_matl,0.0,0.0,1.40129846432e-45,4.59163467805e-41,-0.00262461788952,4.59107415867e-41,0.349065840244,0.30498278141,1.32965767384,-0.00341903255321,0.0039702183567,0.0039702183567,-0.013480104506,0.000693443522323,-97.0865402222,-97.0865402222,-133.059829712,0.0519032068551,1791,1977,2220,2010,2010,2905,3369,3385,3226,3327,3064,2889,3021,2950,3112,2736,3319,3345,3176,3263,2907,3255,3313,3044,0.010025979,1.380005592,1.383585102,0.680678427219,4500.0,0.654048621655,0.00663871131837,-0.0266297664493,119.833946228,1.34390354156,6000.0,1.32961761951,-0.0126732438803,-0.0142858931795,89.5470657349,0.349065840244,0.0216827709228,0.00841427780688,0.000990139204077,-0.00074466643855,-0.00074466643855,-0.00118846085388,-0.0197333879769,-0.428773909807,-0.428773909807,-2.02015662193,0.382869660854,2040,2045,2545,2034,2034,2920,3421,3421,3239,3365,3090,3051,3153,3145,3235,2850,3403,3412,3239,3365,3127,3350,3388,3195
1508405959114622813,139,1508405959114422883,plot_matl,0.0,0.0,1.40129846432e-45,4.59163467805e-41,-0.00262461788952,4.59107415867e-41,0.349065840244,0.30498278141,1.32965767384,-0.00341903255321,0.0039702183567,0.0039702183567,-0.013480104506,0.000693443522323,-97.0865402222,-97.0865402222,-133.059829712,0.0519032068551,2384,2470,2220,2010,2010,2905,3369,3385,3226,3327,3064,2887,3019,2944,3110,2734,3319,3345,3175,3262,2907,3255,3313,3044,0.009974776,1.389979996,1.386493864,0.680678427219,4500.0,0.652699172497,-0.0199091341347,-0.027979247272,125.906616211,1.34390354156,6000.0,1.32963991165,-0.0131090823561,-0.0142636634409,89.4647674561,0.349065840244,0.0216827709228,0.00841427780688,0.000990139204077,-0.00074466643855,-0.00074466643855,-0.00118846085388,-0.0197333879769,-0.428773909807,-0.428773909807,-2.02015662193,0.382869660854,1952,1962,2545,2034,2034,2920,3421,3421,3239,3365,3090,3049,3154,3144,3234,2851,3403,3411,3240,3363,3129,3350,3388,3195
1508405959124564927,140,1508405959124417201,plot_matl,0.0,0.0,1.40129846432e-45,4.59163467805e-41,-0.00262461788952,4.59107415867e-41,0.349065840244,0.30363330245,1.32966256142,-0.00348407542333,-0.00964620802552,-0.00964620802552,0.0254930891097,0.00201501790434,-97.0903625488,-97.0903625488,-132.973495483,0.198929578066,2190,2070,2221,2008,2008,2905,3368,3384,3225,3327,3064,2887,3019,2944,3110,2734,3319,3345,3175,3262,2907,3256,3314,3042,0.009993716,1.399974397,1.39912024,0.680678427219,4500.0,0.655398130417,0.0347513221204,-0.025280283764,113.761283875,1.34390354156,6000.0,1.32966291904,-0.0135593898594,-0.0142406579107,89.564125061,0.349065840244,0.0216827709228,0.00841438863426,0.000848548486829,-0.00012000220886,-0.00012000220886,-0.0012034852989,0.00746566988528,-0.593128561974,-0.593128561974,-1.60785090923,0.103767000139,2013,2002,2545,2029,2029,2920,3421,3421,3238,3365,3090,3049,3154,3144,3234,2851,3403,3411,3240,3363,3129,3350,3386,3192
1508405959134555787,141,1508405959134422096,plot_matl,0.0,0.0,1.40129846432e-45,4.59163467805e-41,-0.00262461788952,4.59107415867e-41,0.349065840244,0.30363330245,1.32966256142,-0.00348407542333,-0.00964620802552,-0.00964620802552,0.0254930891097,0.00201501790434,-97.0903625488,-97.0903625488,-132.973495483,0.198929578066,1621,1588,2221,2008,2008,2905,3368,3384,3225,3329,3065,2891,3022,2946,3112,2732,3320,3342,3174,3262,2907,3256,3314,3042,0.010004646,1.409979194,1.410655086,0.680678427219,4500.0,0.654048621655,0.00710768485442,-0.0266297664493,119.833946228,1.34390354156,6000.0,1.32968199253,-0.013941843994,-0.0142215788364,89.1866226196,0.349065840244,0.0216827709228,0.00841438863426,0.000848548486829,-0.00012000220886,-0.00012000220886,-0.0012034852989,0.00746566988528,-0.593128561974,-0.593128561974,-1.60785090923,0.103767000139,2081,2078,2545,2029,2029,2920,3421,3421,3238,3361,3089,3051,3155,3146,3236,2848,3402,3411,3241,3363,3129,3350,3386,3192
1508405959144622468,142,1508405959144422101,plot_matl,0.0,0.0,1.40129846432e-45,4.59163467805e-41,-0.00262461788952,4.59107415867e-41,0.349065840244,0.30363330245,1.32966256142,-0.00348407542333,-0.00964620802552,-0.00964620802552,0.0254930891097,0.00201501790434,-97.0903625488,-97.0903625488,-132.973495483,0.198929578066,1786,1973,2218,2007,2007,2903,3367,3384,3225,3329,3065,2891,3022,2946,3112,2732,3320,3342,3174,3264,2908,3255,3315,3043,0.010000007,1.419979279,1.420000994,0.680678427219,4500.0,0.654048621655,0.0072993398644,-0.0266297664493,119.833946228,1.34390354156,6000.0,1.32969141006,-0.0141883362085,-0.0142120718956,89.4361343384,0.349065840244,0.0216827709228,0.00841438863426,0.000848548486829,-0.00012000220886,-0.00012000220886,-0.0012034852989,0.00746566988528,-0.593128561974,-0.593128561974,-1.60785090923,0.103767000139,2040,2049,2545,2033,2033,2921,3422,3421,3238,3361,3089,3051,3155,3146,3236,2848,3402,3411,3241,3364,3128,3351,3386,3192
1508405959154556419,143,1508405959154422192,plot_matl,0.0,0.0,1.40129846432e-45,4.59163467805e-41,-0.00262461788952,4.59107415867e-41,0.349065840244,0.30363330245,1.32966256142,-0.00348407542333,-0.00964620802552,-0.00964620802552,0.0254930891097,0.00201501790434,-97.0903625488,-97.0903625488,-132.973495483,0.198929578066,2393,2480,2218,2007,2007,2903,3367,3385,3227,3328,3063,2889,3020,2947,3112,2736,3318,3342,3174,3264,2908,3255,3315,3043,0.009999964,1.429979374,1.429994852,0.680678427219,4500.0,0.654048621655,0.00842470023781,-0.0266297664493,119.833946228,1.34390354156,6000.0,1.32967150211,0.0252724550664,-0.0142319835722,77.6212615967,0.349065840244,0.0216827709228,0.00841438863426,0.000848548486829,-0.00012000220886,-0.00012000220886,-0.0012034852989,0.00746566988528,-0.593128561974,-0.593128561974,-1.60785090923,0.103767000139,1968,1974,2545,2033,2033,2921,3422,3421,3238,3362,3088,3050,3155,3144,3235,2850,3403,3411,3241,3364,3128,3351,3386,3192
1508405959164619205,144,1508405959164420850,plot_matl,0.0,0.0,1.40129846432e-45,4.59163467805e-41,-0.00262461788952,4.59107415867e-41,0.349065840244,0.30498278141,1.32972431183,-0.00346703105606,0.00392075581476,0.00392075581476,-0.0148793803528,0.00167547212914,-97.1242446899,-97.1242446899,-133.47315979,0.323578298092,2193,2081,2224,2007,2007,2903,3367,3385,3227,3328,3063,2889,3020,2947,3112,2736,3318,3345,3177,3263,2909,3255,3311,3046,0.009998478,1.439977896,1.439780832,0.680678427219,4500.0,0.654048621655,0.00738443154842,-0.0266297664493,119.833946228,1.34390354156,6000.0,1.32971966267,0.0242928341031,-0.0141838360578,77.8159484863,0.349065840244,0.0216827709228,0.00842623785138,0.000829062482808,0.000976639566943,0.000976639566943,-0.00143229635432,0.00781014934182,-0.336944639683,-0.336944639683,-1.66657328606,-0.142390966415,2025,2009,2544,2033,2033,2921,3422,3421,3238,3362,3088,3050,3155,3144,3235,2850,3403,3410,3239,3365,3126,3350,3386,3194
1508405959174584426,145,1508405959174426068,plot_matl,0.0,0.0,1.40129846432e-45,4.59163467805e-41,-0.00262461788952,4.59107415867e-41,0.349065840244,0.30498278141,1.32972431183,-0.00346703105606,0.00392075581476,0.00392075581476,-0.0148793803528,0.00167547212914,-97.1242446899,-97.1242446899,-133.47315979,0.323578298092,1584,1800,2224,2007,2007,2905,3367,3384,3227,3328,3062,2886,3021,2947,3110,2734,3318,3345,3177,3263,2909,3255,3311,3046,0.010005205,1.449983219,1.450754725,0.680678427219,4500.0,0.654048621655,0.00799422618002,-0.0266297664493,119.833946228,1.34390354156,6000.0,1.32976830006,0.0233218818903,-0.0141352675855,77.9520263672,0.349065840244,0.0216827709228,0.00842623785138,0.000829062482808,0.000976639566943,0.000976639566943,-0.00143229635432,0.00781014934182,-0.336944639683,-0.336944639683,-1.66657328606,-0.142390966415,2061,2052,2544,2033,2033,2921,3421,3422,3239,3361,3089,3049,3154,3144,3235,2851,3403,3410,3239,3365,3126,3350,3386,3194
1508405959184559435,146,1508405959184418456,plot_matl,0.0,0.0,1.40129846432e-45,4.59163467805e-41,-0.00262461788952,4.59107415867e-41,0.349065840244,0.30498278141,1.32972431183,-0.00346703105606,0.00392075581476,0.00392075581476,-0.0148793803528,0.00167547212914,-97.1242446899,-97.1242446899,-133.47315979,0.323578298092,2044,2052,2222,2011,2011,2905,3367,3384,3227,3328,3062,2886,3021,2947,3110,2734,3319,3343,3175,3263,2904,3256,3314,3046,0.009992125,1.459975516,1.45885025,0.680678427219,4500.0,0.652699172497,-0.0174718797207,-0.027979247272,125.906616211,1.34390354156,6000.0,1.32987427711,0.0212308894843,-0.0140292532742,77.991065979,0.349065840244,0.0216827709228,0.00842623785138,0.000829062482808,0.000976639566943,0.000976639566943,-0.00143229635432,0.00781014934182,-0.336944639683,-0.336944639683,-1.66657328606,-0.142390966415,2052,2059,2545,2030,2030,2921,3421,3422,3239,3361,3089,3049,3154,3144,3235,2851,3403,3412,3239,3364,3128,3351,3386,3192
1508405959194706933,147,1508405959194456291,plot_matl,0.0,0.0,1.40129846432e-45,4.59163467805e-41,-0.00262461788952,4.59107415867e-41,0.349065840244,0.30498278141,1.32972431183,-0.00346703105606,0.00392075581476,0.00392075581476,-0.0148793803528,0.00167547212914,-97.1242446899,-97.1242446899,-133.47315979,0.323578298092,2450,2369,2222,2011,2011,2903,3367,3386,3227,3328,3064,2891,3022,2948,3110,2734,3319,3343,3175,3263,2904,3256,3314,3046,0.010039311,1.470014001,1.475778717,0.680678427219,4500.0,0.652699172497,-0.0176947489381,-0.027979247272,125.906616211,1.34390354156,6000.0,1.32992827892,0.0201566237956,-0.0139752561226,77.9021072388,0.349065840244,0.0216827709228,0.00842623785138,0.000829062482808,0.000976639566943,0.000976639566943,-0.00143229635432,0.00781014934182,-0.336944639683,-0.336944639683,-1.66657328606,-0.142390966415,1979,1988,2545,2030,2030,2921,3421,3421,3238,3362,3088,3049,3154,3143,3235,2851,3403,3412,3239,3364,3128,3351,3386,3192
1508405959204549250,148,1508405959204429952,plot_matl,0.0,0.0,1.40129846432e-45,4.59163467805e-41,-0.00262461788952,4.59107415867e-41,0.349065840244,0.30363330245,1.32994711399,-0.00351105164737,-0.00895349495113,-0.00895349495113,-0.01932528615,-0.00725217536092,-97.3702774048,-97.3702774048,-133.936752319,0.276890903711,1964,2066,2222,2011,2011,2903,3367,3386,3227,3328,3064,2891,3022,2948,3113,2733,3319,3345,3178,3264,2908,3254,3314,3044,0.009972299,1.479987109,1.475900252,0.680678427219,4500.0,0.654048621655,0.0088102305308,-0.0266297664493,119.833946228,1.34390354156,6000.0,1.32989120483,-0.0181990806013,-0.0140123404562,89.579864502,0.349065840244,0.0216827709228,0.00843007676303,0.00069029617589,-0.000831804762129,-0.000831804762129,-0.00150103704073,-0.0140221007168,-0.278706014156,-0.278706014156,-0.629633069038,0.364363402128,1988,1979,2545,2030,2030,2921,3421,3421,3238,3362,3088,3049,3154,3143,3235,2848,3402,3410,3238,3363,3127,3351,3386,3191
1508405959214596382,149,1508405959214421991,plot_matl,0.0,0.0,1.40129846432e-45,4.59163467805e-41,-0.00262461788952,4.59107415867e-41,0.349065840244,0.30363330245,1.32994711399,-0.00351105164737,-0.00895349495113,-0.00895349495113,-0.01932528615,-0.00725217536092,-97.3702774048,-97.3702774048,-133.936752319,0.276890903711,1572,1768,2219,2010,2010,2902,3367,3385,3228,3327,3066,2890,3022,2948,3113,2733,3319,3345,3178,3264,2908,3254,3314,3044,0.009991421,1.489979081,1.488721729,0.680678427219,4500.0,0.652699172497,-0.0185345578939,-0.027979247272,125.906616211,1.34390354156,6000.0,1.32983005047,-0.0170312169939,-0.0140734994784,89.7026596069,0.349065840244,0.0216827709228,0.00843007676303,0.00069029617589,-0.000831804762129,-0.000831804762129,-0.00150103704073,-0.0140221007168,-0.278706014156,-0.278706014156,-0.629633069038,0.364363402128,2062,2048,2546,2033,2033,2920,3423,3422,3238,3363,3089,3050,3154,3143,3235,2848,3402,3410,3238,3363,3127,3351,3386,3191
1508405959224560233,150,1508405959224417627,plot_matl,0.0,0.0,1.40129846432e-45,4.59163467805e-41,-0.00262461788952,4.59107415867e-41,0.349065840244,0.30363330245,1.32994711399,-0.00351105164737,-0.00895349495113,-0.00895349495113,-0.01932528615,-0.00725217536092,-97.3702774048,-97.3702774048,-133.936752319,0.276890903711,2029,2039,2219,2010,2010,2902,3367,3385,3228,3327,3066,2890,3022,2949,3113,2735,3317,3345,3173,3263,2907,3255,3314,3044,0.009995576,1.49997478,1.4993364,0.680678427219,4500.0,0.654048621655,0.00859481934458,-0.0266297664493,119.833946228,1.34390354156,6000.0,1.32981717587,-0.0167751312256,-0.0140863731503,89.4353179932,0.349065840244,0.0216827709228,0.00843007676303,0.00069029617589,-0.000831804762129,-0.000831804762129,-0.00150103704073,-0.0140221007168,-0.278706014156,-0.278706014156,-0.629633069038,0.364363402128,2052,2055,2546,2033,2033,2920,3423,3422,3238,3363,3089,3050,3153,3144,3236,2849,3403,3412,3240,3363,3126,3350,3386,3191
1508405959234615631,151,1508405959234420690,plot_matl,0.0,0.0,1.40129846432e-45,4.59163467805e-41,-0.00262461788952,4.59107415867e-41,0.349065840244,0.30363330245,1.32994711399,-0.00351105164737,-0.00895349495113,-0.00895349495113,-0.01932528615,-0.00725217536092,-97.3702774048,-97.3702774048,-133.936752319,0.276890903711,2430,2324,2226,2009,2009,2905,3368,3385,3225,3328,3066,2890,3022,2949,3113,2735,3317,3345,3173,3263,2907,3255,3312,3043,0.010003048,1.509977897,1.510460248,0.680678427219,4500.0,0.654048621655,0.0088809505105,-0.0266297664493,119.833946228,1.34390354156,6000.0,1.32976913452,-0.0157894622535,-0.0141343735158,89.5590591431,0.349065840244,0.0216827709228,0.00843007676303,0.00069029617589,-0.000831804762129,-0.000831804762129,-0.00150103704073,-0.0140221007168,-0.278706014156,-0.278706014156,-0.629633069038,0.364363402128,1978,1993,2544,2033,2033,2918,3421,3425,3238,3364,3089,3050,3153,3144,3236,2849,3403,3412,3240,3363,3126,3350,3387,3194
1508405959244565569,152,1508405959244418295,plot_matl,0.0,0.0,1.40129846432e-45,4.59163467805e-41,-0.00262461788952,4.59107415867e-41,0.349065840244,0.30498278141,1.32980942726,-0.00351754180156,0.00440479442477,0.00440479442477,-0.0166103038937,0.00268657086417,-97.375541687,-97.375541687,-133.951309204,0.180809766054,1960,2063,2226,2009,2009,2905,3368,3385,3225,3328,3063,2886,3020,2945,3111,2732,3319,3342,3174,3265,2907,3255,3312,3043,0.009997569,1.519975546,1.519630488,0.680678427219,4500.0,0.652699172497,-0.0189156215638,-0.027979247272,125.906616211,1.34390354156,6000.0,1.32976329327,-0.0156768150628,-0.0141402902082,89.3909225464,0.349065840244,0.0216827709228,0.00842215400189,0.000661383674014,-0.00194239174016,-0.00194239174016,-0.00134106935002,0.0111202355474,-0.318414986134,-0.318414986134,-1.43779790401,0.373338341713,1995,1989,2544,2033,2033,2918,3421,3425,3238,3364,3089,3049,3155,3144,3236,2849,3404,3413,3239,3363,3126,3350,3387,3194
