%time,field.header.seq,field.header.stamp,field.header.frame_id,field.FFJ4_set_point,field.FFJ4_position_gain,field.FFJ4_process_value,field.FFJ4_process_value_dot,field.FFJ4_error,field.FFJ4_command,field.FFJ1,field.FFJ2,field.FFJ3,field.FFJ4,field.FFJ1_dot,field.FFJ2_dot,field.FFJ3_dot,field.FFJ4_dot,field.FFJ1_tao,field.FFJ2_tao,field.FFJ3_tao,field.FFJ4_tao,field.pac0,field.pac1,field.pdc0,field.tac0,field.tdc0,field.el0,field.el1,field.el2,field.el3,field.el4,field.el5,field.el6,field.el7,field.el8,field.el9,field.el10,field.el11,field.el12,field.el13,field.el14,field.el15,field.el16,field.el17,field.el18,field.dt,field.time,field.test_time2,field.FFJ0_set_point,field.FFJ0_position_gain,field.FFJ0_process_value,field.FFJ0_process_value_dot,field.FFJ0_error,field.FFJ0_command,field.FFJ3_set_point,field.FFJ3_position_gain,field.FFJ3_process_value,field.FFJ3_process_value_dot,field.FFJ3_error,field.FFJ3_command,field.MFJ1,field.MFJ2,field.MFJ3,field.MFJ4,field.MFJ1_dot,field.MFJ2_dot,field.MFJ3_dot,field.MFJ4_dot,field.MFJ1_tao,field.MFJ2_tao,field.MFJ3_tao,field.MFJ4_tao,field.Mpac0,field.Mpac1,field.Mpdc0,field.Mtac0,field.Mtdc0,field.Mel0,field.Mel1,field.Mel2,field.Mel3,field.Mel4,field.Mel5,field.Mel6,field.Mel7,field.Mel8,field.Mel9,field.Mel10,field.Mel11,field.Mel12,field.Mel13,field.Mel14,field.Mel15,field.Mel16,field.Mel17,field.Mel18
1508405769374325690,118,1508405769373688570,plot_matl,0.0,0.0,1.40129846432e-45,4.59163467805e-41,7.46153271285e+31,4.57439870694e-41,0.349065840244,0.30498278141,1.33032727242,-0.00340598868206,0.00136146973819,0.00136146973819,0.0120641952381,0.000421695178375,-100.399734497,-100.399734497,-140.2550354,0.215643167496,2102,2139,2228,2038,2038,2918,3375,3390,3234,3333,3070,2893,3027,2944,3117,2737,3324,3349,3183,3270,2915,3261,3320,3049,0.010070493,1.180037257,1.188318174,0.680678427219,4500.0,0.652699172497,-0.023721460253,-0.027979247272,125.906616211,1.34390354156,6000.0,1.33027851582,0.0131239229813,-0.0136249773204,77.4669647217,0.349065840244,0.0216827709228,0.00855284836143,0.00104789342731,-0.00132884015329,-0.00132884015329,-0.00394993368536,-0.0211827810854,0.173676222563,0.173676222563,8.7015209198,-1.09799408913,2023,2016,2542,2040,2040,2925,3422,3422,3241,3361,3093,3052,3158,3147,3237,2856,3404,3412,3242,3363,3129,3350,3387,3192
1508405769384103946,119,1508405769383683718,plot_matl,0.0,0.0,1.40129846432e-45,4.59163467805e-41,7.46153271285e+31,4.57439870694e-41,0.349065840244,0.30498278141,1.33032727242,-0.00340598868206,0.00136146973819,0.00136146973819,0.0120641952381,0.000421695178375,-100.399734497,-100.399734497,-140.2550354,0.215643167496,2027,2060,2226,2038,2038,2919,3375,3390,3234,3333,3070,2893,3027,2944,3117,2737,3324,3349,3183,3268,2914,3261,3319,3050,0.00999408,1.190031893,1.18929552,0.680678427219,4500.0,0.654048621655,0.00293599441648,-0.0266297664493,119.833946228,1.34390354156,6000.0,1.33021378517,-0.0246564224362,-0.0136897806078,89.4178695679,0.349065840244,0.0216827709228,0.00855284836143,0.00104789342731,-0.00132884015329,-0.00132884015329,-0.00394993368536,-0.0211827810854,0.173676222563,0.173676222563,8.7015209198,-1.09799408913,2025,2033,2541,2040,2040,2925,3425,3422,3241,3361,3093,3052,3158,3147,3237,2856,3404,3412,3242,3366,3129,3351,3388,3194
1508405769394080051,120,1508405769393645691,plot_matl,0.0,0.0,1.40129846432e-45,4.59163467805e-41,7.46153271285e+31,4.57439870694e-41,0.349065840244,0.30498278141,1.33032727242,-0.00340598868206,0.00136146973819,0.00136146973819,0.0120641952381,0.000421695178375,-100.399734497,-100.399734497,-140.2550354,0.215643167496,2024,2063,2226,2038,2038,2919,3375,3391,3234,3332,3071,2896,3027,2949,3118,2737,3321,3349,3183,3268,2914,3261,3319,3050,0.009963195,1.199994753,1.1955834,0.680678427219,4500.0,0.654048621655,0.00343139912002,-0.0266297664493,119.833946228,1.34390354156,6000.0,1.33020222187,-0.0244640279561,-0.0137012898922,89.7823867798,0.349065840244,0.0216827709228,0.00855284836143,0.00104789342731,-0.00132884015329,-0.00132884015329,-0.00394993368536,-0.0211827810854,0.173676222563,0.173676222563,8.7015209198,-1.09799408913,2023,2019,2541,2040,2040,2925,3425,3424,3242,3363,3090,3053,3155,3147,3239,2855,3405,3412,3242,3366,3129,3351,3388,3194
1508405769403869246,121,1508405769403634808,plot_matl,0.0,0.0,1.40129846432e-45,4.59163467805e-41,7.46153271285e+31,4.57439870694e-41,0.349065840244,0.30498278141,1.3301230669,-0.0034209722653,0.0018182444619,0.0018182444619,-0.0228741951287,0.000729500374291,-100.460861206,-100.460861206,-140.26890564,0.25526329875,2011,2054,2227,2039,2039,2919,3375,3391,3234,3332,3071,2896,3027,2949,3118,2737,3321,3349,3183,3266,2914,3261,3319,3050,0.009985689,1.209982006,1.208268369,0.680678427219,4500.0,0.654048621655,0.00328825926408,-0.0266297664493,119.833946228,1.34390354156,6000.0,1.33019948006,0.0146648082882,-0.0137040689588,77.7495574951,0.349065840244,0.0216827709228,0.00849787332118,0.000934113631956,-0.000692930014338,-0.000692930014338,-0.00284454459324,-0.0188628491014,0.0199820846319,0.0199820846319,9.84337043762,-1.0880934,2014,2023,2542,2037,2037,2925,3425,3424,3242,3363,3090,3053,3155,3147,3239,2855,3405,3413,3242,3366,3130,3352,3385,3194
1508405769413807803,122,1508405769413624659,plot_matl,0.0,0.0,1.40129846432e-45,4.59163467805e-41,7.46153271285e+31,4.57439870694e-41,0.349065840244,0.30498278141,1.3301230669,-0.0034209722653,0.0018182444619,0.0018182444619,-0.0228741951287,0.000729500374291,-100.460861206,-100.460861206,-140.26890564,0.25526329875,1969,2010,2227,2039,2039,2918,3372,3389,3232,3334,3069,2893,3028,2944,3116,2737,3321,3349,3183,3266,2914,3261,3319,3050,0.009990101,1.219971916,1.218792322,0.680678427219,4500.0,0.655398130417,0.0308932960033,-0.025280283764,113.761283875,1.34390354156,6000.0,1.3302270174,-0.0249244496226,-0.0136765334755,89.9112930298,0.349065840244,0.0216827709228,0.00849787332118,0.000934113631956,-0.000692930014338,-0.000692930014338,-0.00284454459324,-0.0188628491014,0.0199820846319,0.0199820846319,9.84337043762,-1.0880934,2027,2025,2542,2037,2037,2926,3423,3424,3242,3365,3091,3053,3155,3147,3237,2855,3405,3413,3242,3366,3130,3352,3385,3194
1508405769423964861,123,1508405769423652729,plot_matl,0.0,0.0,1.40129846432e-45,4.59163467805e-41,7.46153271285e+31,4.57439870694e-41,0.349065840244,0.30498278141,1.3301230669,-0.0034209722653,0.0018182444619,0.0018182444619,-0.0228741951287,0.000729500374291,-100.460861206,-100.460861206,-140.26890564,0.25526329875,1969,2010,2227,2039,2039,2918,3372,3389,3232,3334,3069,2893,3028,2944,3116,2737,3321,3349,3183,3266,2914,3261,3319,3050,0.010029725,1.230001139,1.233656175,0.680678427219,4500.0,0.652699172497,-0.0232303198427,-0.027979247272,125.906616211,1.34390354156,6000.0,1.33017790318,0.0150609463453,-0.0137256775051,77.8547668457,0.349065840244,0.0216827709228,0.00849787332118,0.000934113631956,-0.000692930014338,-0.000692930014338,-0.00284454459324,-0.0188628491014,0.0199820846319,0.0199820846319,9.84337043762,-1.0880934,2027,2025,2542,2037,2037,2926,3423,3424,3242,3365,3091,3053,3155,3147,3237,2855,3405,3413,3242,3366,3130,3352,3385,3194
1508405769434040329,124,1508405769433658235,plot_matl,0.0,0.0,1.40129846432e-45,4.59163467805e-41,7.46153271285e+31,4.57439870694e-41,0.349065840244,0.30498278141,1.3301230669,-0.0034209722653,0.0018182444619,0.0018182444619,-0.0228741951287,0.000729500374291,-100.460861206,-100.460861206,-140.26890564,0.25526329875,1993,2037,2227,2039,2039,2918,3372,3389,3232,3334,3069,2893,3028,2944,3116,2734,3324,3350,3181,3269,2913,3261,3318,3049,0.010005927,1.240007146,1.240734948,0.680678427219,4500.0,0.654048621655,0.00283434824087,-0.0266297664493,119.833946228,1.34390354156,6000.0,1.33031618595,0.0139095848426,-0.0135873742402,77.8613739014,0.349065840244,0.0216827709228,0.00849787332118,0.000934113631956,-0.000692930014338,-0.000692930014338,-0.00284454459324,-0.0188628491014,0.0199820846319,0.0199820846319,9.84337043762,-1.0880934,2030,2024,2542,2037,2037,2926,3423,3424,3242,3365,3091,3053,3155,3147,3237,2857,3404,3412,3241,3366,3130,3352,3386,3194
1508405769443943856,125,1508405769443615482,plot_matl,0.0,0.0,1.40129846432e-45,4.59163467805e-41,7.46153271285e+31,4.57439870694e-41,0.349065840244,0.30498278141,1.33031618595,-0.00341653451324,0.00141717412043,0.00141717412043,0.0139095848426,0.00065834907582,-100.662033081,-100.662033081,-140.33265686,-0.0962177366018,2092,2139,2227,2039,2039,2929,3383,3399,3242,3339,3077,2901,3034,2944,3116,2734,3324,3350,3181,3269,2913,3261,3318,3049,0.009954253,1.249962986,1.244281625,0.680678427219,4500.0,0.654048621655,0.00178026570939,-0.0266297664493,119.833946228,1.34390354156,6000.0,1.33035624027,0.0127217946574,-0.0135472575203,77.6392745972,0.349065840244,0.0216827709228,0.00844628084451,0.00103198376019,-0.00156151398551,-0.00156151398551,-0.00182470143773,0.00366000295617,-0.0175386965275,-0.0175386965275,11.3858184814,-1.49503862858,2031,2019,2542,2037,2037,2935,3434,3434,3249,3369,3097,3059,3162,3147,3237,2857,3404,3412,3241,3366,3130,3352,3386,3194
1508405769453874423,126,1508405769453667368,plot_matl,0.0,0.0,1.40129846432e-45,4.59163467805e-41,7.46153271285e+31,4.57439870694e-41,0.349065840244,0.30498278141,1.33031618595,-0.00341653451324,0.00141717412043,0.00141717412043,0.0139095848426,0.00065834907582,-100.662033081,-100.662033081,-140.33265686,-0.0962177366018,2023,2068,2227,2039,2039,2929,3383,3399,3242,3339,3077,2901,3034,2952,3122,2740,3329,3352,3184,3271,2916,3264,3320,3049,0.010052927,1.260015579,1.266668802,0.680678427219,4500.0,0.654048621655,0.00187634117901,-0.0266297664493,119.833946228,1.34390354156,6000.0,1.33039104939,0.0118049774319,-0.0135124735534,77.8694000244,0.349065840244,0.0216827709228,0.00844628084451,0.00103198376019,-0.00156151398551,-0.00156151398551,-0.00182470143773,0.00366000295617,-0.0175386965275,-0.0175386965275,11.3858184814,-1.49503862858,2033,2025,2542,2037,2037,2935,3434,3434,3249,3369,3097,3059,3162,3153,3242,2859,3410,3416,3246,3367,3133,3353,3390,3194
1508405769463998525,127,1508405769463668079,plot_matl,0.0,0.0,1.40129846432e-45,4.59163467805e-41,7.46153271285e+31,4.57439870694e-41,0.349065840244,0.30498278141,1.33031618595,-0.00341653451324,0.00141717412043,0.00141717412043,0.0139095848426,0.00065834907582,-100.662033081,-100.662033081,-140.33265686,-0.0962177366018,2030,2078,2226,2039,2039,2922,3375,3393,3233,3334,3071,2901,3034,2952,3122,2740,3329,3352,3184,3271,2916,3264,3320,3053,0.010000405,1.270016329,1.270051435,0.680678427219,4500.0,0.652699172497,-0.0246999617666,-0.027979247272,125.906616211,1.34390354156,6000.0,1.33034598827,0.012543162331,-0.0135575085878,77.6237106323,0.349065840244,0.0216827709228,0.00844628084451,0.00103198376019,-0.00156151398551,-0.00156151398551,-0.00182470143773,0.00366000295617,-0.0175386965275,-0.0175386965275,11.3858184814,-1.49503862858,2033,2024,2542,2042,2042,2926,3425,3426,3244,3365,3094,3059,3162,3153,3242,2859,3410,3416,3246,3367,3133,3353,3390,3195
1508405769474005853,128,1508405769473668990,plot_matl,0.0,0.0,1.40129846432e-45,4.59163467805e-41,7.46153271285e+31,4.57439870694e-41,0.349065840244,0.30498278141,1.33031618595,-0.00341653451324,0.00141717412043,0.00141717412043,0.0139095848426,0.00065834907582,-100.662033081,-100.662033081,-140.33265686,-0.0962177366018,1979,2035,2226,2039,2039,2922,3375,3393,3233,3334,3071,2894,3029,2949,3119,2739,3325,3350,3183,3270,2915,3264,3320,3053,0.010001192,1.280017395,1.280152576,0.680678427219,4500.0,0.654048621655,0.00111497996841,-0.0266297664493,119.833946228,1.34390354156,6000.0,1.33041083813,0.0109847737476,-0.0134926270694,77.8673782349,0.349065840244,0.0216827709228,0.00844628084451,0.00103198376019,-0.00156151398551,-0.00156151398551,-0.00182470143773,0.00366000295617,-0.0175386965275,-0.0175386965275,11.3858184814,-1.49503862858,2029,2016,2542,2042,2042,2926,3425,3426,3244,3365,3094,3054,3158,3149,3238,2857,3406,3414,3242,3365,3132,3353,3390,3195
1508405769484135692,129,1508405769483662915,plot_matl,0.0,0.0,1.40129846432e-45,4.59163467805e-41,7.46153271285e+31,4.57439870694e-41,0.349065840244,0.30498278141,1.33041083813,-0.00341407349333,0.000557489984203,0.000557489984203,0.0109847737476,0.000601604871918,-100.801521301,-100.801521301,-140.364807129,-0.264549553394,1974,2015,2227,2039,2039,2917,3373,3392,3234,3334,3071,2894,3029,2949,3119,2739,3325,3350,3183,3270,2915,3262,3318,3049,0.00999377,1.290011471,1.28919633,0.680678427219,4500.0,0.655398130417,0.0271449312568,-0.025280283764,113.761283875,1.34390354156,6000.0,1.33046388626,0.00972028262913,-0.0134395938367,77.9369430542,0.349065840244,0.0216827709228,0.00845205783844,0.00095016969135,-0.00248781405389,-0.00248781405389,0.0133908875287,0.00534833036363,0.280452370644,0.280452370644,12.7643375397,-0.944200158119,2020,2020,2541,2040,2040,2927,3424,3425,3240,3365,3094,3054,3158,3149,3238,2857,3406,3414,3242,3365,3132,3351,3387,3193
1508405769494054998,130,1508405769493638920,plot_matl,0.0,0.0,1.40129846432e-45,4.59163467805e-41,7.46153271285e+31,4.57439870694e-41,0.349065840244,0.30498278141,1.33041083813,-0.00341407349333,0.000557489984203,0.000557489984203,0.0109847737476,0.000601604871918,-100.801521301,-100.801521301,-140.364807129,-0.264549553394,1992,2034,2227,2039,2039,2917,3373,3392,3234,3332,3070,2894,3027,2942,3117,2734,3323,3350,3183,3270,2915,3262,3318,3049,0.009975067,1.299987029,1.29675871,0.680678427219,4500.0,0.652699172497,-0.0273650269955,-0.027979247272,125.906616211,1.34390354156,6000.0,1.33041000366,0.0107818739489,-0.013493523933,78.116973877,0.349065840244,0.0216827709228,0.00845205783844,0.00095016969135,-0.00248781405389,-0.00248781405389,0.0133908875287,0.00534833036363,0.280452370644,0.280452370644,12.7643375397,-0.944200158119,2019,2026,2541,2040,2040,2927,3424,3425,3240,3363,3092,3053,3157,3148,3238,2856,3406,3412,3241,3365,3132,3351,3387,3193
1508405769504064227,131,1508405769503651752,plot_matl,0.0,0.0,1.40129846432e-45,4.59163467805e-41,7.46153271285e+31,4.57439870694e-41,0.349065840244,0.30498278141,1.33041083813,-0.00341407349333,0.000557489984203,0.000557489984203,0.0109847737476,0.000601604871918,-100.801521301,-100.801521301,-140.364807129,-0.264549553394,1997,2051,2227,2039,2039,2917,3374,3392,3234,3332,3070,2894,3027,2942,3117,2734,3323,3350,3183,3269,2916,3261,3316,3050,0.010012367,1.310000083,1.311620077,0.680678427219,4500.0,0.654048621655,-2.48209635174e-05,-0.0266297664493,119.833946228,1.34390354156,6000.0,1.33042526245,0.0102822203189,-0.013478285633,78.307434082,0.349065840244,0.0216827709228,0.00845205783844,0.00095016969135,-0.00248781405389,-0.00248781405389,0.0133908875287,0.00534833036363,0.280452370644,0.280452370644,12.7643375397,-0.944200158119,2025,2026,2542,2040,2040,2924,3424,3425,3240,3363,3092,3053,3157,3148,3238,2856,3406,3412,3241,3363,3128,3352,3388,3194
1508405769514079306,132,1508405769513642891,plot_matl,0.0,0.0,1.40129846432e-45,4.59163467805e-41,7.46153271285e+31,4.57439870694e-41,0.349065840244,0.30498278141,1.33041083813,-0.00341407349333,0.000557489984203,0.000557489984203,0.0109847737476,0.000601604871918,-100.801521301,-100.801521301,-140.364807129,-0.264549553394,1997,2051,2227,2039,2039,2917,3374,3392,3234,3332,3070,2894,3027,2942,3117,2734,3323,3350,3183,3269,2916,3261,3316,3050,0.009991645,1.319991407,1.31889714,0.680678427219,4500.0,0.654048621655,-2.48209635174e-05,-0.0266297664493,119.833946228,1.34390354156,6000.0,1.33042526245,0.0102822203189,-0.013478285633,78.307434082,0.349065840244,0.0216827709228,0.00845205783844,0.00095016969135,-0.00248781405389,-0.00248781405389,0.0133908875287,0.00534833036363,0.280452370644,0.280452370644,12.7643375397,-0.944200158119,2025,2026,2542,2040,2040,2924,3424,3425,3240,3363,3092,3053,3157,3148,3238,2856,3406,3412,3241,3363,3128,3352,3388,3194
1508405769524223326,133,1508405769523650006,plot_matl,0.0,0.0,1.40129846432e-45,4.59163467805e-41,7.46153271285e+31,4.57439870694e-41,0.349065840244,0.30498278141,1.33045387268,-0.00340194371529,0.000901406398043,0.000901406398043,-0.0296613331884,0.000341907260008,-100.025947571,-100.025947571,-139.837478638,-0.064271338284,2119,2127,2227,2039,2039,2917,3374,3390,3232,3332,3070,2894,3029,2948,3115,2736,3327,3350,3183,3269,2916,3261,3316,3050,0.010007205,1.329998296,1.330958265,0.680678427219,4500.0,0.654048621655,0.00180281279609,-0.0266297664493,119.833946228,1.34390354156,6000.0,1.33045387268,-0.0296613331884,-0.0134496996179,89.7868804932,0.349065840244,0.0192735753953,0.0084382025525,0.00103331299033,-0.0258444212377,-0.0258444212377,-0.00169005233329,0.00369573035277,-0.50048416853,-0.50048416853,12.9183635712,-0.719453334808,2026,2026,2542,2040,2040,2924,3424,3424,3243,3364,3091,3054,3158,3147,3238,2857,3405,3412,3241,3363,3128,3352,3388,3194
1508405769534002580,134,1508405769533660544,plot_matl,0.0,0.0,1.40129846432e-45,4.59163467805e-41,7.46153271285e+31,4.57439870694e-41,0.349065840244,0.30498278141,1.33045387268,-0.00340194371529,0.000901406398043,0.000901406398043,-0.0296613331884,0.000341907260008,-100.025947571,-100.025947571,-139.837478638,-0.064271338284,2033,2069,2226,2040,2040,2917,3374,3390,3232,3332,3070,2894,3029,2948,3115,2736,3327,3372,3201,3285,2926,3271,3331,3061,0.010008884,1.340008839,1.341190456,0.680678427219,4500.0,0.652699172497,-0.0237914342433,-0.027979247272,125.906616211,1.34390354156,6000.0,1.33050358295,0.00841119419783,-0.0133999884129,77.8876266479,0.349065840244,0.0192735753953,0.0084382025525,0.00103331299033,-0.0258444212377,-0.0258444212377,-0.00169005233329,0.00369573035277,-0.50048416853,-0.50048416853,12.9183635712,-0.719453334808,2030,2030,2542,2039,2039,2924,3424,3424,3243,3364,3091,3054,3158,3147,3238,2857,3405,3433,3261,3380,3145,3363,3397,3206
1508405769544126499,135,1508405769543688937,plot_matl,0.0,0.0,1.40129846432e-45,4.59163467805e-41,7.46153271285e+31,4.57439870694e-41,0.349065840244,0.30498278141,1.33045387268,-0.00340194371529,0.000901406398043,0.000901406398043,-0.0296613331884,0.000341907260008,-100.025947571,-100.025947571,-139.837478638,-0.064271338284,1969,1987,2226,2040,2040,2926,3382,3397,3240,3338,3075,2898,3030,2947,3120,2736,3327,3372,3201,3285,2926,3271,3331,3061,0.010028814,1.350037533,1.35388989,0.680678427219,4500.0,0.654048621655,0.00530534237623,-0.0266297664493,119.833946228,1.34390354156,6000.0,1.33046972752,-0.0299896541983,-0.0134338429198,89.3657302856,0.349065840244,0.0192735753953,0.0084382025525,0.00103331299033,-0.0258444212377,-0.0258444212377,-0.00169005233329,0.00369573035277,-0.50048416853,-0.50048416853,12.9183635712,-0.719453334808,2031,2032,2542,2039,2039,2931,3430,3430,3246,3369,3095,3058,3161,3153,3240,2857,3405,3433,3261,3380,3145,3363,3397,3206
1508405769554048311,136,1508405769553691798,plot_matl,0.0,0.0,1.40129846432e-45,4.59163467805e-41,7.46153271285e+31,4.57439870694e-41,0.349065840244,0.30498278141,1.33045387268,-0.00340194371529,0.000901406398043,0.000901406398043,-0.0296613331884,0.000341907260008,-100.025947571,-100.025947571,-139.837478638,-0.064271338284,1991,2041,2227,2040,2040,2926,3382,3397,3240,3338,3075,2898,3030,2947,3120,2737,3327,3350,3187,3269,2917,3263,3321,3051,0.010002214,1.360040118,1.360301104,0.680678427219,4500.0,0.654048621655,0.00582413142547,-0.0266297664493,119.833946228,1.34390354156,6000.0,1.33037900925,-0.0281080715358,-0.0135244671255,89.1872177124,0.349065840244,0.0192735753953,0.0084382025525,0.00103331299033,-0.0258444212377,-0.0258444212377,-0.00169005233329,0.00369573035277,-0.50048416853,-0.50048416853,12.9183635712,-0.719453334808,2028,2037,2542,2039,2039,2931,3430,3430,3246,3369,3095,3058,3161,3153,3240,2859,3409,3417,3247,3367,3131,3353,3390,3196
1508405769564122027,137,1508405769563657785,plot_matl,0.0,0.0,1.40129846432e-45,4.59163467805e-41,7.46153271285e+31,4.57439870694e-41,0.349065840244,0.30498278141,1.33037900925,-0.00343758868985,0.00291206571274,0.00291206571274,-0.0281080715358,-0.00869646947831,-100.27747345,-100.27747345,-139.83430481,-0.219301939011,2004,2033,2227,2040,2040,2920,3374,3391,3236,3333,3071,2893,3028,2947,3120,2737,3327,3350,3187,3269,2917,3263,3321,3051,0.009966423,1.370006315,1.365399951,0.680678427219,4500.0,0.652699172497,-0.0213806051761,-0.027979247272,125.906616211,1.34390354156,6000.0,1.33036756516,-0.0278727021068,-0.0135359922424,89.9233856201,0.349065840244,0.0216827709228,0.00849350076169,0.000997694092803,-0.00242887507193,-0.00242887507193,-0.00277965259738,0.00438405992463,-0.22053809464,-0.22053809464,11.6185121536,-0.928213000298,2031,2023,2542,2041,2041,2927,3424,3424,3243,3367,3092,3055,3159,3153,3240,2859,3409,3417,3247,3367,3131,3353,3390,3196
1508405769573973033,138,1508405769573646563,plot_matl,0.0,0.0,1.40129846432e-45,4.59163467805e-41,7.46153271285e+31,4.57439870694e-41,0.349065840244,0.30498278141,1.33037900925,-0.00343758868985,0.00291206571274,0.00291206571274,-0.0281080715358,-0.00869646947831,-100.27747345,-100.27747345,-139.83430481,-0.219301939011,2035,2063,2227,2040,2040,2920,3374,3391,3236,3333,3071,2893,3028,2944,3117,2734,3323,3351,3181,3269,2914,3261,3318,3051,0.009987515,1.379994939,1.37827707,0.680678427219,4500.0,0.654048621655,0.00628415355459,-0.0266297664493,119.833946228,1.34390354156,6000.0,1.33030116558,0.0125866327435,-0.0136023256928,77.8542098999,0.349065840244,0.0216827709228,0.00849350076169,0.000997694092803,-0.00242887507193,-0.00242887507193,-0.00277965259738,0.00438405992463,-0.22053809464,-0.22053809464,11.6185121536,-0.928213000298,2033,2037,2542,2041,2041,2927,3424,3424,3243,3367,3092,3055,3159,3149,3239,2858,3407,3413,3242,3366,3131,3354,3388,3196
1508405769583742578,139,1508405769583618091,plot_matl,0.0,0.0,1.40129846432e-45,4.59163467805e-41,7.46153271285e+31,4.57439870694e-41,0.349065840244,0.30498278141,1.33037900925,-0.00343758868985,0.00291206571274,0.00291206571274,-0.0281080715358,-0.00869646947831,-100.27747345,-100.27747345,-139.83430481,-0.219301939011,2069,2103,2227,2041,2041,2919,3376,3388,3233,3334,3071,2893,3028,2944,3117,2734,3323,3351,3181,3269,2914,3261,3318,3050,0.009968687,1.389965062,1.385647493,0.680678427219,4500.0,0.652699172497,-0.0206376109272,-0.027979247272,125.906616211,1.34390354156,6000.0,1.33037948608,0.0110370432958,-0.0135240675882,77.7296829224,0.349065840244,0.0216827709228,0.00849350076169,0.000997694092803,-0.00242887507193,-0.00242887507193,-0.00277965259738,0.00438405992463,-0.22053809464,-0.22053809464,11.6185121536,-0.928213000298,2032,2024,2542,2040,2040,2926,3422,3425,3243,3365,3093,3055,3159,3149,3239,2858,3407,3413,3242,3366,3131,3354,3388,3193
1508405769593915392,140,1508405769593629870,plot_matl,0.0,0.0,1.40129846432e-45,4.59163467805e-41,7.46153271285e+31,4.57439870694e-41,0.349065840244,0.30498278141,1.33037900925,-0.00343758868985,0.00291206571274,0.00291206571274,-0.0281080715358,-0.00869646947831,-100.27747345,-100.27747345,-139.83430481,-0.219301939011,2044,2077,2227,2041,2041,2919,3376,3388,3233,3334,3071,2896,3030,2949,3119,2738,3325,3350,3182,3269,2915,3261,3318,3050,0.010014889,1.399978529,1.40208446,0.680678427219,4500.0,0.652699172497,-0.0203327797353,-0.027979247272,125.906616211,1.34390354156,6000.0,1.33041346073,0.010406004265,-0.0134900612757,78.000793457,0.349065840244,0.0216827709228,0.00849350076169,0.000997694092803,-0.00242887507193,-0.00242887507193,-0.00277965259738,0.00438405992463,-0.22053809464,-0.22053809464,11.6185121536,-0.928213000298,2023,2021,2542,2040,2040,2926,3422,3425,3243,3365,3093,3054,3156,3149,3239,2856,3404,3411,3245,3364,3130,3354,3388,3193
1508405769604041174,141,1508405769603660190,plot_matl,0.0,0.0,1.40129846432e-45,4.59163467805e-41,7.46153271285e+31,4.57439870694e-41,0.349065840244,0.30363330245,1.33041346073,-0.00344128883444,-0.0101663898677,-0.0101663898677,0.010406004265,-0.00860906019807,-100.151260376,-100.151260376,-140.261917114,-0.652520775795,2027,2072,2226,2041,2041,2920,3375,3391,3232,3334,3071,2896,3030,2949,3119,2738,3325,3350,3182,3269,2915,3260,3318,3050,0.010029915,1.410008621,1.414218015,0.680678427219,4500.0,0.654048621655,0.00660368660465,-0.0266297664493,119.833946228,1.34390354156,6000.0,1.33030080795,0.0126473549753,-0.0136026693508,78.0667648315,0.349065840244,0.0216827709228,0.008520424366,0.00091461034026,-0.00198315829039,-0.00198315829039,-0.00336125609465,0.00600414536893,-0.364769697189,-0.364769697189,8.76943016052,-1.01172912121,2028,2028,2541,2037,2037,2926,3424,3425,3241,3365,3093,3054,3156,3149,3239,2856,3404,3411,3245,3364,3130,3350,3386,3191
1508405769614009120,142,1508405769613659092,plot_matl,0.0,0.0,1.40129846432e-45,4.59163467805e-41,7.46153271285e+31,4.57439870694e-41,0.349065840244,0.30363330245,1.33041346073,-0.00344128883444,-0.0101663898677,-0.0101663898677,0.010406004265,-0.00860906019807,-100.151260376,-100.151260376,-140.261917114,-0.652520775795,1951,1980,2226,2041,2041,2920,3375,3391,3232,3332,3069,2896,3029,2947,3117,2734,3325,3348,3183,3269,2915,3260,3318,3050,0.009997869,1.420007407,1.419697398,0.680678427219,4500.0,0.654048621655,0.00631823344156,-0.0266297664493,119.833946228,1.34390354156,6000.0,1.33030080795,0.0126473549753,-0.0136026693508,78.0667648315,0.349065840244,0.0216827709228,0.008520424366,0.00091461034026,-0.00198315829039,-0.00198315829039,-0.00336125609465,0.00600414536893,-0.364769697189,-0.364769697189,8.76943016052,-1.01172912121,2034,2028,2541,2037,2037,2926,3424,3425,3241,3364,3091,3053,3155,3147,3237,2857,3405,3414,3242,3364,3130,3350,3386,3191
1508405769623984519,143,1508405769623658264,plot_matl,0.0,0.0,1.40129846432e-45,4.59163467805e-41,7.46153271285e+31,4.57439870694e-41,0.349065840244,0.30363330245,1.33041346073,-0.00344128883444,-0.0101663898677,-0.0101663898677,0.010406004265,-0.00860906019807,-100.151260376,-100.151260376,-140.261917114,-0.652520775795,2015,2050,2227,2040,2040,2917,3372,3391,3232,3332,3069,2896,3029,2947,3117,2734,3325,3348,3183,3268,2916,3261,3319,3052,0.009998685,1.430006424,1.429811955,0.680678427219,4500.0,0.654048621655,0.00631823344156,-0.0266297664493,119.833946228,1.34390354156,6000.0,1.33027172089,-0.025860471651,-0.0136318290606,89.9016418457,0.349065840244,0.0216827709228,0.008520424366,0.00091461034026,-0.00198315829039,-0.00198315829039,-0.00336125609465,0.00600414536893,-0.364769697189,-0.364769697189,8.76943016052,-1.01172912121,2016,2023,2541,2037,2037,2926,3424,3425,3241,3364,3091,3053,3155,3147,3237,2857,3405,3414,3242,3363,3130,3353,3389,3195
1508405769633867380,144,1508405769633623691,plot_matl,0.0,0.0,1.40129846432e-45,4.59163467805e-41,7.46153271285e+31,4.57439870694e-41,0.349065840244,0.30363330245,1.33041346073,-0.00344128883444,-0.0101663898677,-0.0101663898677,0.010406004265,-0.00860906019807,-100.151260376,-100.151260376,-140.261917114,-0.652520775795,2015,2050,2227,2040,2040,2917,3372,3391,3232,3332,3069,2896,3029,2947,3117,2734,3325,3348,3183,3268,2916,3261,3319,3052,0.009964302,1.439970927,1.434859488,0.680678427219,4500.0,0.654048621655,0.00662569329143,-0.0266297664493,119.833946228,1.34390354156,6000.0,1.33024978638,-0.0254303812981,-0.0136537589133,89.6236953735,0.349065840244,0.0216827709228,0.008520424366,0.00091461034026,-0.00198315829039,-0.00198315829039,-0.00336125609465,0.00600414536893,-0.364769697189,-0.364769697189,8.76943016052,-1.01172912121,2016,2023,2541,2037,2037,2926,3424,3425,3241,3364,3091,3053,3155,3147,3237,2857,3405,3414,3242,3363,3130,3353,3389,3195
1508405769643762477,145,1508405769643619371,plot_matl,0.0,0.0,1.40129846432e-45,4.59163467805e-41,7.46153271285e+31,4.57439870694e-41,0.349065840244,0.30363330245,1.33006548882,-0.00341046415269,-0.00707265269011,-0.00707265269011,0.014949160628,0.00052508583758,-100.511932373,-100.511932373,-140.103744507,-0.991031885147,2041,2099,2227,2040,2040,2917,3372,3390,3233,3331,3068,2895,3027,2961,3134,2749,3337,3348,3183,3268,2916,3261,3319,3052,0.009995272,1.449966874,1.44931444,0.680678427219,4500.0,0.652699172497,-0.0141020761803,-0.027979247272,125.906616211,1.34390354156,6000.0,1.33009111881,0.0147172026336,-0.0138124488294,77.6259002686,0.349065840244,0.0216827709228,0.00852433312684,0.000947172811721,-0.00232781842351,-0.00232781842351,-0.00446709152311,0.00532251223922,-0.338147521019,-0.338147521019,8.29034519196,-1.25635182858,2039,2042,2541,2037,2037,2926,3424,3424,3241,3363,3092,3054,3156,3165,3254,2869,3418,3414,3242,3363,3130,3353,3389,3195
1508405769653888712,146,1508405769653687346,plot_matl,0.0,0.0,1.40129846432e-45,4.59163467805e-41,7.46153271285e+31,4.57439870694e-41,0.349065840244,0.30363330245,1.33006548882,-0.00341046415269,-0.00707265269011,-0.00707265269011,0.014949160628,0.00052508583758,-100.511932373,-100.511932373,-140.103744507,-0.991031885147,2069,2108,2225,2043,2043,2917,3372,3390,3233,3331,3068,2895,3027,2961,3134,2749,3337,3361,3193,3277,2920,3269,3327,3055,0.010069625,1.460035777,1.47016525,0.680678427219,4500.0,0.654048621655,0.0132698686793,-0.0266297664493,119.833946228,1.34390354156,6000.0,1.3301076889,0.0147474268451,-0.0137958498672,78.2388153076,0.349065840244,0.0216827709228,0.00852433312684,0.000947172811721,-0.00232781842351,-0.00232781842351,-0.00446709152311,0.00532251223922,-0.338147521019,-0.338147521019,8.29034519196,-1.25635182858,2031,2022,2541,2040,2040,2926,3424,3424,3241,3363,3092,3054,3156,3165,3254,2869,3418,3422,3252,3373,3136,3359,3392,3200
1508405769663730435,147,1508405769663618914,plot_matl,0.0,0.0,1.40129846432e-45,4.59163467805e-41,7.46153271285e+31,4.57439870694e-41,0.349065840244,0.30363330245,1.33006548882,-0.00341046415269,-0.00707265269011,-0.00707265269011,0.014949160628,0.00052508583758,-100.511932373,-100.511932373,-140.103744507,-0.991031885147,2029,2070,2225,2043,2043,2920,3379,3392,3236,3336,3073,2897,3032,2949,3121,2749,3337,3361,3193,3277,2920,3269,3327,3055,0.009929081,1.469966129,1.459574907,0.680678427219,4500.0,0.654048621655,0.0118199167773,-0.0266297664493,119.833946228,1.34390354156,6000.0,1.33015835285,0.0140422806144,-0.0137451561168,77.5964660645,0.349065840244,0.0216827709228,0.00852433312684,0.000947172811721,-0.00232781842351,-0.00232781842351,-0.00446709152311,0.00532251223922,-0.338147521019,-0.338147521019,8.29034519196,-1.25635182858,2025,2028,2541,2040,2040,2930,3426,3428,3246,3368,3096,3058,3159,3151,3239,2869,3418,3422,3252,3373,3136,3359,3392,3200
1508405769673801160,148,1508405769673629700,plot_matl,0.0,0.0,1.40129846432e-45,4.59163467805e-41,7.46153271285e+31,4.57439870694e-41,0.349065840244,0.30363330245,1.33006548882,-0.00341046415269,-0.00707265269011,-0.00707265269011,0.014949160628,0.00052508583758,-100.511932373,-100.511932373,-140.103744507,-0.991031885147,2047,2083,2225,2043,2043,2920,3379,3392,3236,3336,3073,2897,3032,2949,3121,2740,3326,3350,3184,3270,2914,3262,3320,3050,0.010011055,1.479977099,1.48163614,0.680678427219,4500.0,0.655398130417,0.0373500771821,-0.025280283764,113.761283875,1.34390354156,6000.0,1.33019244671,0.013621606864,-0.013711059466,78.1318359375,0.349065840244,0.0216827709228,0.00852433312684,0.000947172811721,-0.00232781842351,-0.00232781842351,-0.00446709152311,0.00532251223922,-0.338147521019,-0.338147521019,8.29034519196,-1.25635182858,2022,2024,2542,2040,2040,2930,3426,3428,3246,3368,3096,3058,3159,3151,3239,2858,3407,3414,3243,3367,3130,3353,3389,3194
1508405769683828867,149,1508405769683621742,plot_matl,0.0,0.0,1.40129846432e-45,4.59163467805e-41,7.46153271285e+31,4.57439870694e-41,0.349065840244,0.30363330245,1.33018290997,-0.00339881237596,-0.00825054664165,-0.00825054664165,-0.0252195801586,0.000283903063973,-100.563415527,-100.563415527,-140.335128784,-0.346433371305,1913,1961,2225,2041,2041,2919,3374,3389,3233,3333,3069,2893,3026,2949,3121,2740,3326,3350,3184,3270,2914,3262,3320,3050,0.009992088,1.489969408,1.488821112,0.680678427219,4500.0,0.654048621655,0.010174876079,-0.0266297664493,119.833946228,1.34390354156,6000.0,1.33025348186,-0.0264749154449,-0.0136500075459,89.6333007812,0.349065840244,0.0216827709228,0.00851089134812,0.000877001613844,-0.00187507015653,-0.00187507015653,-0.00363607285544,-0.0177650414407,-0.388647645712,-0.388647645712,7.27165651321,-1.17839801311,2030,2025,2542,2041,2041,2925,3424,3424,3243,3365,3092,3056,3159,3151,3239,2858,3407,3414,3243,3367,3130,3353,3389,3194
1508405769693969848,150,1508405769693659354,plot_matl,0.0,0.0,1.40129846432e-45,4.59163467805e-41,7.46153271285e+31,4.57439870694e-41,0.349065840244,0.30363330245,1.33018290997,-0.00339881237596,-0.00825054664165,-0.00825054664165,-0.0252195801586,0.000283903063973,-100.563415527,-100.563415527,-140.335128784,-0.346433371305,2005,2037,2225,2041,2041,2919,3374,3389,3233,3333,3069,2893,3026,2944,3118,2734,3326,3350,3183,3269,2914,3262,3318,3050,0.010038908,1.500007794,1.5058362,0.680678427219,4500.0,0.654048621655,0.00776598835364,-0.0266297664493,119.833946228,1.34390354156,6000.0,1.33026361465,-0.026493024081,-0.0136398952454,89.5243835449,0.349065840244,0.0216827709228,0.00851089134812,0.000877001613844,-0.00187507015653,-0.00187507015653,-0.00363607285544,-0.0177650414407,-0.388647645712,-0.388647645712,7.27165651321,-1.17839801311,2025,2027,2542,2041,2041,2925,3424,3424,3243,3365,3092,3056,3159,3148,3238,2858,3405,3413,3243,3364,3130,3354,3388,3194
1508405769703825419,151,1508405769703632877,plot_matl,0.0,0.0,1.40129846432e-45,4.59163467805e-41,7.46153271285e+31,4.57439870694e-41,0.349065840244,0.30363330245,1.33018290997,-0.00339881237596,-0.00825054664165,-0.00825054664165,-0.0252195801586,0.000283903063973,-100.563415527,-100.563415527,-140.335128784,-0.346433371305,2003,2039,2227,2042,2042,2918,3373,3390,3232,3332,3069,2893,3026,2944,3118,2734,3326,3350,3183,3269,2914,3262,3318,3049,0.009972301,1.509980872,1.505817451,0.680678427219,4500.0,0.654048621655,0.00734821055084,-0.0266297664493,119.833946228,1.34390354156,6000.0,1.33034729958,0.0110548743978,-0.0135562419891,77.4842300415,0.349065840244,0.0216827709228,0.00851089134812,0.000877001613844,-0.00187507015653,-0.00187507015653,-0.00363607285544,-0.0177650414407,-0.388647645712,-0.388647645712,7.27165651321,-1.17839801311,2024,2022,2541,2039,2039,2926,3424,3424,3241,3365,3092,3056,3159,3148,3238,2858,3405,3413,3243,3364,3130,3354,3388,3194
1508405769713891545,152,1508405769713639085,plot_matl,0.0,0.0,1.40129846432e-45,4.59163467805e-41,7.46153271285e+31,4.57439870694e-41,0.349065840244,0.30363330245,1.33018290997,-0.00339881237596,-0.00825054664165,-0.00825054664165,-0.0252195801586,0.000283903063973,-100.563415527,-100.563415527,-140.335128784,-0.346433371305,2084,2125,2227,2042,2042,2918,3373,3390,3232,3332,3069,2893,3027,2944,3115,2736,3326,3350,3181,3269,2915,3262,3318,3049,0.010006989,1.519987245,1.521062328,0.680678427219,4500.0,0.654048621655,0.00649744132534,-0.0266297664493,119.833946228,1.34390354156,6000.0,1.33034729958,0.0110548743978,-0.0135562419891,77.4842300415,0.349065840244,0.0216827709228,0.00851089134812,0.000877001613844,-0.00187507015653,-0.00187507015653,-0.00363607285544,-0.0177650414407,-0.388647645712,-0.388647645712,7.27165651321,-1.17839801311,2026,2027,2541,2039,2039,2926,3424,3424,3241,3365,3092,3054,3156,3147,3238,2856,3406,3414,3243,3363,3131,3354,3388,3194
1508405769723938628,153,1508405769723631037,plot_matl,0.0,0.0,1.40129846432e-45,4.59163467805e-41,7.46153271285e+31,4.57439870694e-41,0.349065840244,0.30363330245,1.33040392399,-0.0034087060485,-0.00997261609882,-0.00997261609882,0.0100076496601,0.000492711551487,-100.588912964,-100.588912964,-140.188262939,-0.100041560829,2022,2053,2226,2043,2043,2919,3375,3390,3234,3332,3069,2893,3027,2944,3115,2736,3326,3350,3181,3269,2915,3261,3316,3049,0.009991003,1.529979077,1.528623459,0.680678427219,4500.0,0.654048621655,0.00677663786337,-0.0266297664493,119.833946228,1.34390354156,6000.0,1.33033704758,-0.0276358760893,-0.0135664343834,89.2616882324,0.349065840244,0.0240919683129,0.0084719331935,0.000938847195357,0.0215469896793,0.0215469896793,-0.00259936391376,0.00553304329515,-0.146344542503,-0.146344542503,8.23143768311,-0.757282495499,2040,2029,2541,2037,2037,2926,3425,3424,3241,3365,3092,3054,3156,3147,3238,2856,3406,3414,3243,3363,3131,3352,3388,3194
1508405769733764082,154,1508405769733615059,plot_matl,0.0,0.0,1.40129846432e-45,4.59163467805e-41,7.46153271285e+31,4.57439870694e-41,0.349065840244,0.30363330245,1.33040392399,-0.0034087060485,-0.00997261609882,-0.00997261609882,0.0100076496601,0.000492711551487,-100.588912964,-100.588912964,-140.188262939,-0.100041560829,2029,2063,2226,2043,2043,2919,3375,3390,3234,3331,3069,2896,3028,2949,3117,2737,3323,3348,3181,3269,2915,3261,3316,3049,0.009981892,1.539962253,1.537211368,0.680678427219,4500.0,0.654048621655,0.00553838489577,-0.0266297664493,119.833946228,1.34390354156,6000.0,1.3302693367,0.0128767378628,-0.0136342104524,77.8235778809,0.349065840244,0.0240919683129,0.0084719331935,0.000938847195357,0.0215469896793,0.0215469896793,-0.00259936391376,0.00553304329515,-0.146344542503,-0.146344542503,8.23143768311,-0.757282495499,2030,2036,2541,2037,2037,2926,3425,3424,3241,3364,3093,3054,3157,3147,3239,2857,3406,3414,3241,3363,3131,3352,3388,3194
1508405769743736856,155,1508405769743614863,plot_matl,0.0,0.0,1.40129846432e-45,4.59163467805e-41,7.46153271285e+31,4.57439870694e-41,0.349065840244,0.30363330245,1.33040392399,-0.0034087060485,-0.00997261609882,-0.00997261609882,0.0100076496601,0.000492711551487,-100.588912964,-100.588912964,-140.188262939,-0.100041560829,2001,2043,2225,2041,2041,2920,3375,3390,3234,3331,3069,2896,3028,2949,3117,2737,3323,3348,3181,3267,2914,3262,3319,3047,0.009999282,1.549961817,1.54988871,0.680678427219,4500.0,0.654048621655,0.00497161736712,-0.0266297664493,119.833946228,1.34390354156,6000.0,1.33031761646,0.0119742043316,-0.0135858757421,77.8112564087,0.349065840244,0.0240919683129,0.0084719331935,0.000938847195357,0.0215469896793,0.0215469896793,-0.00259936391376,0.00553304329515,-0.146344542503,-0.146344542503,8.23143768311,-0.757282495499,2018,2027,2542,2041,2041,2926,3422,3424,3241,3364,3093,3054,3157,3147,3239,2857,3406,3414,3241,3365,3131,3352,3388,3194
1508405769754177672,156,1508405769753688267,plot_matl,0.0,0.0,1.40129846432e-45,4.59163467805e-41,7.46153271285e+31,4.57439870694e-41,0.349065840244,0.30363330245,1.33040392399,-0.0034087060485,-0.00997261609882,-0.00997261609882,0.0100076496601,0.000492711551487,-100.588912964,-100.588912964,-140.188262939,-0.100041560829,1965,2003,2225,2041,2041,2920,3375,3391,3234,3333,3071,2894,3028,2943,3117,2734,3322,3348,3181,3267,2914,3262,3319,3047,0.010076591,1.560036904,1.571948196,0.680678427219,4500.0,0.652699172497,-0.0215918980539,-0.027979247272,125.906616211,1.34390354156,6000.0,1.33038806915,0.010576846078,-0.0135154137388,77.9967575073,0.349065840244,0.0240919683129,0.0084719331935,0.000938847195357,0.0215469896793,0.0215469896793,-0.00259936391376,0.00553304329515,-0.146344542503,-0.146344542503,8.23143768311,-0.757282495499,2027,2026,2542,2041,2041,2926,3422,3423,3241,3366,3091,3053,3156,3147,3238,2856,3403,3414,3241,3365,3131,3352,3388,3194
1508405769763880903,157,1508405769763656050,plot_matl,0.0,0.0,1.40129846432e-45,4.59163467805e-41,7.46153271285e+31,4.57439870694e-41,0.349065840244,0.30498278141,1.33037030697,-0.00341639318503,0.00272098858841,0.00272098858841,-0.0281362328678,0.000659093726426,-100.132400513,-100.132400513,-140.199630737,0.175901934505,2000,2039,2227,2041,2041,2920,3375,3391,3234,3333,3071,2894,3028,2943,3117,2734,3322,3347,3184,3267,2914,3260,3318,3050,0.009964977,1.570003428,1.564501389,0.680678427219,4500.0,0.655398130417,0.0324372127652,-0.025280283764,113.761283875,1.34390354156,6000.0,1.33038067818,0.010808089748,-0.0135228009894,78.1037063599,0.349065840244,0.0265011657029,0.00845912005752,0.000873951008543,0.0470283776522,0.0470283776522,-0.00219751312397,0.00685615465045,0.162348717451,0.162348717451,8.52899074554,-1.03042006493,2031,2029,2541,2037,2037,2926,3422,3423,3241,3366,3091,3053,3156,3147,3238,2856,3403,3413,3242,3365,3129,3351,3385,3193
1508405769774001640,158,1508405769773683043,plot_matl,0.0,0.0,1.40129846432e-45,4.59163467805e-41,7.46153271285e+31,4.57439870694e-41,0.349065840244,0.30498278141,1.33037030697,-0.00341639318503,0.00272098858841,0.00272098858841,-0.0281362328678,0.000659093726426,-100.132400513,-100.132400513,-140.199630737,0.175901934505,2031,2095,2227,2041,2041,2918,3373,3390,3233,3332,3069,2892,3027,2945,3114,2734,3322,3347,3184,3267,2914,3260,3318,3050,0.010029238,1.58003169,1.584619604,0.680678427219,4500.0,0.654048621655,0.0042406055145,-0.0266297664493,119.833946228,1.34390354156,6000.0,1.33047866821,0.00884836819023,-0.0134248333052,77.8110046387,0.349065840244,0.0265011657029,0.00845912005752,0.000873951008543,0.0470283776522,0.0470283776522,-0.00219751312397,0.00685615465045,0.162348717451,0.162348717451,8.52899074554,-1.03042006493,2032,2033,2541,2037,2037,2925,3422,3424,3242,3366,3092,3052,3156,3147,3239,2856,3403,3413,3242,3365,3129,3351,3385,3193
1508405769784227302,159,1508405769783681906,plot_matl,0.0,0.0,1.40129846432e-45,4.59163467805e-41,7.46153271285e+31,4.57439870694e-41,0.349065840244,0.30498278141,1.33037030697,-0.00341639318503,0.00272098858841,0.00272098858841,-0.0281362328678,0.000659093726426,-100.132400513,-100.132400513,-140.199630737,0.175901934505,2088,2110,2225,2041,2041,2918,3373,3390,3233,3332,3069,2892,3027,2945,3114,2735,3323,3347,3182,3269,2913,3261,3319,3051,0.009998394,1.590029982,1.589744646,0.680678427219,4500.0,0.654048621655,0.00397530710325,-0.0266297664493,119.833946228,1.34390354156,6000.0,1.33052039146,-0.0310580655932,-0.0133830923587,89.5938262939,0.349065840244,0.0265011657029,0.00845912005752,0.000873951008543,0.0470283776522,0.0470283776522,-0.00219751312397,0.00685615465045,0.162348717451,0.162348717451,8.52899074554,-1.03042006493,2034,2037,2542,2037,2037,2925,3422,3424,3242,3366,3092,3052,3156,3147,3239,2855,3405,3413,3241,3365,3129,3351,3386,3193
1508405769794127033,160,1508405769793697339,plot_matl,0.0,0.0,1.40129846432e-45,4.59163467805e-41,7.46153271285e+31,4.57439870694e-41,0.349065840244,0.30498278141,1.33037030697,-0.00341639318503,0.00272098858841,0.00272098858841,-0.0281362328678,0.000659093726426,-100.132400513,-100.132400513,-140.199630737,0.175901934505,2029,2067,2225,2041,2041,2919,3374,3390,3234,3333,3070,2895,3028,2945,3114,2735,3323,3347,3182,3269,2913,3261,3319,3051,0.010016301,1.600046576,1.60260816,0.680678427219,4500.0,0.654048621655,0.00272227777168,-0.0266297664493,119.833946228,1.34390354156,6000.0,1.33059346676,0.00656128814444,-0.0133100766689,77.887298584,0.349065840244,0.0265011657029,0.00845912005752,0.000873951008543,0.0470283776522,0.0470283776522,-0.00219751312397,0.00685615465045,0.162348717451,0.162348717451,8.52899074554,-1.03042006493,2025,2022,2542,2037,2037,2924,3422,3423,3241,3363,3091,3053,3156,3147,3239,2855,3405,3413,3241,3365,3129,3351,3386,3193
1508405769804010933,161,1508405769803666397,plot_matl,0.0,0.0,1.40129846432e-45,4.59163467805e-41,7.46153271285e+31,4.57439870694e-41,0.349065840244,0.30498278141,1.33060598373,-0.00343827530742,0.00130910065491,0.00130910065491,0.00631044059992,0.00111350731459,-100.355537415,-100.355537415,-139.855560303,0.455394864082,2024,2061,2225,2041,2041,2919,3374,3390,3234,3333,3070,2895,3028,2949,3120,2736,3323,3348,3182,3268,2913,3261,3318,3051,0.009967222,1.610014617,1.604722742,0.680678427219,4500.0,0.652699172497,-0.0234903879464,-0.027979247272,125.906616211,1.34390354156,6000.0,1.3306145668,-0.0329304896295,-0.0132890110835,89.5305709839,0.349065840244,0.0216827709228,0.00846745166928,0.00085371528985,-0.00112370378338,-0.00112370378338,-0.00231718621217,-0.0171556454152,-0.0216467864811,-0.0216467864811,8.43912506104,-0.97803401947,2022,2028,2542,2037,2037,2924,3422,3423,3241,3363,3091,3053,3156,3148,3239,2856,3405,3413,3241,3364,3129,3352,3385,3193
1508405769813948060,162,1508405769813629563,plot_matl,0.0,0.0,1.40129846432e-45,4.59163467805e-41,7.46153271285e+31,4.57439870694e-41,0.349065840244,0.30498278141,1.33060598373,-0.00343827530742,0.00130910065491,0.00130910065491,0.00631044059992,0.00111350731459,-100.355537415,-100.355537415,-139.855560303,0.455394864082,1940,1985,2225,2039,2039,2919,3375,3389,3235,3332,3070,2895,3028,2949,3120,2736,3323,3348,3182,3268,2913,3261,3318,3051,0.009962153,1.619977643,1.613868786,0.680678427219,4500.0,0.652699172497,-0.0234903879464,-0.027979247272,125.906616211,1.34390354156,6000.0,1.33063495159,0.00571223068982,-0.0132685946301,78.0646896362,0.349065840244,0.0216827709228,0.00846745166928,0.00085371528985,-0.00112370378338,-0.00112370378338,-0.00231718621217,-0.0171556454152,-0.0216467864811,-0.0216467864811,8.43912506104,-0.97803401947,2035,2036,2541,2039,2039,2925,3424,3422,3241,3363,3092,3053,3156,3148,3239,2856,3405,3413,3241,3364,3129,3352,3385,3193
1508405769824050080,163,1508405769823682146,plot_matl,0.0,0.0,1.40129846432e-45,4.59163467805e-41,7.46153271285e+31,4.57439870694e-41,0.349065840244,0.30498278141,1.33060598373,-0.00343827530742,0.00130910065491,0.00130910065491,0.00631044059992,0.00111350731459,-100.355537415,-100.355537415,-139.855560303,0.455394864082,2013,2049,2225,2039,2039,2919,3375,3389,3235,3332,3070,2894,3028,2943,3118,2735,3324,3350,3181,3268,2915,3261,3318,3051,0.010052589,1.630030556,1.638572007,0.680678427219,4500.0,0.654048621655,0.00437575206161,-0.0266297664493,119.833946228,1.34390354156,6000.0,1.33054661751,0.00749144004658,-0.0133569194004,77.8080444336,0.349065840244,0.0216827709228,0.00846745166928,0.00085371528985,-0.00112370378338,-0.00112370378338,-0.00231718621217,-0.0171556454152,-0.0216467864811,-0.0216467864811,8.43912506104,-0.97803401947,2029,2026,2541,2039,2039,2925,3424,3422,3241,3363,3092,3053,3155,3148,3239,2857,3403,3414,3241,3365,3128,3352,3385,3193
1508405769834023687,164,1508405769833636526,plot_matl,0.0,0.0,1.40129846432e-45,4.59163467805e-41,7.46153271285e+31,4.57439870694e-41,0.349065840244,0.30498278141,1.33060598373,-0.00343827530742,0.00130910065491,0.00130910065491,0.00631044059992,0.00111350731459,-100.355537415,-100.355537415,-139.855560303,0.455394864082,1999,2035,2227,2035,2035,2917,3375,3389,3235,3332,3070,2894,3028,2943,3118,2735,3324,3350,3181,3268,2915,3262,3319,3052,0.009954722,1.639985082,1.632574408,0.680678427219,4500.0,0.654048621655,0.00458179228008,-0.0266297664493,119.833946228,1.34390354156,6000.0,1.33050370216,-0.0306978020817,-0.0133998738602,89.6769638062,0.349065840244,0.0216827709228,0.00846745166928,0.00085371528985,-0.00112370378338,-0.00112370378338,-0.00231718621217,-0.0171556454152,-0.0216467864811,-0.0216467864811,8.43912506104,-0.97803401947,2023,2014,2541,2037,2037,2926,3423,3423,3240,3363,3092,3053,3155,3148,3239,2857,3403,3414,3241,3365,3128,3352,3386,3192
1508405769843889663,165,1508405769843635287,plot_matl,0.0,0.0,1.40129846432e-45,4.59163467805e-41,7.46153271285e+31,4.57439870694e-41,0.349065840244,0.30363330245,1.33044445515,-0.0034241960384,-0.0114208376035,-0.0114208376035,-0.0294988509268,0.000829195836559,-100.217308044,-100.217308044,-140.005065918,0.454564988613,2036,2098,2227,2035,2035,2917,3375,3389,3235,3333,3071,2892,3027,2943,3118,2735,3324,3349,3182,3268,2915,3262,3319,3052,0.009997512,1.649983512,1.64958948,0.680678427219,4500.0,0.654048621655,0.00424687378109,-0.0266297664493,119.833946228,1.34390354156,6000.0,1.3303757906,0.0109484009445,-0.0135277332738,77.6154403687,0.349065840244,0.0216827709228,0.00844228360802,0.000950197165366,0.00109678169247,0.00109678169247,-0.00177765858825,0.00533656962216,0.0588940829039,0.0588940829039,8.04240322113,-1.31126487255,2032,2023,2541,2037,2037,2926,3423,3423,3240,3365,3092,3053,3157,3147,3237,2857,3404,3413,3243,3365,3128,3352,3386,3192
1508405769853826493,166,1508405769853624022,plot_matl,0.0,0.0,1.40129846432e-45,4.59163467805e-41,7.46153271285e+31,4.57439870694e-41,0.349065840244,0.30363330245,1.33044445515,-0.0034241960384,-0.0114208376035,-0.0114208376035,-0.0294988509268,0.000829195836559,-100.217308044,-100.217308044,-140.005065918,0.454564988613,2075,2101,2225,2035,2035,2918,3373,3389,3235,3333,3071,2892,3027,2943,3118,2735,3324,3349,3182,3267,2913,3261,3318,3049,0.009987469,1.659971554,1.657919854,0.680678427219,4500.0,0.654048621655,0.00486810645089,-0.0266297664493,119.833946228,1.34390354156,6000.0,1.33041071892,0.0102768288925,-0.013492862694,77.8733291626,0.349065840244,0.0216827709228,0.00844228360802,0.000950197165366,0.00109678169247,0.00109678169247,-0.00177765858825,0.00533656962216,0.0588940829039,0.0588940829039,8.04240322113,-1.31126487255,2029,2020,2542,2040,2040,2924,3422,3423,3240,3365,3092,3053,3157,3147,3237,2857,3404,3413,3243,3364,3130,3349,3385,3194
1508405769863940565,167,1508405769863642191,plot_matl,0.0,0.0,1.40129846432e-45,4.59163467805e-41,7.46153271285e+31,4.57439870694e-41,0.349065840244,0.30363330245,1.33044445515,-0.0034241960384,-0.0114208376035,-0.0114208376035,-0.0294988509268,0.000829195836559,-100.217308044,-100.217308044,-140.005065918,0.454564988613,2032,2065,2225,2035,2035,2918,3373,3389,3235,3334,3067,2896,3028,2949,3116,2737,3324,3349,3182,3267,2913,3261,3318,3049,0.010017294,1.669989557,1.672888098,0.680678427219,4500.0,0.654048621655,0.00502508506179,-0.0266297664493,119.833946228,1.34390354156,6000.0,1.33043432236,0.00987410452217,-0.0134692322463,77.6745986938,0.349065840244,0.0216827709228,0.00844228360802,0.000950197165366,0.00109678169247,0.00109678169247,-0.00177765858825,0.00533656962216,0.0588940829039,0.0588940829039,8.04240322113,-1.31126487255,2020,2020,2542,2040,2040,2924,3422,3424,3241,3363,3092,3053,3156,3148,3237,2856,3406,3413,3243,3364,3130,3349,3385,3194
1508405769873942302,168,1508405769873640877,plot_matl,0.0,0.0,1.40129846432e-45,4.59163467805e-41,7.46153271285e+31,4.57439870694e-41,0.349065840244,0.30363330245,1.33044445515,-0.0034241960384,-0.0114208376035,-0.0114208376035,-0.0294988509268,0.000829195836559,-100.217308044,-100.217308044,-140.005065918,0.454564988613,2055,2092,2226,2035,2035,2918,3373,3389,3235,3334,3067,2896,3028,2949,3116,2737,3324,3347,3184,3269,2913,3259,3319,3050,0.010001114,1.679989668,1.680187152,0.680678427219,4500.0,0.654048621655,0.00464272359386,-0.0266297664493,119.833946228,1.34390354156,6000.0,1.33052277565,0.00808018818498,-0.0133808022365,77.7559585571,0.349065840244,0.0216827709228,0.00844228360802,0.000950197165366,0.00109678169247,0.00109678169247,-0.00177765858825,0.00533656962216,0.0588940829039,0.0588940829039,8.04240322113,-1.31126487255,2025,2020,2541,2038,2038,2924,3422,3424,3241,3363,3092,3053,3156,3148,3237,2856,3406,3411,3243,3364,3130,3350,3389,3193
1508405769883938530,169,1508405769883624979,plot_matl,0.0,0.0,1.40129846432e-45,4.59163467805e-41,7.46153271285e+31,4.57439870694e-41,0.349065840244,0.30498278141,1.33049964905,-0.00338813476264,0.00223400769755,0.00223400769755,-0.030531777069,8.79701692611e-05,-99.7322006226,-99.7322006226,-140.309082031,0.196572065353,1911,1957,2226,2035,2035,2917,3376,3388,3233,3332,3071,2893,3029,2942,3117,2737,3324,3347,3184,3269,2913,3259,3319,3050,0.00998228,1.689972723,1.68700532,0.680678427219,4500.0,0.654048621655,0.00485107535496,-0.0266297664493,119.833946228,1.34390354156,6000.0,1.3304541111,0.00946722086519,-0.0134494183585,78.0576629639,0.349065840244,0.0216827709228,0.00848508626223,0.000986101222225,-0.00134083640296,-0.00134083640296,0.0127070164308,0.00454950099811,-0.124193884432,-0.124193884432,7.49231481552,-1.25367510319,2027,2026,2541,2038,2038,2925,3425,3424,3242,3365,3092,3052,3156,3146,3237,2856,3406,3411,3243,3364,3130,3350,3389,3193
1508405769893970088,170,1508405769893624485,plot_matl,0.0,0.0,1.40129846432e-45,4.59163467805e-41,7.46153271285e+31,4.57439870694e-41,0.349065840244,0.30498278141,1.33049964905,-0.00338813476264,0.00223400769755,0.00223400769755,-0.030531777069,8.79701692611e-05,-99.7322006226,-99.7322006226,-140.309082031,0.196572065353,2015,2055,2227,2035,2035,2917,3376,3388,3233,3332,3071,2893,3029,2942,3117,2735,3324,3348,3181,3268,2914,3261,3319,3051,0.01000962,1.699981792,1.7016354,0.680678427219,4500.0,0.654048621655,0.00545457145199,-0.0266297664493,119.833946228,1.34390354156,6000.0,1.3303592205,-0.027725726366,-0.0135443564504,89.3238220215,0.349065840244,0.0216827709228,0.00848508626223,0.000986101222225,-0.00134083640296,-0.00134083640296,0.0127070164308,0.00454950099811,-0.124193884432,-0.124193884432,7.49231481552,-1.25367510319,2023,2025,2542,2038,2038,2925,3425,3424,3242,3365,3092,3052,3156,3146,3237,2856,3405,3413,3243,3365,3129,3350,3386,3193
1508405769903996169,171,1508405769903657561,plot_matl,0.0,0.0,1.40129846432e-45,4.59163467805e-41,7.46153271285e+31,4.57439870694e-41,0.349065840244,0.30498278141,1.33049964905,-0.00338813476264,0.00223400769755,0.00223400769755,-0.030531777069,8.79701692611e-05,-99.7322006226,-99.7322006226,-140.309082031,0.196572065353,1998,2040,2227,2038,2038,2916,3373,3388,3233,3332,3068,2893,3028,2942,3117,2735,3324,3348,3181,3268,2914,3261,3319,3051,0.010022946,1.710005761,1.713923766,0.680678427219,4500.0,0.654048621655,0.00495551200584,-0.0266297664493,119.833946228,1.34390354156,6000.0,1.33032488823,0.0120387589559,-0.0135786272585,77.6947479248,0.349065840244,0.0216827709228,0.00848508626223,0.000986101222225,-0.00134083640296,-0.00134083640296,0.0127070164308,0.00454950099811,-0.124193884432,-0.124193884432,7.49231481552,-1.25367510319,2025,2021,2542,2037,2037,2926,3422,3422,3242,3363,3090,3053,3157,3146,3237,2856,3405,3413,3243,3365,3129,3350,3386,3193
1508405769914083624,172,1508405769913667092,plot_matl,0.0,0.0,1.40129846432e-45,4.59163467805e-41,7.46153271285e+31,4.57439870694e-41,0.349065840244,0.30498278141,1.33049964905,-0.00338813476264,0.00223400769755,0.00223400769755,-0.030531777069,8.79701692611e-05,-99.7322006226,-99.7322006226,-140.309082031,0.196572065353,2089,2135,2227,2038,2038,2916,3373,3388,3233,3332,3068,2893,3028,2944,3118,2734,3323,3351,3181,3267,2913,3260,3319,3051,0.010010072,1.720015723,1.721732384,0.680678427219,4500.0,0.655398130417,0.0331734567881,-0.025280283764,113.761283875,1.34390354156,6000.0,1.33040189743,0.0105279460549,-0.0135016422719,77.9464263916,0.349065840244,0.0216827709228,0.00848508626223,0.000986101222225,-0.00134083640296,-0.00134083640296,0.0127070164308,0.00454950099811,-0.124193884432,-0.124193884432,7.49231481552,-1.25367510319,2020,2018,2542,2037,2037,2926,3422,3422,3242,3363,3090,3053,3157,3148,3239,2856,3406,3411,3242,3364,3128,3350,3386,3193
1508405769923950567,173,1508405769923630334,plot_matl,0.0,0.0,1.40129846432e-45,4.59163467805e-41,7.46153271285e+31,4.57439870694e-41,0.349065840244,0.30363330245,1.33051276207,-0.00343220075592,-0.0105394972488,-0.0105394972488,0.00828025862575,0.000960922217928,-99.9154281616,-99.9154281616,-140.134246826,0.03880713135,2025,2059,2225,2039,2039,2919,3376,3390,3235,3333,3071,2893,3028,2944,3118,2734,3323,3351,3181,3267,2913,3260,3319,3049,0.0099615,1.729978327,1.7233395,0.680678427219,4500.0,0.654048621655,0.00531246559694,-0.0266297664493,119.833946228,1.34390354156,6000.0,1.33049583435,0.00862197950482,-0.0134076569229,77.8515014648,0.349065840244,0.0216827709228,0.00846290588379,0.000950198271312,-0.00364873395301,-0.00364873395301,-0.00218357914127,0.00524417450652,-0.391519367695,-0.391519367695,9.4586763382,-1.27359640598,2035,2032,2541,2037,2037,2925,3424,3423,3241,3363,3091,3053,3157,3148,3239,2856,3406,3411,3242,3364,3128,3350,3386,3191
1508405769933798303,174,1508405769933624722,plot_matl,0.0,0.0,1.40129846432e-45,4.59163467805e-41,7.46153271285e+31,4.57439870694e-41,0.349065840244,0.30363330245,1.33051276207,-0.00343220075592,-0.0105394972488,-0.0105394972488,0.00828025862575,0.000960922217928,-99.9154281616,-99.9154281616,-140.134246826,0.03880713135,2039,2074,2225,2039,2039,2919,3376,3390,3235,3333,3071,2894,3028,2949,3118,2738,3321,3349,3181,3266,2913,3260,3319,3049,0.009993144,1.739972028,1.738807056,0.680678427219,4500.0,0.652699172497,-0.0204461850226,-0.027979247272,125.906616211,1.34390354156,6000.0,1.33050322533,0.00848265830427,-0.0134002817795,77.8723831177,0.349065840244,0.0216827709228,0.00846290588379,0.000950198271312,-0.00364873395301,-0.00364873395301,-0.00218357914127,0.00524417450652,-0.391519367695,-0.391519367695,9.4586763382,-1.27359640598,2027,2022,2541,2037,2037,2925,3424,3423,3241,3363,3091,3055,3156,3147,3237,2855,3404,3412,3241,3367,3129,3350,3386,3191
1508405769943805409,175,1508405769943620052,plot_matl,0.0,0.0,1.40129846432e-45,4.59163467805e-41,7.46153271285e+31,4.57439870694e-41,0.349065840244,0.30363330245,1.33051276207,-0.00343220075592,-0.0105394972488,-0.0105394972488,0.00828025862575,0.000960922217928,-99.9154281616,-99.9154281616,-140.134246826,0.03880713135,2014,2048,2226,2035,2035,2919,3375,3388,3234,3333,3071,2894,3028,2949,3118,2738,3321,3349,3181,3266,2913,3260,3320,3049,0.00999559,1.749967369,1.74922825,0.680678427219,4500.0,0.654048621655,0.0070209573023,-0.0266297664493,119.833946228,1.34390354156,6000.0,1.33057940006,0.00693611195311,-0.0133241117001,77.8326187134,0.349065840244,0.0216827709228,0.00846290588379,0.000950198271312,-0.00364873395301,-0.00364873395301,-0.00218357914127,0.00524417450652,-0.391519367695,-0.391519367695,9.4586763382,-1.27359640598,2021,2022,2542,2037,2037,2924,3425,3422,3241,3363,3091,3055,3156,3147,3237,2855,3404,3412,3241,3367,3129,3351,3386,3190
1508405769953989164,176,1508405769953646060,plot_matl,0.0,0.0,1.40129846432e-45,4.59163467805e-41,7.46153271285e+31,4.57439870694e-41,0.349065840244,0.30363330245,1.33051276207,-0.00343220075592,-0.0105394972488,-0.0105394972488,0.00828025862575,0.000960922217928,-99.9154281616,-99.9154281616,-140.134246826,0.03880713135,1974,2009,2226,2035,2035,2919,3375,3388,3234,3334,3071,2894,3027,2940,3115,2733,3322,3349,3182,3266,2913,3260,3320,3049,0.010027882,1.75999445,1.764907232,0.680678427219,4500.0,0.655398130417,0.0344014279544,-0.025280283764,113.761283875,1.34390354156,6000.0,1.33060836792,0.00634730327874,-0.0132951969281,77.7305526733,0.349065840244,0.0216827709228,0.00846290588379,0.000950198271312,-0.00364873395301,-0.00364873395301,-0.00218357914127,0.00524417450652,-0.391519367695,-0.391519367695,9.4586763382,-1.27359640598,2025,2021,2542,2037,2037,2924,3425,3422,3241,3364,3092,3053,3157,3147,3238,2855,3404,3412,3241,3367,3129,3351,3386,3190
1508405769964012907,177,1508405769963645738,plot_matl,0.0,0.0,1.40129846432e-45,4.59163467805e-41,7.46153271285e+31,4.57439870694e-41,0.349065840244,0.30363330245,1.33058214188,-0.00342923123389,-0.00991189200431,-0.00991189200431,-0.032198201865,0.000900303246453,-100.131622314,-100.131622314,-140.179626465,-0.0281149111688,2005,2040,2227,2034,2034,2918,3373,3388,3234,3334,3071,2894,3027,2940,3115,2733,3322,3349,3182,3268,2913,3259,3321,3049,0.009998405,1.769993704,1.769717685,0.680678427219,4500.0,0.652699172497,-0.0208485778421,-0.027979247272,125.906616211,1.34390354156,6000.0,1.3304861784,0.00882432237267,-0.0134173352271,77.762260437,0.349065840244,0.0216827709228,0.00845627300441,0.000995510257781,-0.00291285500862,-0.00291285500862,-0.00204591080546,0.00429486762732,-0.476390004158,-0.476390004158,8.90957260132,-0.661039054394,2030,2025,2542,2035,2035,2926,3422,3422,3241,3364,3092,3053,3157,3147,3238,2855,3404,3412,3241,3364,3129,3351,3387,3194
