%time,field.header.seq,field.header.stamp,field.header.frame_id,field.FFJ4_set_point,field.FFJ4_position_gain,field.FFJ4_process_value,field.FFJ4_process_value_dot,field.FFJ4_error,field.FFJ4_command,field.FFJ1,field.FFJ2,field.FFJ3,field.FFJ4,field.FFJ1_dot,field.FFJ2_dot,field.FFJ3_dot,field.FFJ4_dot,field.FFJ1_tao,field.FFJ2_tao,field.FFJ3_tao,field.FFJ4_tao,field.pac0,field.pac1,field.pdc0,field.tac0,field.tdc0,field.el0,field.el1,field.el2,field.el3,field.el4,field.el5,field.el6,field.el7,field.el8,field.el9,field.el10,field.el11,field.el12,field.el13,field.el14,field.el15,field.el16,field.el17,field.el18,field.dt,field.time,field.test_time2,field.FFJ0_set_point,field.FFJ0_position_gain,field.FFJ0_process_value,field.FFJ0_process_value_dot,field.FFJ0_error,field.FFJ0_command,field.FFJ3_set_point,field.FFJ3_position_gain,field.FFJ3_process_value,field.FFJ3_process_value_dot,field.FFJ3_error,field.FFJ3_command,field.MFJ1,field.MFJ2,field.MFJ3,field.MFJ4,field.MFJ1_dot,field.MFJ2_dot,field.MFJ3_dot,field.MFJ4_dot,field.MFJ1_tao,field.MFJ2_tao,field.MFJ3_tao,field.MFJ4_tao,field.Mpac0,field.Mpac1,field.Mpdc0,field.Mtac0,field.Mtdc0,field.Mel0,field.Mel1,field.Mel2,field.Mel3,field.Mel4,field.Mel5,field.Mel6,field.Mel7,field.Mel8,field.Mel9,field.Mel10,field.Mel11,field.Mel12,field.Mel13,field.Mel14,field.Mel15,field.Mel16,field.Mel17,field.Mel18
1508405804445283051,99,1508405804445035479,plot_matl,0.0,0.0,1.40129846432e-45,4.59163467805e-41,3.76600548472e+22,4.5860294842e-41,0.349065840244,0.30498278141,1.33031952381,-0.00346273020841,0.00137783971149,0.00137783971149,0.0121609000489,0.00161167769693,-99.2382965088,-99.2382965088,-137.721405029,-0.247560873628,1949,1986,2223,2028,2028,2912,3374,3388,3232,3330,3068,2894,3028,2949,3114,2738,3321,3346,3180,3266,2910,3257,3315,3048,0.009989105,0.989950443,0.988921395,0.680678427219,4500.0,0.654048621655,0.00236072484404,-0.0266297664493,119.833946228,1.34390354156,6000.0,1.33031976223,0.0121190920472,-0.0135837402195,77.7228851318,0.349065840244,0.0216827709228,0.00838062353432,0.000787081487942,-0.00553720304742,-0.00553720304742,-0.000518518849276,0.00890855211765,1.23213493824,1.23213493824,-5.9908413887,-1.2178747654,2028,2019,2543,2033,2033,2924,3424,3423,3241,3363,3092,3054,3156,3147,3236,2855,3405,3413,3241,3366,3128,3351,3389,3193
1508405804455206810,100,1508405804455028359,plot_matl,0.0,0.0,1.40129846432e-45,4.59163467805e-41,3.76600548472e+22,4.5860294842e-41,0.349065840244,0.30498278141,1.33033144474,-0.00345849641599,0.00162858713884,0.00162858713884,0.0119313783944,-0.00823317468166,-99.2289505005,-99.2289505005,-137.894119263,-0.274674862623,1982,2020,2223,2028,2028,2912,3374,3388,3227,3331,3066,2893,3027,2946,3115,2736,3321,3346,3180,3266,2910,3257,3315,3048,0.009992309,0.999943238,0.9992309,0.680678427219,4500.0,0.654048621655,0.00346662220545,-0.0266297664493,119.833946228,1.34390354156,6000.0,1.33029460907,-0.0264132265002,-0.013608917594,88.724067688,0.349065840244,0.0216827709228,0.00838867202401,0.000775045424234,-0.00628584902734,-0.00628584902734,-0.000690190470777,0.00902817025781,1.25719475746,1.25719475746,-4.86803340912,-1.50786662102,2019,2019,2543,2033,2033,2924,3425,3423,3240,3362,3089,3053,3155,3148,3238,2853,3405,3413,3241,3366,3128,3351,3389,3193
1508405804465681500,101,1508405804465093311,plot_matl,0.0,0.0,1.40129846432e-45,4.59163467805e-41,3.76600548472e+22,4.5860294842e-41,0.349065840244,0.30498278141,1.33039844036,-0.0034813133534,0.00108575518243,0.00108575518243,-0.028523042798,-0.00777077395469,-99.0056991577,-99.0056991577,-137.955596924,-0.188165724277,2126,2174,2222,2026,2026,2912,3374,3388,3227,3331,3066,2893,3027,2946,3115,2736,3320,3347,3179,3266,2911,3257,3314,3045,0.010067649,1.010009149,1.016832549,0.680678427219,4500.0,0.654048621655,0.00282764574513,-0.0266297664493,119.833946228,1.34390354156,6000.0,1.3304091692,0.0103579685092,-0.0134943015873,77.5412979126,0.349065840244,0.0216827709228,0.00838260911405,0.000742957869079,-0.00509621249512,-0.00509621249512,-0.000564810878132,-0.0147918555886,1.28365039825,1.28365039825,-3.94871878624,-1.49293267727,2032,2034,2544,2034,2034,2924,3425,3423,3240,3362,3089,3053,3155,3148,3238,2853,3404,3413,3242,3364,3130,3351,3385,3193
1508405804475514740,102,1508405804475063723,plot_matl,0.0,0.0,1.40129846432e-45,4.59163467805e-41,3.76600548472e+22,4.5860294842e-41,0.349065840244,0.30498278141,1.33049309254,-0.00346374092624,0.000184405420441,0.000184405420441,0.00862803962082,0.00163045770023,-99.0466918945,-99.0466918945,-138.049743652,-0.156585752964,2027,2065,2222,2026,2026,2915,3369,3387,3231,3332,3067,2894,3027,2951,3115,2736,3320,3347,3179,3266,2911,3257,3314,3045,0.009969605,1.019980177,1.01689971,0.680678427219,4500.0,0.655398130417,0.0276554916054,-0.025280283764,113.761283875,1.34390354156,6000.0,1.33046627045,0.00916965771466,-0.0134372804314,78.1481933594,0.349065840244,0.0216827709228,0.00839207042009,0.000712887966074,-0.00458350405097,-0.00458350405097,-0.00073406600859,-0.0142598319799,1.48989737034,1.48989737034,-3.74108290672,-1.60021007061,2031,2018,2544,2034,2034,2924,3422,3423,3240,3366,3091,3054,3156,3146,3238,2853,3404,3413,3242,3364,3130,3351,3385,3193
1508405804485547910,103,1508405804485116757,plot_matl,0.0,0.0,1.40129846432e-45,4.59163467805e-41,3.76600548472e+22,4.5860294842e-41,0.349065840244,0.30498278141,1.33049559593,-0.0034921397455,0.000140590229421,0.000140590229421,0.00850082654506,-0.00753968534991,-99.070526123,-99.070526123,-138.031494141,-0.183027669787,1994,2001,2222,2026,2026,2915,3369,3387,3231,3332,3067,2894,3027,2951,3117,2739,3323,3348,3178,3265,2907,3258,3316,3046,0.010052258,1.03003277,1.035382574,0.680678427219,4500.0,0.654048621655,0.000860202126205,-0.0266297664493,119.833946228,1.34390354156,6000.0,1.33046925068,-0.0300540588796,-0.0134343234822,89.5907592773,0.349065840244,0.0216827709228,0.00838542729616,0.000671558605973,-0.0042105903849,-0.0042105903849,-0.000601449748501,-0.0134436264634,1.3599075079,1.3599075079,-3.55222201347,-1.59443855286,2016,2021,2544,2034,2034,2924,3422,3423,3240,3366,3091,3054,3156,3146,3237,2855,3405,3413,3241,3364,3129,3350,3385,3195
1508405804495388316,104,1508405804495048181,plot_matl,0.0,0.0,1.40129846432e-45,4.59163467805e-41,3.76600548472e+22,4.5860294842e-41,0.349065840244,0.30498278141,1.33053445816,-0.00351670058444,0.000781784008723,0.000781784008723,-0.031349003315,0.00269471015781,-98.990020752,-98.990020752,-137.998519897,-0.0883184596896,1944,1986,2223,2027,2027,2913,3369,3387,3230,3331,3065,2893,3027,2951,3117,2739,3323,3348,3178,3265,2907,3258,3316,3046,0.009930732,1.039963958,1.032796128,0.680678427219,4500.0,0.654048621655,0.00222180550918,-0.0266297664493,119.833946228,1.34390354156,6000.0,1.33055114746,0.00739040924236,-0.0133523922414,77.8728103638,0.349065840244,0.0216827709228,0.00839504785836,0.000659113808069,-0.00520551996306,-0.00520551996306,0.0145478909835,0.0112207550555,1.22393143177,1.22393143177,-3.88584280014,-1.62227892876,2021,2017,2542,2031,2031,2924,3424,3423,3239,3363,3092,3055,3156,3146,3237,2855,3405,3413,3241,3364,3129,3350,3385,3195
1508405804505295607,105,1508405804505035801,plot_matl,0.0,0.0,1.40129846432e-45,4.59163467805e-41,3.76600548472e+22,4.5860294842e-41,0.349065840244,0.30498278141,1.33049881458,-0.00349280610681,0.000871782016475,0.000871782016475,0.00844611600041,0.00220841076225,-99.0757217407,-99.0757217407,-137.937210083,-0.228292003274,2000,2035,2223,2027,2027,2913,3369,3387,3230,3331,3065,2893,3025,2945,3116,2734,3321,3346,3181,3264,2910,3260,3316,3046,0.00998712,1.049951459,1.0486476,0.680678427219,4500.0,0.654048621655,0.00185048941057,-0.0266297664493,119.833946228,1.34390354156,6000.0,1.33047294617,-0.0301227979362,-0.0134305683896,89.4456634521,0.349065840244,0.0216827709228,0.00838787481189,0.000718713679817,-0.00512664718553,-0.00512664718553,-0.000650972360745,0.0100127616897,1.28732991219,1.28732991219,-3.11341762543,-1.46608936787,2033,2031,2542,2031,2031,2924,3424,3423,3239,3363,3092,3055,3155,3146,3237,2855,3406,3411,3243,3366,3129,3350,3385,3195
1508405804515521165,106,1508405804515078848,plot_matl,0.0,0.0,1.40129846432e-45,4.59163467805e-41,3.76600548472e+22,4.5860294842e-41,0.349065840244,0.30633226037,1.33047318459,-0.0034905844368,0.0138262137771,0.0138262137771,0.00899943895638,0.00215320684947,-99.1054916382,-99.1054916382,-137.869781494,-0.357979893684,2132,2179,2225,2023,2023,2913,3370,3389,3230,3329,3065,2893,3025,2945,3116,2734,3321,3346,3181,3264,2910,3260,3316,3046,0.010043047,1.059994505,1.064562982,0.680678427219,4500.0,0.655398130417,0.0277089234442,-0.025280283764,113.761283875,1.34390354156,6000.0,1.33048558235,0.00873170327395,-0.0134179610759,77.884765625,0.349065840244,0.0240919683129,0.00839540362358,0.000754997250624,0.0183616168797,0.0183616168797,-0.000801643356681,0.0092637417838,1.39085102081,1.39085102081,-3.06336116791,-1.54851424694,2029,2023,2542,2035,2035,2923,3425,3423,3242,3365,3092,3055,3155,3146,3237,2855,3406,3411,3243,3366,3129,3350,3388,3193
1508405804525378035,107,1508405804525096191,plot_matl,0.0,0.0,1.40129846432e-45,4.59163467805e-41,3.76600548472e+22,4.5860294842e-41,0.349065840244,0.30498278141,1.33048510551,-0.00347179314122,0.00017562082212,0.00017562082212,0.00877482909709,-0.00799134094268,-99.0064697266,-99.0064697266,-137.775466919,-0.294643014669,2009,2050,2225,2023,2023,2913,3370,3389,3230,3329,3067,2892,3026,2951,3117,2738,3323,3348,3180,3264,2910,3260,3316,3046,0.010017193,1.070012139,1.071839651,0.680678427219,4500.0,0.652699172497,-0.0268790274858,-0.027979247272,125.906616211,1.34390354156,6000.0,1.33045852184,-0.0297543760389,-0.0134450336918,89.6094512939,0.349065840244,0.0216827709228,0.00837412755936,0.000812720216345,-0.00491121923551,-0.00491121923551,-0.000379063887522,0.00806436035782,1.24176323414,1.24176323414,-3.52982997894,-1.36419653893,2022,2018,2542,2035,2035,2923,3425,3423,3242,3365,3092,3053,3157,3146,3239,2855,3406,3413,3242,3365,3129,3350,3388,3193
1508405804535507092,108,1508405804535058234,plot_matl,0.0,0.0,1.40129846432e-45,4.59163467805e-41,3.76600548472e+22,4.5860294842e-41,0.349065840244,0.30498278141,1.33048963547,-0.00345588801429,0.000639335601591,0.000639335601591,-0.03045995906,0.00145260395948,-98.8235168457,-98.8235168457,-137.997299194,-0.342405080795,2010,2010,2223,2027,2027,2913,3372,3385,3230,3329,3067,2892,3026,2951,3117,2738,3323,3348,3180,3264,2910,3258,3315,3046,0.009963125,1.079974928,1.0760175,0.680678427219,4500.0,0.654048621655,0.000788814912084,-0.0266297664493,119.833946228,1.34390354156,6000.0,1.33050525188,0.00831188447773,-0.0133982952684,77.7735366821,0.349065840244,0.0240919683129,0.0083707049489,0.000840160821099,0.0189489237964,0.0189489237964,-0.000310158997308,0.00750021450222,1.19781637192,1.19781637192,-3.36578416824,-1.24423635006,2035,2020,2542,2033,2033,2923,3424,3422,3242,3365,3092,3053,3157,3146,3239,2855,3406,3413,3242,3365,3130,3350,3387,3193
1508405804545415142,109,1508405804545042622,plot_matl,0.0,0.0,1.40129846432e-45,4.59163467805e-41,3.76600548472e+22,4.5860294842e-41,0.349065840244,0.30498278141,1.33053004742,-0.00346750835888,0.00102211034391,0.00102211034391,0.00778462830931,0.00169953971636,-98.8765029907,-98.8765029907,-137.863189697,-0.315622061491,1962,2000,2223,2027,2027,2913,3372,3385,3227,3330,3065,2894,3026,2945,3114,2735,3320,3346,3180,3264,2910,3258,3315,3046,0.009982054,1.089958224,1.088043886,0.680678427219,4500.0,0.654048621655,0.00162500014994,-0.0266297664493,119.833946228,1.34390354156,6000.0,1.33050596714,0.0082623809576,-0.0133975250646,77.893119812,0.349065840244,0.0240919683129,0.00839522760361,0.000844563066494,0.0185302346945,0.0185302346945,-0.000795707223006,0.00743973487988,1.0899810791,1.0899810791,-3.79438781738,-1.1896879673,2026,2028,2542,2033,2033,2923,3424,3422,3240,3364,3093,3053,3156,3146,3236,2853,3405,3412,3242,3365,3130,3350,3387,3193
1508405804555176846,110,1508405804555025338,plot_matl,0.0,0.0,1.40129846432e-45,4.59163467805e-41,3.76600548472e+22,4.5860294842e-41,0.349065840244,0.30498278141,1.33056712151,-0.00347895547748,0.000595361692831,0.000595361692831,0.0070252912119,-0.00783374160528,-98.9003829956,-98.9003829956,-137.857528687,-0.295480668545,1997,2028,2223,2027,2027,2911,3372,3385,3227,3330,3065,2894,3026,2945,3114,2735,3320,3346,3180,3265,2910,3260,3318,3047,0.009980853,1.099940131,1.09789383,0.680678427219,4500.0,0.654048621655,0.00181244011037,-0.0266297664493,119.833946228,1.34390354156,6000.0,1.33054554462,0.00745285209268,-0.0133579699323,77.8998718262,0.349065840244,0.0216827709228,0.00838802661747,0.000801219313871,-0.0060036717914,-0.0060036717914,-0.000652200484183,-0.016180858016,1.21357274055,1.21357274055,-4.23723983765,-1.29034388065,2036,2029,2543,2037,2037,2923,3424,3422,3240,3364,3093,3053,3156,3146,3236,2853,3405,3412,3242,3366,3130,3351,3386,3194
1508405804565440101,111,1508405804565092899,plot_matl,0.0,0.0,1.40129846432e-45,4.59163467805e-41,3.76600548472e+22,4.5860294842e-41,0.349065840244,0.30498278141,1.33063161373,-0.00353086180985,0.00125782249961,0.00125782249961,0.00574502488598,0.00297827576287,-98.8489990234,-98.8489990234,-137.653747559,-0.241633236408,1997,2028,2223,2027,2027,2911,3372,3385,3227,3330,3065,2894,3026,2945,3114,2735,3320,3346,3180,3265,2910,3260,3318,3047,0.010070032,1.110009178,1.117773552,0.680678427219,4500.0,0.652699172497,-0.0237886682153,-0.027979247272,125.906616211,1.34390354156,6000.0,1.3306428194,0.00552198663354,-0.0132606942207,77.9363479614,0.349065840244,0.0216827709228,0.0083820624277,0.000735433481168,-0.00490958243608,-0.00490958243608,-0.000533345621079,0.00972971599549,1.24084293842,1.24084293842,-3.43824362755,-1.31582069397,2036,2029,2543,2037,2037,2923,3424,3422,3240,3364,3093,3053,3156,3146,3236,2853,3405,3412,3242,3366,3130,3351,3386,3194
1508405804575461945,112,1508405804575048277,plot_matl,0.0,0.0,1.40129846432e-45,4.59163467805e-41,3.76600548472e+22,4.5860294842e-41,0.349065840244,0.30498278141,1.33046638966,-0.00350549747236,0.00211250479333,0.00211250479333,0.00749340746552,0.00246286415495,-98.7190093994,-98.7190093994,-137.819915771,-0.199816897511,2058,2081,2223,2027,2027,2911,3372,3388,3232,3332,3079,2905,3037,2959,3124,2743,3320,3346,3180,3265,2910,3260,3318,3047,0.009954235,1.119964185,1.11487432,0.680678427219,4500.0,0.652699172497,-0.0237886682153,-0.027979247272,125.906616211,1.34390354156,6000.0,1.3306428194,0.00552198663354,-0.0132606942207,77.9363479614,0.349065840244,0.0216827709228,0.00837743096054,0.000797378947027,-0.00405994430184,-0.00405994430184,-0.000441046402557,0.00845080334693,1.21610486507,1.21610486507,-5.35802173615,-1.01525449753,2040,2039,2543,2037,2037,2923,3423,3423,3240,3363,3105,3062,3164,3156,3242,2859,3405,3412,3242,3366,3130,3351,3386,3194
1508405804585410426,113,1508405804585056151,plot_matl,0.0,0.0,1.40129846432e-45,4.59163467805e-41,3.76600548472e+22,4.5860294842e-41,0.349065840244,0.30633226037,1.3305131197,-0.00350066460669,0.0160432420671,0.0160432420671,0.00682919239625,0.00236910674721,-98.729927063,-98.729927063,-137.815032959,-0.1930590868,1980,2012,2222,2030,2030,2911,3372,3388,3232,3332,3079,2905,3037,2959,3124,2743,3342,3362,3192,3277,2919,3268,3323,3054,0.01000809,1.129972357,1.13091417,0.680678427219,4500.0,0.654048621655,0.00557813886553,-0.0266297664493,119.833946228,1.34390354156,6000.0,1.3304964304,0.00710831722245,-0.0134070850909,77.8689117432,0.349065840244,0.0216827709228,0.00838583987206,0.000762688694522,-0.00546006904915,-0.00546006904915,-0.000613159907516,0.00914892368019,1.17707359791,1.17707359791,-5.36642169952,-0.825194895267,2026,2026,2544,2033,2033,2923,3423,3423,3240,3363,3105,3062,3164,3156,3242,2859,3423,3428,3254,3379,3140,3363,3395,3204
1508405804595393678,114,1508405804595052519,plot_matl,0.0,0.0,1.40129846432e-45,4.59163467805e-41,3.76600548472e+22,4.5860294842e-41,0.349065840244,0.30633226037,1.3305131197,-0.00350066460669,0.0160432420671,0.0160432420671,0.00682919239625,0.00236910674721,-98.729927063,-98.729927063,-137.815032959,-0.1930590868,1980,2012,2222,2030,2030,2911,3372,3388,3232,3332,3079,2905,3037,2959,3124,2743,3342,3362,3192,3277,2919,3268,3323,3054,0.009995988,1.139968327,1.139542632,0.680678427219,4500.0,0.652699172497,-0.0221280883998,-0.027979247272,125.906616211,1.34390354156,6000.0,1.33053970337,0.00650161132216,-0.0133637804538,77.7897491455,0.349065840244,0.0216827709228,0.00838583987206,0.000762688694522,-0.00546006904915,-0.00546006904915,-0.000613159907516,0.00914892368019,1.17707359791,1.17707359791,-5.36642169952,-0.825194895267,2026,2026,2544,2033,2033,2923,3423,3423,3240,3363,3105,3062,3164,3156,3242,2859,3423,3428,3254,3379,3140,3363,3395,3204
1508405804605446646,115,1508405804605041082,plot_matl,0.0,0.0,1.40129846432e-45,4.59163467805e-41,3.76600548472e+22,4.5860294842e-41,0.349065840244,0.30363330245,1.33043634892,-0.00352678378113,-0.0111377025023,-0.0111377025023,-0.0303651876748,0.00252387858927,-98.7683410645,-98.7683410645,-138.343811035,-0.058155246079,1969,2007,2222,2030,2030,2918,3377,3395,3235,3336,3072,2895,3030,2949,3124,2743,3342,3362,3192,3277,2919,3268,3323,3054,0.009988245,1.149957088,1.148648175,0.680678427219,4500.0,0.652699172497,-0.0221280883998,-0.027979247272,125.906616211,1.34390354156,6000.0,1.33053970337,0.00650161132216,-0.0133637804538,77.7897491455,0.349065840244,0.0216827709228,0.00840918347239,0.000769493810367,-0.00578244589269,-0.00578244589269,-0.00102456624154,0.00805826485157,1.12930834293,1.12930834293,-4.32055473328,-0.902681529522,2021,2027,2544,2033,2033,2930,3428,3430,3246,3368,3094,3056,3160,3150,3242,2859,3423,3428,3254,3379,3140,3363,3395,3204
1508405804615440342,116,1508405804615065348,plot_matl,0.0,0.0,1.40129846432e-45,4.59163467805e-41,3.76600548472e+22,4.5860294842e-41,0.349065840244,0.30498278141,1.33038640022,-0.00350970984437,0.00178517389577,0.00178517389577,0.00994645990431,0.00224025826901,-99.0307312012,-99.0307312012,-138.315750122,-0.0834924653172,2055,2075,2222,2030,2030,2918,3377,3395,3235,3336,3072,2895,3030,2949,3119,2738,3326,3363,3194,3279,2920,3269,3326,3056,0.010023423,1.159980973,1.162717068,0.680678427219,4500.0,0.654048621655,0.00470168283209,-0.0266297664493,119.833946228,1.34390354156,6000.0,1.33042728901,-0.0301023107022,-0.0134761892259,89.2897644043,0.349065840244,0.0216827709228,0.00841393694282,0.000804593437351,-0.00652617355809,-0.00652617355809,-0.00112948194146,0.00749724218622,1.07313036919,1.07313036919,-4.69190073013,-0.945125281811,2029,2023,2544,2033,2033,2930,3428,3430,3246,3368,3094,3056,3160,3150,3241,2857,3410,3429,3256,3378,3141,3360,3396,3202
1508405804625485688,117,1508405804625050902,plot_matl,0.0,0.0,1.40129846432e-45,4.59163467805e-41,3.76600548472e+22,4.5860294842e-41,0.349065840244,0.30498278141,1.33034145832,-0.00351383793168,0.00144505640492,0.00144505640492,-0.0280367527157,-0.00738735962659,-99.1338272095,-99.1338272095,-138.390441895,0.00634559383616,2051,2073,2223,2030,2030,2918,3378,3393,3234,3337,3069,2898,3030,2949,3119,2738,3326,3363,3194,3279,2920,3269,3326,3056,0.009986219,1.16996683,1.168387623,0.680678427219,4500.0,0.654048621655,0.00335758691654,-0.0266297664493,119.833946228,1.34390354156,6000.0,1.33041834831,0.0093537401408,-0.0134852249175,77.9902572632,0.349065840244,0.0216827709228,0.00840326119214,0.000809340155683,-0.00576309161261,-0.00576309161261,-0.000923838233575,-0.0169812440872,0.989207148552,0.989207148552,-4.49466276169,-1.24720025063,2035,2029,2543,2031,2031,2928,3429,3429,3245,3369,3096,3056,3160,3150,3241,2857,3410,3429,3256,3378,3141,3360,3396,3202
1508405804635337583,118,1508405804635052513,plot_matl,0.0,0.0,1.40129846432e-45,4.59163467805e-41,3.76600548472e+22,4.5860294842e-41,0.349065840244,0.30498278141,1.33034932613,-0.00350803416222,0.00194263271987,0.00194263271987,0.0110561270267,0.00231218524277,-99.2092590332,-99.2092590332,-138.236450195,-0.0168768633157,2050,2084,2223,2030,2030,2918,3378,3393,3234,3337,3069,2898,3029,2954,3118,2740,3325,3349,3182,3268,2910,3260,3326,3056,0.010000854,1.179968462,1.180100772,0.680678427219,4500.0,0.654048621655,0.00272490829229,-0.0266297664493,119.833946228,1.34390354156,6000.0,1.33030164242,0.0118776094168,-0.0136018274352,77.9220199585,0.349065840244,0.0216827709228,0.00842309743166,0.000793995801359,-0.00555024947971,-0.00555024947971,-0.0013222246198,-0.0165579803288,0.893494427204,0.893494427204,-4.99652194977,-1.25678443909,2030,2022,2543,2031,2031,2928,3429,3429,3245,3369,3096,3056,3161,3152,3239,2858,3410,3415,3245,3366,3131,3354,3396,3202
1508405804645509325,119,1508405804645066471,plot_matl,0.0,0.0,1.40129846432e-45,4.59163467805e-41,3.76600548472e+22,4.5860294842e-41,0.349065840244,0.30633226037,1.33038282394,-0.00347712030634,0.0154329352081,0.0154329352081,0.0103900162503,0.0017121998826,-99.1373825073,-99.1373825073,-137.915512085,0.0219611506909,1929,1943,2221,2034,2034,2913,3374,3387,3233,3331,3069,2898,3029,2954,3118,2740,3325,3349,3182,3268,2910,3260,3320,3048,0.010013361,1.189982313,1.191589959,0.680678427219,4500.0,0.654048621655,0.00420665415004,-0.0266297664493,119.833946228,1.34390354156,6000.0,1.33034610748,0.0111195025966,-0.0135573716834,78.2359848022,0.349065840244,0.0240919683129,0.00843835435808,0.000848006515298,0.0171550475061,0.0171550475061,-0.00160816824064,0.00696861092001,0.946186482906,0.946186482906,-4.76552963257,-1.20755910873,2030,2031,2542,2037,2037,2925,3424,3422,3241,3365,3096,3056,3161,3152,3239,2858,3410,3415,3245,3366,3131,3354,3388,3196
1508405804655453117,120,1508405804655075019,plot_matl,0.0,0.0,1.40129846432e-45,4.59163467805e-41,3.76600548472e+22,4.5860294842e-41,0.349065840244,0.30498278141,1.33040750027,-0.00346952071413,0.000734044588171,0.000734044588171,0.00989598501474,-0.00817506015301,-99.1488189697,-99.1488189697,-137.849380493,0.094794139266,2007,2037,2221,2034,2034,2913,3374,3387,3233,3331,3068,2894,3027,2946,3117,2736,3323,3348,3180,3266,2910,3260,3320,3048,0.010008979,1.199991137,1.20107748,0.680678427219,4500.0,0.654048621655,0.0028668649029,-0.0266297664493,119.833946228,1.34390354156,6000.0,1.33037340641,0.0105213094503,-0.0135300802067,77.7982177734,0.349065840244,0.0216827709228,0.00842329487205,0.000889860733878,-0.00765336072072,-0.00765336072072,-0.00131657533348,-0.0182873569429,0.885576426983,0.885576426983,-4.04972553253,-1.09743177891,2023,2022,2542,2037,2037,2925,3424,3422,3241,3365,3093,3053,3157,3148,3238,2856,3407,3414,3244,3365,3131,3354,3388,3196
1508405804665624308,121,1508405804665112753,plot_matl,0.0,0.0,1.40129846432e-45,4.59163467805e-41,3.76600548472e+22,4.5860294842e-41,0.349065840244,0.30498278141,1.33039474487,-0.00347245973535,0.000298748956993,0.000298748956993,0.0102323358878,-0.00808779895306,-99.0949249268,-99.0949249268,-137.898010254,-0.0138079850003,2057,2073,2224,2031,2031,2914,3373,3388,3233,3331,3068,2894,3027,2946,3117,2736,3323,3348,3180,3266,2912,3260,3317,3048,0.010037955,1.210028736,1.214592555,0.680678427219,4500.0,0.654048621655,0.00243284809403,-0.0266297664493,119.833946228,1.34390354156,6000.0,1.33039939404,0.0100671714172,-0.0135041233152,77.9938354492,0.349065840244,0.0216827709228,0.00842351280153,0.000902640284039,-0.00712354434654,-0.00712354434654,-0.00134014384821,0.00600753678009,0.906321883202,0.906321883202,-3.63641619682,-0.900087714195,2021,2026,2542,2033,2033,2923,3424,3423,3241,3365,3093,3053,3157,3148,3238,2856,3407,3414,3244,3365,3131,3352,3388,3192
1508405804675537470,122,1508405804675052490,plot_matl,0.0,0.0,1.40129846432e-45,4.59163467805e-41,3.76600548472e+22,4.5860294842e-41,0.349065840244,0.30498278141,1.33039474487,-0.00347245973535,0.000298748956993,0.000298748956993,0.0102323358878,-0.00808779895306,-99.0949249268,-99.0949249268,-137.898010254,-0.0138079850003,2053,2077,2224,2031,2031,2914,3373,3388,3231,3331,3068,2894,3026,2951,3117,2739,3321,3345,3180,3266,2912,3260,3317,3048,0.00993865,1.219968468,1.2125153,0.680678427219,4500.0,0.654048621655,0.000562018307392,-0.0266297664493,119.833946228,1.34390354156,6000.0,1.33034992218,-0.0279148947448,-0.0135536035523,89.8343811035,0.349065840244,0.0216827709228,0.00842351280153,0.000902640284039,-0.00712354434654,-0.00712354434654,-0.00134014384821,0.00600753678009,0.906321883202,0.906321883202,-3.63641619682,-0.900087714195,2038,2031,2542,2033,2033,2923,3424,3423,3241,3364,3091,3052,3156,3148,3238,2854,3407,3412,3244,3365,3131,3352,3388,3192
1508405804685320471,123,1508405804685044705,plot_matl,0.0,0.0,1.40129846432e-45,4.59163467805e-41,3.76600548472e+22,4.5860294842e-41,0.349065840244,0.30498278141,1.33039474487,-0.00347245973535,0.000298748956993,0.000298748956993,0.0102323358878,-0.00808779895306,-99.0949249268,-99.0949249268,-137.898010254,-0.0138079850003,2045,2080,2223,2028,2028,2914,3373,3388,3231,3331,3068,2894,3026,2951,3117,2739,3321,3345,3180,3265,2910,3256,3316,3047,0.009990352,1.22995984,1.228813296,0.680678427219,4500.0,0.655398130417,0.0282458215952,-0.025280283764,113.761283875,1.34390354156,6000.0,1.33027589321,-0.0263887960464,-0.0136276734993,89.4681625366,0.349065840244,0.0216827709228,0.00842351280153,0.000902640284039,-0.00712354434654,-0.00712354434654,-0.00134014384821,0.00600753678009,0.906321883202,0.906321883202,-3.63641619682,-0.900087714195,2029,2026,2542,2035,2035,2925,3424,3423,3241,3364,3091,3052,3156,3148,3238,2854,3407,3412,3241,3365,3129,3353,3388,3194
1508405804695490912,124,1508405804695035580,plot_matl,0.0,0.0,1.40129846432e-45,4.59163467805e-41,3.76600548472e+22,4.5860294842e-41,0.349065840244,0.30498278141,1.33039474487,-0.00347245973535,0.000298748956993,0.000298748956993,0.0102323358878,-0.00808779895306,-99.0949249268,-99.0949249268,-137.898010254,-0.0138079850003,1913,1940,2223,2028,2028,2914,3373,3387,3232,3331,3067,2893,3025,2946,3115,2734,3321,3345,3180,3265,2910,3256,3316,3047,0.009991538,1.239951227,1.238950712,0.680678427219,4500.0,0.654048621655,0.000794757099357,-0.0266297664493,119.833946228,1.34390354156,6000.0,1.33032178879,0.0117781516165,-0.0135817462578,78.1413192749,0.349065840244,0.0216827709228,0.00842351280153,0.000902640284039,-0.00712354434654,-0.00712354434654,-0.00134014384821,0.00600753678009,0.906321883202,0.906321883202,-3.63641619682,-0.900087714195,2031,2034,2542,2035,2035,2925,3424,3423,3241,3363,3092,3053,3156,3147,3239,2855,3407,3412,3241,3365,3129,3353,3388,3194
1508405804705530559,125,1508405804705077113,plot_matl,0.0,0.0,1.40129846432e-45,4.59163467805e-41,3.76600548472e+22,4.5860294842e-41,0.349065840244,0.30633226037,1.33032715321,-0.0034606331028,0.0134620694444,0.0134620694444,0.0117037808523,0.00147417513654,-99.1920623779,-99.1920623779,-137.683685303,0.206069871783,2013,2059,2223,2027,2027,2914,3373,3387,3232,3331,3067,2893,3025,2946,3115,2734,3321,3346,3181,3265,2911,3258,3315,3044,0.010042866,1.249993116,1.25535825,0.680678427219,4500.0,0.654048621655,-0.000323165528243,-0.0266297664493,119.833946228,1.34390354156,6000.0,1.33032572269,-0.0273122414947,-0.0135777564719,89.1973114014,0.349065840244,0.0240919683129,0.00842325016856,0.000820152985398,0.018833970651,0.018833970651,-0.00136469665449,0.0077580078505,0.93091660738,0.93091660738,-4.57568693161,-0.625854849815,2029,2028,2544,2036,2036,2925,3424,3423,3241,3363,3092,3053,3156,3147,3239,2855,3404,3414,3242,3365,3130,3351,3388,3195
1508405804715514138,126,1508405804715063526,plot_matl,0.0,0.0,1.40129846432e-45,4.59163467805e-41,3.76600548472e+22,4.5860294842e-41,0.349065840244,0.30633226037,1.33032715321,-0.0034606331028,0.0134620694444,0.0134620694444,0.0117037808523,0.00147417513654,-99.1920623779,-99.1920623779,-137.683685303,0.206069871783,2064,2086,2223,2027,2027,2911,3373,3388,3230,3331,3068,2892,3026,2949,3115,2734,3321,3346,3181,3265,2911,3258,3315,3044,0.009985641,1.259979489,1.258190766,0.680678427219,4500.0,0.652699172497,-0.0260454583913,-0.027979247272,125.906616211,1.34390354156,6000.0,1.33022284508,-0.0251835845411,-0.0136807085946,89.5453109741,0.349065840244,0.0240919683129,0.00842325016856,0.000820152985398,0.018833970651,0.018833970651,-0.00136469665449,0.0077580078505,0.93091660738,0.93091660738,-4.57568693161,-0.625854849815,2026,2026,2544,2036,2036,2923,3423,3425,3239,3365,3090,3054,3156,3148,3239,2855,3404,3414,3242,3365,3130,3351,3388,3195
1508405804725323990,127,1508405804725059526,plot_matl,0.0,0.0,1.40129846432e-45,4.59163467805e-41,3.76600548472e+22,4.5860294842e-41,0.349065840244,0.30633226037,1.33032715321,-0.0034606331028,0.0134620694444,0.0134620694444,0.0117037808523,0.00147417513654,-99.1920623779,-99.1920623779,-137.683685303,0.206069871783,2053,2085,2223,2027,2027,2911,3373,3388,3230,3331,3068,2892,3026,2949,3115,2738,3322,3345,3181,3263,2908,3258,3316,3046,0.009994005,1.269975143,1.269238635,0.680678427219,4500.0,0.654048621655,0.00197278498672,-0.0266297664493,119.833946228,1.34390354156,6000.0,1.33021056652,0.0141642801464,-0.0136929471046,77.6604919434,0.349065840244,0.0240919683129,0.00842325016856,0.000820152985398,0.018833970651,0.018833970651,-0.00136469665449,0.0077580078505,0.93091660738,0.93091660738,-4.57568693161,-0.625854849815,2037,2039,2544,2036,2036,2923,3423,3425,3239,3365,3090,3054,3156,3148,3238,2854,3405,3415,3241,3364,3129,3350,3388,3192
1508405804735477472,128,1508405804735057491,plot_matl,0.0,0.0,1.40129846432e-45,4.59163467805e-41,3.76600548472e+22,4.5860294842e-41,0.349065840244,0.30633226037,1.33032715321,-0.0034606331028,0.0134620694444,0.0134620694444,0.0117037808523,0.00147417513654,-99.1920623779,-99.1920623779,-137.683685303,0.206069871783,2043,2082,2222,2028,2028,2914,3372,3388,3233,3330,3067,2893,3026,2949,3115,2738,3322,3345,3181,3263,2908,3258,3316,3046,0.009997967,1.279973216,1.279739776,0.680678427219,4500.0,0.652699172497,-0.025119997561,-0.027979247272,125.906616211,1.34390354156,6000.0,1.33022928238,-0.0251884832978,-0.0136742210016,89.9193115234,0.349065840244,0.0240919683129,0.00842325016856,0.000820152985398,0.018833970651,0.018833970651,-0.00136469665449,0.0077580078505,0.93091660738,0.93091660738,-4.57568693161,-0.625854849815,2029,2029,2542,2035,2035,2924,3422,3423,3240,3364,3092,3053,3156,3148,3238,2854,3405,3415,3241,3364,3129,3350,3388,3192
1508405804745426931,129,1508405804745078978,plot_matl,0.0,0.0,1.40129846432e-45,4.59163467805e-41,3.76600548472e+22,4.5860294842e-41,0.349065840244,0.30498278141,1.33024704456,-0.00350143387914,0.00143850618042,0.00143850618042,0.0135443517938,-0.00738863367587,-99.302406311,-99.302406311,-137.985137939,0.228014424443,1917,1938,2222,2028,2028,2914,3372,3388,3233,3330,3067,2893,3026,2950,3116,2737,3324,3346,3179,3264,2910,3258,3316,3046,0.010021305,1.289994895,1.292748345,0.680678427219,4500.0,0.654048621655,0.00323306210339,-0.0266297664493,119.833946228,1.34390354156,6000.0,1.33021116257,-0.0248062033206,-0.0136923352256,89.4251861572,0.349065840244,0.0216827709228,0.00842624809593,0.000822985835839,-0.00804405938834,-0.00804405938834,0.0139094656333,-0.0166000127792,0.81554377079,0.81554377079,-4.96385955811,-0.979252099991,2028,2032,2542,2035,2035,2924,3422,3423,3240,3364,3092,3053,3155,3147,3239,2854,3405,3414,3241,3365,3129,3352,3388,3192
1508405804755292165,130,1508405804755068423,plot_matl,0.0,0.0,1.40129846432e-45,4.59163467805e-41,3.76600548472e+22,4.5860294842e-41,0.349065840244,0.30498278141,1.33024704456,-0.00350143387914,0.00143850618042,0.00143850618042,0.0135443517938,-0.00738863367587,-99.302406311,-99.302406311,-137.985137939,0.228014424443,2019,2051,2223,2030,2030,2913,3370,3388,3231,3329,3067,2893,3026,2950,3116,2737,3324,3346,3179,3264,2910,3258,3318,3047,0.009988673,1.299983639,1.29852749,0.680678427219,4500.0,0.654048621655,0.00419392343611,-0.0266297664493,119.833946228,1.34390354156,6000.0,1.33030641079,0.0123610813171,-0.0135971577838,78.0123672485,0.349065840244,0.0216827709228,0.00842624809593,0.000822985835839,-0.00804405938834,-0.00804405938834,0.0139094656333,-0.0166000127792,0.81554377079,0.81554377079,-4.96385955811,-0.979252099991,2022,2024,2542,2038,2038,2924,3424,3424,3241,3364,3092,3053,3155,3147,3239,2854,3405,3414,3241,3365,3129,3352,3389,3195
1508405804765348665,131,1508405804765042582,plot_matl,0.0,0.0,1.40129846432e-45,4.59163467805e-41,3.76600548472e+22,4.5860294842e-41,0.349065840244,0.30498278141,1.33024704456,-0.00350143387914,0.00143850618042,0.00143850618042,0.0135443517938,-0.00738863367587,-99.302406311,-99.302406311,-137.985137939,0.228014424443,2071,2088,2223,2030,2030,2913,3370,3388,3231,3329,3067,2893,3025,2945,3117,2736,3323,3346,3182,3265,2910,3258,3318,3047,0.00997394,1.309957739,1.30658614,0.680678427219,4500.0,0.654048621655,0.00440198276192,-0.0266297664493,119.833946228,1.34390354156,6000.0,1.3303476572,-0.0275390017778,-0.0135558620095,89.5596313477,0.349065840244,0.0216827709228,0.00842624809593,0.000822985835839,-0.00804405938834,-0.00804405938834,0.0139094656333,-0.0166000127792,0.81554377079,0.81554377079,-4.96385955811,-0.979252099991,2020,2026,2542,2038,2038,2924,3424,3424,3241,3364,3092,3054,3157,3148,3239,2855,3403,3413,3242,3367,3129,3352,3389,3195
1508405804775518375,132,1508405804775069303,plot_matl,0.0,0.0,1.40129846432e-45,4.59163467805e-41,3.76600548472e+22,4.5860294842e-41,0.349065840244,0.30498278141,1.33024704456,-0.00350143387914,0.00143850618042,0.00143850618042,0.0135443517938,-0.00738863367587,-99.302406311,-99.302406311,-137.985137939,0.228014424443,2062,2088,2222,2031,2031,2912,3372,3388,3231,3329,3067,2893,3025,2945,3117,2736,3323,3346,3182,3265,2908,3258,3316,3044,0.010027153,1.319985185,1.323584196,0.680678427219,4500.0,0.655398130417,0.0308273434639,-0.025280283764,113.761283875,1.34390354156,6000.0,1.33024168015,0.0137106226757,-0.0136618372053,77.9543685913,0.349065840244,0.0216827709228,0.00842624809593,0.000822985835839,-0.00804405938834,-0.00804405938834,0.0139094656333,-0.0166000127792,0.81554377079,0.81554377079,-4.96385955811,-0.979252099991,2028,2040,2542,2032,2032,2923,3423,3422,3241,3364,3092,3054,3157,3148,3239,2855,3403,3413,3242,3367,3128,3353,3388,3193
1508405804785482120,133,1508405804785063648,plot_matl,0.0,0.0,1.40129846432e-45,4.59163467805e-41,3.76600548472e+22,4.5860294842e-41,0.349065840244,0.30363330245,1.33018410206,-0.00347314495593,-0.0118188997731,-0.0118188997731,-0.0242157205939,-0.00796702317894,-99.2358169556,-99.2358169556,-137.909133911,0.470447987318,2051,2081,2222,2031,2031,2912,3372,3388,3232,3332,3067,2895,3028,2951,3117,2738,3321,3347,3182,3265,2908,3258,3316,3044,0.009994049,1.329979401,1.329208517,0.680678427219,4500.0,0.654048621655,0.00288349483162,-0.0266297664493,119.833946228,1.34390354156,6000.0,1.33018684387,0.0147522287443,-0.0137167135254,78.1647033691,0.349065840244,0.0216827709228,0.00839554518461,0.000911485461984,-0.00566017068923,-0.00566017068923,-0.000813634484075,-0.0183921661228,0.860624134541,0.860624134541,-5.53150415421,-1.29543340206,2027,2030,2542,2032,2032,2923,3423,3422,3240,3363,3090,3052,3156,3147,3236,2855,3406,3413,3242,3367,3128,3353,3388,3193
1508405804795577747,134,1508405804795082525,plot_matl,0.0,0.0,1.40129846432e-45,4.59163467805e-41,3.76600548472e+22,4.5860294842e-41,0.349065840244,0.30363330245,1.33018410206,-0.00347314495593,-0.0118188997731,-0.0118188997731,-0.0242157205939,-0.00796702317894,-99.2358169556,-99.2358169556,-137.909133911,0.470447987318,1933,1945,2222,2031,2031,2913,3372,3388,3232,3332,3067,2895,3028,2951,3117,2738,3321,3347,3180,3264,2910,3258,3316,3046,0.010019895,1.339998739,1.34266593,0.680678427219,4500.0,0.654048621655,0.00287260301411,-0.0266297664493,119.833946228,1.34390354156,6000.0,1.33013868332,-0.0233818106353,-0.013764899224,89.5927963257,0.349065840244,0.0216827709228,0.00839554518461,0.000911485461984,-0.00566017068923,-0.00566017068923,-0.000813634484075,-0.0183921661228,0.860624134541,0.860624134541,-5.53150415421,-1.29543340206,2033,2028,2543,2033,2033,2924,3423,3422,3240,3363,3090,3052,3156,3147,3236,2855,3406,3413,3241,3364,3129,3351,3385,3194
1508405804805275532,135,1508405804805055370,plot_matl,0.0,0.0,1.40129846432e-45,4.59163467805e-41,3.76600548472e+22,4.5860294842e-41,0.349065840244,0.30363330245,1.33018410206,-0.00347314495593,-0.0118188997731,-0.0118188997731,-0.0242157205939,-0.00796702317894,-99.2358169556,-99.2358169556,-137.909133911,0.470447987318,2032,2062,2222,2031,2031,2913,3369,3388,3231,3331,3067,2893,3025,2947,3115,2734,3321,3347,3180,3264,2910,3258,3316,3046,0.009970077,1.349970557,1.345960395,0.680678427219,4500.0,0.654048621655,0.00332738040015,-0.0266297664493,119.833946228,1.34390354156,6000.0,1.33024299145,0.0135740516707,-0.0136605268344,77.7712020874,0.349065840244,0.0216827709228,0.00839554518461,0.000911485461984,-0.00566017068923,-0.00566017068923,-0.000813634484075,-0.0183921661228,0.860624134541,0.860624134541,-5.53150415421,-1.29543340206,2032,2024,2543,2033,2033,2924,3424,3421,3240,3363,3091,3052,3156,3146,3237,2854,3406,3413,3241,3364,3129,3351,3385,3194
1508405804815152517,136,1508405804815021049,plot_matl,0.0,0.0,1.40129846432e-45,4.59163467805e-41,3.76600548472e+22,4.5860294842e-41,0.349065840244,0.30363330245,1.33018410206,-0.00347314495593,-0.0118188997731,-0.0118188997731,-0.0242157205939,-0.00796702317894,-99.2358169556,-99.2358169556,-137.909133911,0.470447987318,2072,2090,2222,2033,2033,2913,3369,3388,3231,3331,3067,2893,3025,2947,3115,2734,3320,3347,3179,3266,2910,3257,3314,3046,0.009964268,1.359935683,1.355140448,0.680678427219,4500.0,0.654048621655,0.00415554642677,-0.0266297664493,119.833946228,1.34390354156,6000.0,1.33019185066,-0.0244533848017,-0.0137116936967,89.4053039551,0.349065840244,0.0216827709228,0.00839554518461,0.000911485461984,-0.00566017068923,-0.00566017068923,-0.000813634484075,-0.0183921661228,0.860624134541,0.860624134541,-5.53150415421,-1.29543340206,2016,2018,2542,2033,2033,2924,3424,3421,3240,3363,3091,3052,3156,3146,3237,2854,3404,3412,3241,3366,3129,3349,3388,3194
1508405804825403580,137,1508405804825036768,plot_matl,0.0,0.0,1.40129846432e-45,4.59163467805e-41,3.76600548472e+22,4.5860294842e-41,0.349065840244,0.30498278141,1.33021700382,-0.00348004931584,0.00178788951598,0.00178788951598,0.0141340009868,0.00194702425506,-98.8976516724,-98.8976516724,-137.636978149,0.238154768944,2054,2079,2222,2033,2033,2912,3374,3386,3232,3331,3068,2892,3028,2951,3115,2734,3320,3347,3179,3266,2910,3257,3314,3046,0.010017941,1.369952575,1.372457917,0.680678427219,4500.0,0.655398130417,0.0300896503031,-0.025280283764,113.761283875,1.34390354156,6000.0,1.33025813103,0.0133098801598,-0.0136454505846,77.8678207397,0.349065840244,0.0216827709228,0.00840257294476,0.000837656436488,-0.00556958420202,-0.00556958420202,-0.000963420956396,0.00754873547703,1.04241108894,1.04241108894,-4.36849737167,-1.47656846046,2022,2019,2542,2033,2033,2923,3423,3424,3242,3363,3090,3052,3156,3147,3237,2854,3404,3412,3241,3366,3129,3349,3388,3194
1508405804835419213,138,1508405804835059845,plot_matl,0.0,0.0,1.40129846432e-45,4.59163467805e-41,3.76600548472e+22,4.5860294842e-41,0.349065840244,0.30498278141,1.33021700382,-0.00348004931584,0.00178788951598,0.00178788951598,0.0141340009868,0.00194702425506,-98.8976516724,-98.8976516724,-137.636978149,0.238154768944,2053,2084,2222,2033,2033,2912,3374,3386,3232,3331,3068,2892,3028,2951,3117,2738,3323,3345,3178,3264,2910,3257,3316,3047,0.010023395,1.379975883,1.38322851,0.680678427219,4500.0,0.652699172497,-0.0235087387264,-0.027979247272,125.906616211,1.34390354156,6000.0,1.33027327061,0.0130566768348,-0.0136302467436,77.9591674805,0.349065840244,0.0216827709228,0.00840257294476,0.000837656436488,-0.00556958420202,-0.00556958420202,-0.000963420956396,0.00754873547703,1.04241108894,1.04241108894,-4.36849737167,-1.47656846046,2034,2030,2542,2033,2033,2923,3423,3424,3242,3363,3090,3052,3156,3147,3238,2854,3405,3413,3241,3366,3131,3352,3389,3195
1508405804845574575,139,1508405804845082385,plot_matl,0.0,0.0,1.40129846432e-45,4.59163467805e-41,3.76600548472e+22,4.5860294842e-41,0.349065840244,0.30498278141,1.33021700382,-0.00348004931584,0.00178788951598,0.00178788951598,0.0141340009868,0.00194702425506,-98.8976516724,-98.8976516724,-137.636978149,0.238154768944,1915,1945,2222,2032,2032,2912,3373,3388,3229,3330,3067,2892,3028,2951,3117,2738,3323,3345,3178,3264,2910,3257,3316,3047,0.010021698,1.389998327,1.393016022,0.680678427219,4500.0,0.652699172497,-0.0221275091171,-0.027979247272,125.906616211,1.34390354156,6000.0,1.33031868935,0.0120690977201,-0.013584792614,78.0793762207,0.349065840244,0.0216827709228,0.00840257294476,0.000837656436488,-0.00556958420202,-0.00556958420202,-0.000963420956396,0.00754873547703,1.04241108894,1.04241108894,-4.36849737167,-1.47656846046,2022,2024,2542,2032,2032,2923,3424,3425,3241,3364,3093,3052,3156,3147,3238,2854,3405,3413,3241,3366,3131,3352,3389,3195
1508405804855443268,140,1508405804855111862,plot_matl,0.0,0.0,1.40129846432e-45,4.59163467805e-41,3.76600548472e+22,4.5860294842e-41,0.349065840244,0.30498278141,1.33021700382,-0.00348004931584,0.00178788951598,0.00178788951598,0.0141340009868,0.00194702425506,-98.8976516724,-98.8976516724,-137.636978149,0.238154768944,2011,2051,2222,2032,2032,2912,3373,3388,3229,3330,3067,2892,3024,2946,3116,2735,3322,3346,3179,3263,2909,3258,3316,3047,0.010028882,1.400027444,1.40404348,0.680678427219,4500.0,0.655398130417,0.0309417769313,-0.025280283764,113.761283875,1.34390354156,6000.0,1.33032310009,0.0119682513177,-0.0135804163292,77.8556518555,0.349065840244,0.0216827709228,0.00840257294476,0.000837656436488,-0.00556958420202,-0.00556958420202,-0.000963420956396,0.00754873547703,1.04241108894,1.04241108894,-4.36849737167,-1.47656846046,2022,2026,2542,2032,2032,2923,3424,3425,3241,3364,3093,3052,3157,3148,3239,2855,3403,3414,3242,3366,3130,3350,3389,3195
1508405804865517398,141,1508405804865069904,plot_matl,0.0,0.0,1.40129846432e-45,4.59163467805e-41,3.76600548472e+22,4.5860294842e-41,0.349065840244,0.30498278141,1.33028769493,-0.00349011528306,0.0018435548991,0.0018435548991,-0.0264193285257,0.00214181165211,-99.0137329102,-99.0137329102,-137.5809021,-0.0214114710689,2069,2094,2223,2030,2030,2911,3372,3388,3231,3330,3067,2892,3024,2946,3116,2735,3322,3346,3179,3263,2909,3258,3315,3046,0.009960257,1.409986678,1.404396237,0.680678427219,4500.0,0.652699172497,-0.0232544243336,-0.027979247272,125.906616211,1.34390354156,6000.0,1.3303245306,0.0119231510907,-0.0135789504275,77.9314651489,0.349065840244,0.0216827709228,0.00842081569135,0.00080786558101,-0.00515633122995,-0.00515633122995,-0.00129841745365,0.00815823487937,1.23085308075,1.23085308075,-3.24477553368,-0.579001247883,2028,2027,2542,2030,2030,2922,3424,3422,3240,3365,3093,3052,3157,3148,3239,2855,3403,3414,3242,3366,3130,3350,3386,3192
1508405804875307234,142,1508405804875037100,plot_matl,0.0,0.0,1.40129846432e-45,4.59163467805e-41,3.76600548472e+22,4.5860294842e-41,0.349065840244,0.30498278141,1.33028769493,-0.00349011528306,0.0018435548991,0.0018435548991,-0.0264193285257,0.00214181165211,-99.0137329102,-99.0137329102,-137.5809021,-0.0214114710689,2056,2086,2223,2030,2030,2911,3372,3388,3231,3330,3065,2895,3025,2952,3117,2739,3319,3347,3180,3265,2909,3258,3315,3046,0.009963557,1.419952238,1.414825094,0.680678427219,4500.0,0.655398130417,0.0304893385619,-0.025280283764,113.761283875,1.34390354156,6000.0,1.33036351204,-0.0278709754348,-0.0135400155559,89.2650222778,0.349065840244,0.0216827709228,0.00842081569135,0.00080786558101,-0.00515633122995,-0.00515633122995,-0.00129841745365,0.00815823487937,1.23085308075,1.23085308075,-3.24477553368,-0.579001247883,2030,2032,2542,2030,2030,2922,3424,3422,3240,3365,3092,3052,3155,3148,3237,2855,3404,3412,3242,3364,3130,3350,3386,3192
1508405804885231180,143,1508405804885033586,plot_matl,0.0,0.0,1.40129846432e-45,4.59163467805e-41,3.76600548472e+22,4.5860294842e-41,0.349065840244,0.30498278141,1.33028769493,-0.00349011528306,0.0018435548991,0.0018435548991,-0.0264193285257,0.00214181165211,-99.0137329102,-99.0137329102,-137.5809021,-0.0214114710689,2043,2084,2222,2030,2030,2912,3371,3389,3231,3330,3065,2895,3025,2952,3117,2739,3319,3347,3180,3265,2908,3257,3314,3045,0.009996652,1.429948683,1.429521236,0.680678427219,4500.0,0.654048621655,0.00416789529845,-0.0266297664493,119.833946228,1.34390354156,6000.0,1.33036112785,0.0113391280174,-0.0135423587635,77.6308517456,0.349065840244,0.0216827709228,0.00842081569135,0.00080786558101,-0.00515633122995,-0.00515633122995,-0.00129841745365,0.00815823487937,1.23085308075,1.23085308075,-3.24477553368,-0.579001247883,2022,2025,2542,2032,2032,2923,3423,3424,3240,3365,3092,3052,3155,3148,3237,2855,3404,3412,3242,3364,3130,3352,3385,3194
1508405804895470800,144,1508405804895090788,plot_matl,0.0,0.0,1.40129846432e-45,4.59163467805e-41,3.76600548472e+22,4.5860294842e-41,0.349065840244,0.30498278141,1.33028769493,-0.00349011528306,0.0018435548991,0.0018435548991,-0.0264193285257,0.00214181165211,-99.0137329102,-99.0137329102,-137.5809021,-0.0214114710689,1921,1951,2222,2030,2030,2912,3371,3389,3230,3332,3065,2893,3025,2947,3116,2736,3322,3347,3180,3265,2908,3257,3314,3045,0.010057726,1.440006796,1.448312544,0.680678427219,4500.0,0.654048621655,0.00291203288361,-0.0266297664493,119.833946228,1.34390354156,6000.0,1.3303245306,-0.0269923061132,-0.0135790193453,89.3361282349,0.349065840244,0.0216827709228,0.00842081569135,0.00080786558101,-0.00515633122995,-0.00515633122995,-0.00129841745365,0.00815823487937,1.23085308075,1.23085308075,-3.24477553368,-0.579001247883,2024,2036,2542,2032,2032,2923,3423,3424,3241,3365,3090,3052,3155,3146,3238,2853,3407,3413,3242,3364,3130,3352,3385,3194
1508405804905268507,145,1508405804905035071,plot_matl,0.0,0.0,1.40129846432e-45,4.59163467805e-41,3.76600548472e+22,4.5860294842e-41,0.349065840244,0.30498278141,1.33032751083,-0.00348175805993,0.00152691744734,0.00152691744734,0.0120142316446,0.00196616281755,-99.1206359863,-99.1206359863,-136.889480591,-0.173004776239,1978,2009,2223,2030,2030,2926,3371,3389,3230,3332,3065,2893,3025,2947,3116,2736,3322,3347,3180,3263,2911,3258,3316,3047,0.009943035,1.449950597,1.441740075,0.680678427219,4500.0,0.654048621655,0.00248327828012,-0.0266297664493,119.833946228,1.34390354156,6000.0,1.33040690422,0.012732964009,-0.0134966615587,76.2031326294,0.349065840244,0.0216827709228,0.00844504963607,0.000817606342025,-0.0044684833847,-0.0044684833847,-0.00182764197234,-0.0165419280529,1.07325410843,1.07325410843,-4.31326627731,-0.298305481672,2033,2030,2542,2033,2033,2937,3423,3424,3241,3365,3090,3052,3155,3146,3238,2853,3407,3413,3242,3367,3130,3352,3388,3193
1508405804915455237,146,1508405804915071743,plot_matl,0.0,0.0,1.40129846432e-45,4.59163467805e-41,3.76600548472e+22,4.5860294842e-41,0.349065840244,0.30498278141,1.33032751083,-0.00348175805993,0.00152691744734,0.00152691744734,0.0120142316446,0.00196616281755,-99.1206359863,-99.1206359863,-136.889480591,-0.173004776239,2083,2117,2223,2030,2030,2926,3385,3399,3239,3340,3075,2900,3034,2958,3123,2743,3322,3347,3180,3263,2911,3258,3316,3047,0.010038156,1.459988166,1.465570776,0.680678427219,4500.0,0.654048621655,0.00201778602786,-0.0266297664493,119.833946228,1.34390354156,6000.0,1.33035993576,-0.0257501751184,-0.0135436225682,89.2656402588,0.349065840244,0.0216827709228,0.00844504963607,0.000817606342025,-0.0044684833847,-0.0044684833847,-0.00182764197234,-0.0165419280529,1.07325410843,1.07325410843,-4.31326627731,-0.298305481672,2029,2036,2542,2033,2033,2937,3436,3435,3250,3373,3098,3061,3161,3155,3244,2859,3407,3413,3242,3367,3130,3352,3388,3193
1508405804925221335,147,1508405804925032928,plot_matl,0.0,0.0,1.40129846432e-45,4.59163467805e-41,3.76600548472e+22,4.5860294842e-41,0.349065840244,0.30498278141,1.33032751083,-0.00348175805993,0.00152691744734,0.00152691744734,0.0120142316446,0.00196616281755,-99.1206359863,-99.1206359863,-136.889480591,-0.173004776239,2043,2080,2222,2033,2033,2926,3385,3399,3239,3340,3075,2900,3034,2958,3123,2743,3328,3353,3183,3270,2912,3263,3318,3049,0.009958414,1.469947885,1.463886858,0.680678427219,4500.0,0.654048621655,0.00115763314534,-0.0266297664493,119.833946228,1.34390354156,6000.0,1.33036184311,0.0129569536075,-0.0135416928679,77.8516693115,0.349065840244,0.0216827709228,0.00844504963607,0.000817606342025,-0.0044684833847,-0.0044684833847,-0.00182764197234,-0.0165419280529,1.07325410843,1.07325410843,-4.31326627731,-0.298305481672,2022,2027,2541,2034,2034,2937,3436,3435,3250,3373,3098,3061,3161,3155,3244,2859,3409,3418,3247,3369,3134,3356,3392,3196
1508405804935453862,148,1508405804935079839,plot_matl,0.0,0.0,1.40129846432e-45,4.59163467805e-41,3.76600548472e+22,4.5860294842e-41,0.349065840244,0.30498278141,1.33032751083,-0.00348175805993,0.00152691744734,0.00152691744734,0.0120142316446,0.00196616281755,-99.1206359863,-99.1206359863,-136.889480591,-0.173004776239,2000,2012,2222,2033,2033,2914,3375,3391,3232,3333,3068,2895,3028,2947,3123,2743,3328,3353,3183,3270,2912,3263,3318,3049,0.010049046,1.479995982,1.487258808,0.680678427219,4500.0,0.654048621655,0.00152494641952,-0.0266297664493,119.833946228,1.34390354156,6000.0,1.33039414883,0.0120501760393,-0.013509394601,78.0186538696,0.349065840244,0.0216827709228,0.00844504963607,0.000817606342025,-0.0044684833847,-0.0044684833847,-0.00182764197234,-0.0165419280529,1.07325410843,1.07325410843,-4.31326627731,-0.298305481672,2017,2021,2541,2034,2034,2926,3424,3424,3243,3367,3093,3055,3158,3147,3244,2859,3409,3418,3247,3369,3134,3356,3392,3196
1508405804945546781,149,1508405804945095664,plot_matl,0.0,0.0,1.40129846432e-45,4.59163467805e-41,3.76600548472e+22,4.5860294842e-41,0.349065840244,0.30498278141,1.33036184311,-0.00346207711846,0.00057881657267,0.00057881657267,0.0129569536075,0.00155735970475,-98.5997543335,-98.5997543335,-137.024459839,0.0122659960762,2000,2012,2222,2033,2033,2914,3375,3391,3232,3333,3068,2895,3028,2947,3123,2743,3328,3353,3183,3270,2912,3263,3318,3049,0.010015464,1.490011746,1.492304136,0.680678427219,4500.0,0.654048621655,0.00124844338279,-0.0266297664493,119.833946228,1.34390354156,6000.0,1.33038651943,0.0119941895828,-0.0135170537978,77.9378128052,0.349065840244,0.0216827709228,0.00841825827956,0.000916555873118,-0.00446298718452,-0.00446298718452,-0.00128698698245,0.00595994712785,1.13478684425,1.13478684425,-4.90049600601,-0.85726326704,2017,2021,2541,2034,2034,2926,3424,3424,3243,3367,3093,3055,3158,3147,3244,2859,3409,3418,3247,3369,3134,3356,3392,3196
1508405804955381490,150,1508405804955053808,plot_matl,0.0,0.0,1.40129846432e-45,4.59163467805e-41,3.76600548472e+22,4.5860294842e-41,0.349065840244,0.30498278141,1.33036184311,-0.00346207711846,0.00057881657267,0.00057881657267,0.0129569536075,0.00155735970475,-98.5997543335,-98.5997543335,-137.024459839,0.0122659960762,1972,2007,2223,2031,2031,2913,3372,3390,3230,3330,3069,2893,3028,2947,3116,2737,3323,3349,3182,3264,2911,3257,3318,3045,0.009958404,1.499969755,1.4937606,0.680678427219,4500.0,0.652699172497,-0.0257657151669,-0.027979247272,125.906616211,1.34390354156,6000.0,1.33041226864,0.0112564293668,-0.0134912636131,77.8644866943,0.349065840244,0.0216827709228,0.00841825827956,0.000916555873118,-0.00446298718452,-0.00446298718452,-0.00128698698245,0.00595994712785,1.13478684425,1.13478684425,-4.90049600601,-0.85726326704,2023,2030,2543,2035,2035,2926,3422,3424,3241,3363,3090,3053,3158,3147,3239,2855,3405,3414,3244,3367,3133,3354,3388,3193
1508405804965258505,151,1508405804965038464,plot_matl,0.0,0.0,1.40129846432e-45,4.59163467805e-41,3.76600548472e+22,4.5860294842e-41,0.349065840244,0.30498278141,1.33036184311,-0.00346207711846,0.00057881657267,0.00057881657267,0.0129569536075,0.00155735970475,-98.5997543335,-98.5997543335,-137.024459839,0.0122659960762,1972,2007,2223,2031,2031,2913,3372,3390,3230,3330,3069,2893,3028,2947,3116,2737,3323,3349,3182,3264,2911,3257,3318,3045,0.009982031,1.509953498,1.507286681,0.680678427219,4500.0,0.652699172497,-0.0257657151669,-0.027979247272,125.906616211,1.34390354156,6000.0,1.33041226864,0.0112564293668,-0.0134912636131,77.8644866943,0.349065840244,0.0216827709228,0.00841825827956,0.000916555873118,-0.00446298718452,-0.00446298718452,-0.00128698698245,0.00595994712785,1.13478684425,1.13478684425,-4.90049600601,-0.85726326704,2023,2030,2543,2035,2035,2926,3422,3424,3241,3363,3090,3053,3158,3147,3239,2855,3405,3414,3244,3367,3133,3354,3388,3193
1508405804975390662,152,1508405804975041016,plot_matl,0.0,0.0,1.40129846432e-45,4.59163467805e-41,3.76600548472e+22,4.5860294842e-41,0.349065840244,0.30498278141,1.33036184311,-0.00346207711846,0.00057881657267,0.00057881657267,0.0129569536075,0.00155735970475,-98.5997543335,-98.5997543335,-137.024459839,0.0122659960762,2024,2058,2223,2031,2031,2913,3372,3390,3230,3330,3069,2893,3027,2963,3128,2748,3332,3353,3187,3269,2915,3263,3318,3045,0.010003971,1.519957159,1.520603592,0.680678427219,4500.0,0.654048621655,0.00217383168638,-0.0266297664493,119.833946228,1.34390354156,6000.0,1.33051490784,0.00892890244722,-0.0133886039257,77.9447021484,0.349065840244,0.0216827709228,0.00841825827956,0.000916555873118,-0.00446298718452,-0.00446298718452,-0.00128698698245,0.00595994712785,1.13478684425,1.13478684425,-4.90049600601,-0.85726326704,2036,2037,2543,2035,2035,2926,3422,3424,3241,3363,3090,3053,3156,3159,3248,2863,3413,3421,3249,3371,3135,3358,3388,3193
1508405804985612706,153,1508405804985115870,plot_matl,0.0,0.0,1.40129846432e-45,4.59163467805e-41,3.76600548472e+22,4.5860294842e-41,0.349065840244,0.30498278141,1.33039414883,-0.00344770611264,0.000762473209761,0.000762473209761,0.0120501760393,0.00125978374854,-98.7244796753,-98.7244796753,-137.308288574,0.0456094294786,2046,2091,2223,2031,2031,2917,3375,3390,3232,3332,3069,2893,3027,2963,3128,2748,3332,3353,3187,3269,2915,3263,3321,3051,0.01007513,1.530031863,1.54149489,0.680678427219,4500.0,0.654048621655,0.00369669985957,-0.0266297664493,119.833946228,1.34390354156,6000.0,1.33047759533,0.0094756372273,-0.0134258987382,78.1121444702,0.349065840244,0.0216827709228,0.00840688310564,0.000975682632998,-0.00627066474408,-0.00627066474408,-0.00105445506051,0.0047994107008,1.0392844677,1.0392844677,-3.9962220192,-1.00724577904,2036,2037,2543,2035,2035,2927,3427,3427,3242,3365,3090,3053,3156,3159,3248,2863,3413,3421,3249,3371,3135,3358,3391,3197
1508405804995309370,154,1508405804995035680,plot_matl,0.0,0.0,1.40129846432e-45,4.59163467805e-41,3.76600548472e+22,4.5860294842e-41,0.349065840244,0.30498278141,1.33039414883,-0.00344770611264,0.000762473209761,0.000762473209761,0.0120501760393,0.00125978374854,-98.7244796753,-98.7244796753,-137.308288574,0.0456094294786,1956,1989,2223,2031,2031,2917,3375,3390,3232,3332,3071,2897,3029,2949,3117,2736,3325,3346,3182,3266,2915,3263,3321,3051,0.009917492,1.539950884,1.527293768,0.680678427219,4500.0,0.654048621655,0.00494340155274,-0.0266297664493,119.833946228,1.34390354156,6000.0,1.33049345016,0.00912297982723,-0.0134101202711,78.0863494873,0.349065840244,0.0216827709228,0.00840688310564,0.000975682632998,-0.00627066474408,-0.00627066474408,-0.00105445506051,0.0047994107008,1.0392844677,1.0392844677,-3.9962220192,-1.00724577904,2030,2032,2543,2035,2035,2927,3427,3427,3242,3365,3092,3054,3159,3150,3239,2856,3406,3414,3245,3365,3135,3358,3391,3197
1508405805005389332,155,1508405805005034548,plot_matl,0.0,0.0,1.40129846432e-45,4.59163467805e-41,3.76600548472e+22,4.5860294842e-41,0.349065840244,0.30498278141,1.33039414883,-0.00344770611264,0.000762473209761,0.000762473209761,0.0120501760393,0.00125978374854,-98.7244796753,-98.7244796753,-137.308288574,0.0456094294786,2014,2040,2223,2030,2030,2913,3371,3390,3232,3332,3071,2897,3029,2949,3117,2736,3325,3346,3182,3266,2912,3260,3318,3047,0.009998883,1.549950236,1.549826865,0.680678427219,4500.0,0.654048621655,0.00593963032588,-0.0266297664493,119.833946228,1.34390354156,6000.0,1.33043050766,-0.0287580210716,-0.0134730665013,89.9425964355,0.349065840244,0.0216827709228,0.00840688310564,0.000975682632998,-0.00627066474408,-0.00627066474408,-0.00105445506051,0.0047994107008,1.0392844677,1.0392844677,-3.9962220192,-1.00724577904,2035,2036,2542,2032,2032,2924,3426,3424,3242,3365,3092,3054,3159,3150,3239,2856,3406,3414,3245,3365,3132,3353,3389,3195
1508405805015631932,156,1508405805015121855,plot_matl,0.0,0.0,1.40129846432e-45,4.59163467805e-41,3.76600548472e+22,4.5860294842e-41,0.349065840244,0.30498278141,1.33039414883,-0.00344770611264,0.000762473209761,0.000762473209761,0.0120501760393,0.00125978374854,-98.7244796753,-98.7244796753,-137.308288574,0.0456094294786,2065,2116,2223,2030,2030,2913,3371,3390,3230,3332,3068,2894,3025,2946,3116,2738,3323,3347,3182,3266,2912,3260,3318,3047,0.010088747,1.560037713,1.573844532,0.680678427219,4500.0,0.654048621655,0.00534144183621,-0.0266297664493,119.833946228,1.34390354156,6000.0,1.33045303822,0.00977497454733,-0.0134504921734,77.9836730957,0.349065840244,0.0216827709228,0.00840688310564,0.000975682632998,-0.00627066474408,-0.00627066474408,-0.00105445506051,0.0047994107008,1.0392844677,1.0392844677,-3.9962220192,-1.00724577904,2041,2032,2542,2032,2032,2924,3426,3424,3242,3364,3092,3054,3156,3149,3237,2854,3404,3415,3245,3365,3132,3353,3389,3195
1508405805025161565,157,1508405805025023489,plot_matl,0.0,0.0,1.40129846432e-45,4.59163467805e-41,3.76600548472e+22,4.5860294842e-41,0.349065840244,0.30363330245,1.33051717281,-0.00339064048603,-0.011878897436,-0.011878897436,0.00883552525192,0.000420021795435,-98.8258590698,-98.8258590698,-137.597366333,0.280501484871,2032,2067,2222,2026,2026,2913,3371,3390,3230,3332,3068,2894,3025,2946,3116,2738,3323,3347,3179,3265,2911,3259,3313,3045,0.009897574,1.569937935,1.553919118,0.680678427219,4500.0,0.654048621655,0.00434107799083,-0.0266297664493,119.833946228,1.34390354156,6000.0,1.33036565781,0.0114558069035,-0.0135378437117,77.6605758667,0.349065840244,0.0216827709228,0.00845438428223,0.000893711985555,-0.00460424553603,-0.00460424553603,-0.00155084312428,0.00570211838931,1.19990003109,1.19990003109,-4.08019351959,-0.970134556293,2036,2026,2542,2031,2031,2924,3426,3424,3242,3364,3092,3054,3156,3149,3237,2854,3404,3415,3244,3365,3132,3351,3388,3192
1508405805035192903,158,1508405805035023641,plot_matl,0.0,0.0,1.40129846432e-45,4.59163467805e-41,3.76600548472e+22,4.5860294842e-41,0.349065840244,0.30363330245,1.33051717281,-0.00339064048603,-0.011878897436,-0.011878897436,0.00883552525192,0.000420021795435,-98.8258590698,-98.8258590698,-137.597366333,0.280501484871,2049,2092,2222,2026,2026,2913,3371,3386,3232,3331,3067,2894,3026,2949,3117,2738,3323,3347,3179,3265,2911,3259,3313,3045,0.010000947,1.579938509,1.580149626,0.680678427219,4500.0,0.654048621655,0.00404686154798,-0.0266297664493,119.833946228,1.34390354156,6000.0,1.33042800426,0.010119067505,-0.0134755671024,77.6025466919,0.349065840244,0.0216827709228,0.00845438428223,0.000893711985555,-0.00460424553603,-0.00460424553603,-0.00155084312428,0.00570211838931,1.19990003109,1.19990003109,-4.08019351959,-0.970134556293,2032,2029,2542,2031,2031,2924,3425,3424,3241,3365,3090,3053,3156,3146,3237,2856,3404,3415,3244,3365,3132,3351,3388,3192
1508405805045586976,159,1508405805045107133,plot_matl,0.0,0.0,1.40129846432e-45,4.59163467805e-41,3.76600548472e+22,4.5860294842e-41,0.349065840244,0.30363330245,1.33051717281,-0.00339064048603,-0.011878897436,-0.011878897436,0.00883552525192,0.000420021795435,-98.8258590698,-98.8258590698,-137.597366333,0.280501484871,1959,1997,2223,2024,2024,2913,3371,3386,3232,3331,3067,2894,3026,2949,3117,2738,3321,3347,3179,3263,2909,3258,3315,3044,0.010085159,1.590023086,1.603540281,0.680678427219,4500.0,0.654048621655,0.00430363742635,-0.0266297664493,119.833946228,1.34390354156,6000.0,1.33041596413,0.0103408405557,-0.0134875904769,77.9664001465,0.349065840244,0.0216827709228,0.00845438428223,0.000893711985555,-0.00460424553603,-0.00460424553603,-0.00155084312428,0.00570211838931,1.19990003109,1.19990003109,-4.08019351959,-0.970134556293,2026,2022,2542,2032,2032,2924,3425,3424,3241,3365,3090,3053,3156,3146,3237,2856,3404,3412,3242,3365,3128,3352,3389,3192
