%time,field.header.seq,field.header.stamp,field.header.frame_id,field.FFJ4_set_point,field.FFJ4_position_gain,field.FFJ4_process_value,field.FFJ4_process_value_dot,field.FFJ4_error,field.FFJ4_command,field.FFJ1,field.FFJ2,field.FFJ3,field.FFJ4,field.FFJ1_dot,field.FFJ2_dot,field.FFJ3_dot,field.FFJ4_dot,field.FFJ1_tao,field.FFJ2_tao,field.FFJ3_tao,field.FFJ4_tao,field.pac0,field.pac1,field.pdc0,field.tac0,field.tdc0,field.el0,field.el1,field.el2,field.el3,field.el4,field.el5,field.el6,field.el7,field.el8,field.el9,field.el10,field.el11,field.el12,field.el13,field.el14,field.el15,field.el16,field.el17,field.el18,field.dt,field.time,field.test_time2,field.FFJ0_set_point,field.FFJ0_position_gain,field.FFJ0_process_value,field.FFJ0_process_value_dot,field.FFJ0_error,field.FFJ0_command,field.FFJ3_set_point,field.FFJ3_position_gain,field.FFJ3_process_value,field.FFJ3_process_value_dot,field.FFJ3_error,field.FFJ3_command,field.MFJ1,field.MFJ2,field.MFJ3,field.MFJ4,field.MFJ1_dot,field.MFJ2_dot,field.MFJ3_dot,field.MFJ4_dot,field.MFJ1_tao,field.MFJ2_tao,field.MFJ3_tao,field.MFJ4_tao,field.Mpac0,field.Mpac1,field.Mpdc0,field.Mtac0,field.Mtdc0,field.Mel0,field.Mel1,field.Mel2,field.Mel3,field.Mel4,field.Mel5,field.Mel6,field.Mel7,field.Mel8,field.Mel9,field.Mel10,field.Mel11,field.Mel12,field.Mel13,field.Mel14,field.Mel15,field.Mel16,field.Mel17,field.Mel18
1508406167343930107,80,1508406167343673052,plot_matl,0.0,0.0,1.40129846432e-45,4.59163467805e-41,4.47807657576e+28,4.56444948785e-41,0.349065840244,0.30363330245,1.33035683632,-0.0033863899298,-0.0123182898387,-0.0123182898387,0.0112672140822,3.76550269721e-05,-96.4952468872,-96.4952468872,-129.430892944,-0.462460517883,1407,2252,2220,2036,2036,2882,3357,3379,3213,3327,3060,2897,3026,2957,3120,2742,3332,3356,3193,3278,2929,3261,3321,3053,0.010001872,0.799965298,0.80014976,0.680678427219,4500.0,0.654048621655,0.00217624776997,-0.0266297664493,119.833946228,1.34390354156,6000.0,1.33033394814,-0.0273591689765,-0.0135695626959,89.7734375,0.349065840244,0.0216827709228,0.0083738071844,0.00102325587068,-0.00122400932014,-0.00122400932014,-0.000387292297091,0.00376732135192,4.25346231461,4.25346231461,0.0408461503685,-0.886634230614,2028,2035,2551,2052,2052,2904,3413,3412,3228,3350,3076,3033,3138,3132,3222,2841,3394,3402,3235,3354,3119,3338,3377,3180
1508406167353996041,81,1508406167353700407,plot_matl,0.0,0.0,1.40129846432e-45,4.59163467805e-41,4.47807657576e+28,4.56444948785e-41,0.349065840244,0.30363330245,1.33032476902,-0.00338600995019,-0.0117874518037,-0.0117874518037,0.0119324969128,3.08249254886e-05,-96.5499572754,-96.5499572754,-129.321517944,-0.45316144824,1447,2304,2228,2038,2038,2887,3357,3379,3213,3327,3060,2897,3026,2957,3120,2742,3332,3356,3191,3275,2928,3262,3322,3054,0.010029606,0.809993767,0.812398086,0.680678427219,4500.0,0.654048621655,0.00274565815926,-0.0266297664493,119.833946228,1.34390354156,6000.0,1.33030116558,0.0124041074887,-0.0136023582891,78.0052185059,0.349065840244,0.0216827709228,0.00837045069784,0.00094902026467,-0.000573191035073,-0.000573191035073,-0.000317042809911,0.00527380220592,4.04681968689,4.04681968689,-0.0050311665982,-0.974705398083,2030,2041,2551,2054,2054,2903,3413,3412,3228,3350,3076,3033,3138,3132,3222,2841,3394,3402,3233,3355,3119,3339,3375,3180
1508406167363963943,82,1508406167363670284,plot_matl,0.0,0.0,1.40129846432e-45,4.59163467805e-41,4.47807657576e+28,4.56444948785e-41,0.349065840244,0.30363330245,1.33025729656,-0.0034030165989,-0.011820663698,-0.011820663698,-0.0257180538028,0.000382681871997,-96.560043335,-96.560043335,-129.409118652,-0.514122247696,1447,2289,2228,2038,2038,2887,3356,3378,3214,3326,3058,2897,3024,2957,3120,2745,3332,3356,3191,3275,2928,3262,3322,3054,0.009968867,0.819963679,0.817447094,0.680678427219,4500.0,0.654048621655,0.00274565815926,-0.0266297664493,119.833946228,1.34390354156,6000.0,1.33026957512,-0.0259693916887,-0.0136340074241,89.9721832275,0.349065840244,0.0216827709228,0.00836769957095,0.000931213842705,0.000867534894496,0.000867534894496,-0.00025947499671,0.00563990185037,3.99527239799,3.99527239799,-0.345158398151,-1.12062883377,2037,2043,2551,2054,2054,2903,3410,3413,3227,3351,3074,3034,3140,3133,3223,2841,3394,3402,3233,3355,3119,3339,3375,3180
1508406167374003291,83,1508406167373689234,plot_matl,0.0,0.0,1.40129846432e-45,4.59163467805e-41,4.47807657576e+28,4.56444948785e-41,0.349065840244,0.30363330245,1.33025729656,-0.0034030165989,-0.011820663698,-0.011820663698,-0.0257180538028,0.000382681871997,-96.560043335,-96.560043335,-129.409118652,-0.514122247696,1447,2289,2228,2038,2038,2887,3356,3378,3214,3326,3058,2897,3024,2957,3120,2745,3332,3356,3191,3275,2928,3262,3322,3054,0.010018499,0.829982443,0.831535417,0.680678427219,4500.0,0.654048621655,0.00454743253067,-0.0266297664493,119.833946228,1.34390354156,6000.0,1.33026957512,-0.0259693916887,-0.0136340074241,89.9721832275,0.349065840244,0.0216827709228,0.00836769957095,0.000931213842705,0.000867534894496,0.000867534894496,-0.00025947499671,0.00563990185037,3.99527239799,3.99527239799,-0.345158398151,-1.12062883377,2037,2043,2551,2054,2054,2903,3410,3413,3227,3351,3074,3034,3140,3133,3223,2841,3394,3402,3233,3355,3119,3339,3375,3180
1508406167383759715,84,1508406167383659049,plot_matl,0.0,0.0,1.40129846432e-45,4.59163467805e-41,4.47807657576e+28,4.56444948785e-41,0.349065840244,0.30498278141,1.33022296429,-0.00342067144811,0.00180810154416,0.00180810154416,-0.0249935612082,0.000737999158446,-96.3755187988,-96.3755187988,-129.889923096,-0.524207115173,1513,2360,2225,2039,2039,2886,3358,3378,3212,3328,3060,2897,3023,2957,3120,2745,3329,3356,3193,3277,2928,3261,3321,3056,0.009967503,0.839951098,0.837270252,0.680678427219,4500.0,0.654048621655,0.00321230245754,-0.0266297664493,119.833946228,1.34390354156,6000.0,1.33023321629,0.013866933994,-0.0136703643948,77.8366775513,0.349065840244,0.0216827709228,0.00836361385882,0.000947064429056,0.00191728584468,0.00191728584468,-0.000173982785782,0.0053286277689,3.92388629913,3.92388629913,-0.486024737358,-0.897115170956,2032,2043,2551,2054,2054,2902,3410,3413,3226,3349,3074,3035,3139,3132,3223,2841,3394,3402,3233,3354,3119,3337,3376,3181
1508406167394020448,85,1508406167393675311,plot_matl,0.0,0.0,1.40129846432e-45,4.59163467805e-41,4.47807657576e+28,4.56444948785e-41,0.349065840244,0.30633226037,1.33024036884,-0.00343323685229,0.0153202936053,0.0153202936053,0.0137136448175,-0.00878573767841,-96.3730545044,-96.3730545044,-129.848922729,-0.350195467472,1433,2288,2225,2039,2039,2886,3358,3378,3212,3328,3060,2897,3023,2957,3117,2743,3330,3356,3193,3277,2927,3260,3318,3056,0.010018008,0.84996847,0.85153068,0.680678427219,4500.0,0.654048621655,0.00407828949392,-0.0266297664493,119.833946228,1.34390354156,6000.0,1.33021259308,-0.0248063001782,-0.0136908916757,89.1640472412,0.349065840244,0.0216827709228,0.00834696553648,0.000925394881051,0.00252011534758,0.00252011534758,0.000147035316331,-0.0187269281596,3.9899687767,3.9899687767,-0.395882219076,-0.855899393559,2034,2039,2551,2054,2054,2902,3410,3413,3226,3349,3074,3035,3139,3132,3222,2840,3395,3403,3231,3355,3119,3339,3376,3180
1508406167403975304,86,1508406167403675344,plot_matl,0.0,0.0,1.40129846432e-45,4.59163467805e-41,4.47807657576e+28,4.56444948785e-41,0.349065840244,0.30498278141,1.33032524586,-0.00343270832673,0.00138553080615,0.00138553080615,-0.0270710028708,0.00098009465728,-96.311050415,-96.311050415,-130.01852417,-0.324331849813,1419,2270,2215,2036,2036,2882,3358,3379,3214,3329,3062,2897,3023,2957,3117,2743,3330,3356,3193,3277,2927,3260,3318,3056,0.009999402,0.859968258,0.859948572,0.680678427219,4500.0,0.654048621655,0.00288177793846,-0.0266297664493,119.833946228,1.34390354156,6000.0,1.33034110069,0.0116843497381,-0.0135624241084,77.8636016846,0.349065840244,0.0216827709228,0.00834847148508,0.000887428876013,0.00289482413791,0.00289482413791,0.000120464472275,-0.0179638843983,3.98706412315,3.98706412315,-0.324342101812,-1.05344617367,2031,2040,2552,2056,2056,2903,3413,3409,3228,3351,3073,3034,3139,3132,3222,2840,3395,3403,3231,3355,3119,3339,3376,3180
1508406167413993279,87,1508406167413678330,plot_matl,0.0,0.0,1.40129846432e-45,4.59163467805e-41,4.47807657576e+28,4.56444948785e-41,0.349065840244,0.30498278141,1.3302937746,-0.00344079127535,0.00185761414468,0.00185761414468,0.0126260798424,0.00115330668632,-96.426864624,-96.426864624,-130.084335327,-0.443607449532,1394,2250,2215,2036,2036,2882,3358,3379,3214,3329,3062,2897,3027,2958,3119,2740,3330,3357,3193,3278,2927,3259,3318,3056,0.010003021,0.869971584,0.870262827,0.680678427219,4500.0,0.654048621655,0.00386107130907,-0.0266297664493,119.833946228,1.34390354156,6000.0,1.33026909828,0.0131217231974,-0.0136344097555,77.9719390869,0.349065840244,0.0192735753953,0.00834970735013,0.000836316961795,-0.0210175644606,-0.0210175644606,9.86571467365e-05,-0.0169289093465,4.05436229706,4.05436229706,-0.384642958641,-0.976861059666,2029,2039,2552,2056,2056,2903,3413,3409,3228,3351,3073,3034,3140,3131,3223,2841,3395,3403,3233,3354,3120,3338,3376,3180
1508406167423825601,88,1508406167423674465,plot_matl,0.0,0.0,1.40129846432e-45,4.59163467805e-41,4.47807657576e+28,4.56444948785e-41,0.349065840244,0.30498278141,1.3302667141,-0.00344856875017,0.00202486407943,0.00202486407943,-0.025923807174,0.00130484742112,-96.3494415283,-96.3494415283,-130.250198364,-0.506483018398,1505,2361,2212,2034,2034,2880,3358,3378,3209,3329,3062,2897,3027,2958,3119,2740,3330,3357,3193,3278,2927,3259,3321,3055,0.009994145,0.879966889,0.87948476,0.680678427219,4500.0,0.654048621655,0.00421036873013,-0.0266297664493,119.833946228,1.34390354156,6000.0,1.33028042316,0.0128737250343,-0.0136230895296,77.8874282837,0.349065840244,0.0216827709228,0.00836328230798,0.000816333515104,0.00318724522367,0.00318724522367,-0.000176436180482,0.00795224867761,4.22588396072,4.22588396072,-0.824554920197,-1.0866471529,2037,2037,2551,2051,2051,2902,3411,3411,3226,3350,3073,3034,3140,3131,3223,2841,3395,3403,3233,3354,3120,3338,3376,3180
1508406167433878557,89,1508406167433752666,plot_matl,0.0,0.0,1.40129846432e-45,4.59163467805e-41,4.47807657576e+28,4.56444948785e-41,0.349065840244,0.30498278141,1.33017206192,-0.00345468753949,0.00164645339828,0.00164645339828,-0.0239866562188,-0.00833233166486,-96.3585739136,-96.3585739136,-130.200820923,-0.601207852364,1430,2288,2212,2034,2034,2880,3358,3378,3209,3329,3063,2898,3027,2959,3119,2740,3330,3358,3195,3275,2927,3259,3321,3055,0.010079292,0.890045966,0.897056988,0.680678427219,4500.0,0.654048621655,0.00397738628089,-0.0266297664493,119.833946228,1.34390354156,6000.0,1.33018040657,-0.0241757854819,-0.0137231368572,89.4358215332,0.349065840244,0.0216827709228,0.00837385933846,0.000801926187705,0.0030146962963,0.0030146962963,-0.000399032869609,-0.016213785857,4.11859560013,4.11859560013,-0.621827721596,-1.36589062214,2037,2043,2551,2051,2051,2902,3411,3411,3226,3350,3076,3036,3138,3130,3222,2841,3394,3404,3234,3354,3120,3338,3376,3180
1508406167443869620,90,1508406167443666647,plot_matl,0.0,0.0,1.40129846432e-45,4.59163467805e-41,4.47807657576e+28,4.56444948785e-41,0.349065840244,0.30498278141,1.33019936085,-0.00344184809364,0.00257182260975,0.00257182260975,0.0145230581984,0.00117310916539,-96.3675003052,-96.3675003052,-130.242675781,-0.783665955067,1473,2326,2217,2033,2033,2881,3358,3377,3209,3329,3063,2898,3027,2959,3119,2740,3330,3358,3195,3275,2926,3260,3323,3053,0.009912517,0.899958935,0.89212653,0.680678427219,4500.0,0.654048621655,0.00534948846325,-0.0266297664493,119.833946228,1.34390354156,6000.0,1.3301705122,-0.023945055902,-0.0137330181897,89.6454238892,0.349065840244,0.0192735753953,0.0083850780502,0.000808066804893,-0.0209005903453,-0.0209005903453,-0.000608602829743,-0.0163095965981,4.0201883316,4.0201883316,-0.47124543786,-1.28781545162,2032,2042,2551,2051,2051,2903,3409,3410,3226,3350,3076,3036,3138,3130,3222,2841,3394,3404,3234,3354,3121,3339,3374,3181
1508406167454013268,91,1508406167453706906,plot_matl,0.0,0.0,1.40129846432e-45,4.59163467805e-41,4.47807657576e+28,4.56444948785e-41,0.349065840244,0.30363330245,1.33025479317,-0.00343993096612,-0.0112472521141,-0.0112472521141,-0.0256822556257,0.00114539382048,-96.368598938,-96.368598938,-130.232833862,-0.781828284264,1378,2235,2217,2033,2033,2881,3358,3377,3214,3329,3062,2896,3025,2957,3118,2740,3330,3357,3195,3275,2926,3260,3323,3053,0.010042158,0.91000023,0.913836378,0.680678427219,4500.0,0.652699172497,-0.0228590946645,-0.027979247272,125.906616211,1.34390354156,6000.0,1.33026885986,-0.0259391032159,-0.0136347198859,89.3523788452,0.349065840244,0.0216827709228,0.00836630165577,0.000748397142161,0.00320554501377,0.00320554501377,-0.000224219780648,-0.0151418223977,4.12097501755,4.12097501755,-0.385985136032,-1.07200944424,2026,2035,2551,2051,2051,2903,3409,3410,3227,3349,3075,3035,3140,3132,3223,2839,3396,3403,3234,3354,3121,3339,3374,3181
1508406167464060990,92,1508406167463687528,plot_matl,0.0,0.0,1.40129846432e-45,4.59163467805e-41,4.47807657576e+28,4.56444948785e-41,0.349065840244,0.30498278141,1.33019328117,-0.00343923154287,0.00218557449989,0.00218557449989,-0.0244858153164,0.00111538299825,-96.3752441406,-96.3752441406,-130.394744873,-0.817654192448,1499,2359,2228,2032,2032,2887,3358,3377,3214,3329,3062,2896,3025,2957,3118,2740,3330,3357,3193,3277,2928,3262,3322,3054,0.009979364,0.919980413,0.918101488,0.680678427219,4500.0,0.654048621655,0.00454952614382,-0.0266297664493,119.833946228,1.34390354156,6000.0,1.33024251461,-0.0254850275815,-0.013660993427,89.8393707275,0.349065840244,0.0216827709228,0.00833901762962,0.000771157327108,0.00184734666254,0.00184734666254,0.000345877866494,0.00893427338451,4.1717300415,4.1717300415,-0.394144922495,-1.23980212212,2039,2038,2551,2053,2053,2903,3409,3410,3227,3349,3075,3035,3140,3132,3223,2839,3396,3403,3233,3354,3119,3339,3376,3180
1508406167474300462,93,1508406167473744493,plot_matl,0.0,0.0,1.40129846432e-45,4.59163467805e-41,4.47807657576e+28,4.56444948785e-41,0.349065840244,0.30363330245,1.33028709888,-0.0034206295386,-0.0114081548527,-0.0114081548527,0.0127372918651,0.000739386945497,-96.3098449707,-96.3098449707,-130.432891846,-0.743068397045,1422,2275,2228,2032,2032,2887,3355,3379,3213,3328,3061,2897,3025,2958,3118,2745,3330,3357,3193,3277,2928,3262,3322,3054,0.010058564,0.930037938,0.935446452,0.680678427219,4500.0,0.656747579575,0.0585922561586,-0.0239308029413,107.688613892,1.34390354156,6000.0,1.33026146889,-0.0258272178471,-0.0136421062052,89.7495040894,0.349065840244,0.0192735753953,0.00834294501692,0.000829031865578,-0.0210413504392,-0.0210413504392,0.000265336217126,0.00772860879079,4.15158557892,4.15158557892,-0.322981894016,-1.20207250118,2034,2041,2551,2053,2053,2903,3409,3411,3228,3349,3074,3033,3138,3131,3222,2840,3396,3403,3233,3354,3119,3339,3376,3180
1508406167483959587,94,1508406167483689904,plot_matl,0.0,0.0,1.40129846432e-45,4.59163467805e-41,4.47807657576e+28,4.56444948785e-41,0.349065840244,0.30498278141,1.33025932312,-0.00343099562451,0.000826295465231,0.000826295465231,-0.0257710572332,0.000948981672991,-96.3263397217,-96.3263397217,-130.197555542,-0.420968949795,1405,2260,2225,2031,2031,2887,3355,3379,3213,3328,3061,2897,3025,2958,3118,2745,3329,3359,3194,3277,2927,3260,3322,3054,0.009944182,0.939983168,0.934753108,0.680678427219,4500.0,0.654048621655,0.00227198167704,-0.0266297664493,119.833946228,1.34390354156,6000.0,1.33031141758,0.0122548816726,-0.0135921118781,77.8388671875,0.349065840244,0.0216827709228,0.00834518577904,0.000811123929452,0.00265374570154,0.00265374570154,0.000217208929826,0.00809469260275,4.3054728508,4.3054728508,-0.264398694038,-1.29264640808,2028,2031,2551,2052,2052,2903,3409,3411,3228,3349,3074,3033,3138,3131,3222,2840,3393,3403,3232,3354,3121,3338,3376,3181
1508406167494116169,95,1508406167493702541,plot_matl,0.0,0.0,1.40129846432e-45,4.59163467805e-41,4.47807657576e+28,4.56444948785e-41,0.349065840244,0.30633226037,1.33026754856,-0.00344822183251,0.0147927347571,0.0147927347571,-0.0259916372597,0.00130075123161,-96.3744659424,-96.3744659424,-130.1378479,-0.339562088251,1441,2294,2225,2031,2031,2885,3358,3378,3214,3329,3058,2897,3025,2958,3118,2745,3329,3359,3194,3277,2927,3260,3322,3054,0.010012001,0.949995776,0.951140095,0.680678427219,4500.0,0.652699172497,-0.0248238947242,-0.027979247272,125.906616211,1.34390354156,6000.0,1.33028173447,0.0128087997437,-0.0136217679828,78.0552825928,0.349065840244,0.0240919683129,0.00834702607244,0.000816336832941,0.0264930184931,0.0264930184931,0.000177686481038,0.00800457037985,4.29265213013,4.29265213013,-0.284476786852,-0.978220045567,2031,2032,2551,2052,2052,2902,3410,3410,3225,3350,3074,3034,3137,3131,3222,2840,3393,3403,3232,3354,3121,3338,3376,3181
1508406167504151395,96,1508406167503678045,plot_matl,0.0,0.0,1.40129846432e-45,4.59163467805e-41,4.47807657576e+28,4.56444948785e-41,0.349065840244,0.30498278141,1.33028388023,-0.00344457919709,0.000963893427979,0.000963893427979,0.0127787459642,0.00123869616073,-96.5239715576,-96.5239715576,-130.124771118,-0.319741368294,1499,2345,2225,2031,2031,2885,3358,3378,3214,3329,3058,2897,3025,2958,3118,2743,3330,3355,3193,3276,2926,3261,3321,3054,0.009975348,0.959971554,0.957633408,0.680678427219,4500.0,0.652699172497,-0.024687230587,-0.027979247272,125.906616211,1.34390354156,6000.0,1.33025717735,0.0133159551769,-0.0136464042589,78.4067153931,0.349065840244,0.0240919683129,0.00836105085909,0.000811304722447,0.026006758213,0.026006758213,-0.000100710924016,-0.0163332056254,4.32947206497,4.32947206497,-0.232895493507,-1.01012670994,2037,2022,2551,2052,2052,2902,3410,3410,3225,3350,3074,3034,3137,3131,3222,2839,3393,3403,3233,3354,3120,3338,3376,3181
1508406167513853806,97,1508406167513665173,plot_matl,0.0,0.0,1.40129846432e-45,4.59163467805e-41,4.47807657576e+28,4.56444948785e-41,0.349065840244,0.30498278141,1.33029663563,-0.0034514607396,0.00130991474725,0.00130991474725,-0.0265352763236,0.0013667633757,-96.429107666,-96.429107666,-130.170028687,-0.32842233777,1497,2347,2215,2029,2029,2881,3358,3376,3213,3327,3061,2898,3025,2958,3118,2743,3330,3355,3193,3276,2926,3261,3321,3054,0.009984496,0.969957418,0.968496112,0.680678427219,4500.0,0.654048621655,0.00217983173206,-0.0266297664493,119.833946228,1.34390354156,6000.0,1.33031249046,0.0122329350561,-0.0135910073295,77.7989959717,0.349065840244,0.0216827709228,0.00836000964046,0.000842440349516,0.000979760312475,0.000979760312475,-8.24767776066e-05,0.00748737109825,4.22792434692,4.22792434692,-0.1922647506,-1.12098610401,2030,2032,2551,2052,2052,2903,3411,3413,3228,3348,3074,3034,3137,3131,3222,2839,3393,3403,3233,3354,3120,3338,3376,3181
1508406167524090272,98,1508406167523675481,plot_matl,0.0,0.0,1.40129846432e-45,4.59163467805e-41,4.47807657576e+28,4.56444948785e-41,0.349065840244,0.30498278141,1.33023023605,-0.00344834919088,0.00132317910902,0.00132317910902,0.0139060355723,0.00129151984584,-96.4612121582,-96.4612121582,-130.347167969,-0.589117228985,1497,2347,2215,2029,2029,2881,3358,3376,3213,3327,3061,2898,3025,2958,3118,2743,3330,3355,3193,3276,2926,3261,3321,3054,0.010012442,0.979968821,0.981219316,0.680678427219,4500.0,0.654048621655,0.00221272674389,-0.0266297664493,119.833946228,1.34390354156,6000.0,1.33024013042,-0.0253754481673,-0.013663360849,89.4928741455,0.349065840244,0.0216827709228,0.00837406609207,0.000831499113701,0.000778775312938,0.000778775312938,-0.000359737867257,0.00766880717129,4.21307516098,4.21307516098,-0.177454024553,-0.871530771255,2030,2032,2551,2052,2052,2903,3411,3413,3228,3348,3074,3034,3137,3131,3222,2839,3393,3403,3233,3354,3120,3338,3376,3181
1508406167533826345,99,1508406167533659560,plot_matl,0.0,0.0,1.40129846432e-45,4.59163467805e-41,4.47807657576e+28,4.56444948785e-41,0.349065840244,0.30633226037,1.33029961586,-0.00343675585464,0.015200923197,0.015200923197,0.0123142879456,0.00105776533019,-96.4107284546,-96.4107284546,-130.236602783,-0.643875360489,1410,2263,2215,2029,2029,2881,3358,3376,3213,3327,3061,2898,3026,2960,3117,2742,3329,3355,3191,3279,2926,3261,3321,3054,0.009981717,0.989951794,0.988189983,0.680678427219,4500.0,0.654048621655,0.00295942020603,-0.0266297664493,119.833946228,1.34390354156,6000.0,1.33029663563,-0.0267022121698,-0.0136068994179,89.8309555054,0.349065840244,0.0216827709228,0.00837066955864,0.000900372862816,0.00245090667158,0.00245090667158,-0.00029462823295,0.00628081522882,4.10370731354,4.10370731354,-0.128840252757,-1.25676643848,2030,2035,2551,2052,2052,2903,3411,3413,3228,3348,3074,3034,3139,3132,3223,2841,3395,3405,3234,3353,3120,3338,3376,3181
1508406167544008489,100,1508406167543672984,plot_matl,0.0,0.0,1.40129846432e-45,4.59163467805e-41,4.47807657576e+28,4.56444948785e-41,0.349065840244,0.30498278141,1.3303027153,-0.00341815920547,0.00103703036439,0.00103703036439,0.0122838206589,0.000681438599713,-96.3357772827,-96.3357772827,-130.288360596,-0.671626329422,1362,2205,2212,2031,2031,2886,3365,3383,3216,3331,3061,2898,3026,2960,3117,2742,3329,3355,3191,3279,2926,3261,3321,3075,0.010015715,0.999966508,1.0015715,0.680678427219,4500.0,0.654048621655,0.00195566192269,-0.0266297664493,119.833946228,1.34390354156,6000.0,1.33033800125,0.0115825915709,-0.0135655198246,78.0063247681,0.349065840244,0.0216827709228,0.00836786441505,0.000960003060754,0.00200366904028,0.00200366904028,-0.000240864945226,0.0050791031681,4.12329244614,4.12329244614,-0.166267320514,-1.14343297482,2036,2040,2551,2054,2054,2909,3417,3415,3232,3356,3074,3034,3139,3132,3223,2841,3395,3405,3234,3353,3120,3338,3375,3202
1508406167553950808,101,1508406167553670805,plot_matl,0.0,0.0,1.40129846432e-45,4.59163467805e-41,4.47807657576e+28,4.56444948785e-41,0.349065840244,0.30498278141,1.33030819893,-0.00340491416864,0.00160185887944,0.00160185887944,-0.0268221888691,0.000398949749069,-96.3480453491,-96.3480453491,-130.069259644,-0.772839963436,1408,2253,2212,2031,2031,2886,3365,3383,3216,3331,3068,2900,3030,2961,3122,2743,3333,3358,3194,3280,2926,3261,3321,3075,0.009996772,1.009963464,1.009673972,0.680678427219,4500.0,0.654048621655,0.00301678664982,-0.0266297664493,119.833946228,1.34390354156,6000.0,1.33030569553,-0.0267617423087,-0.0135978274047,89.5809555054,0.349065840244,0.0216827709228,0.00836560875177,0.000937354052439,0.00165483134333,0.00165483134333,-0.000197613990167,0.0055046514608,4.14422178268,4.14422178268,-0.0262753069401,-1.00874519348,2037,2037,2551,2054,2054,2909,3417,3415,3232,3356,3078,3040,3142,3134,3225,2843,3399,3406,3236,3355,3120,3338,3375,3202
1508406167563841266,102,1508406167563656708,plot_matl,0.0,0.0,1.40129846432e-45,4.59163467805e-41,4.47807657576e+28,4.56444948785e-41,0.349065840244,0.30498278141,1.33030819893,-0.00340491416864,0.00160185887944,0.00160185887944,-0.0268221888691,0.000398949749069,-96.3480453491,-96.3480453491,-130.069259644,-0.772839963436,1454,2307,2220,2030,2030,2884,3358,3381,3216,3331,3068,2900,3030,2961,3122,2743,3333,3358,3194,3280,2930,3264,3321,3054,0.009983771,1.01994888,1.018344642,0.680678427219,4500.0,0.654048621655,0.00301678664982,-0.0266297664493,119.833946228,1.34390354156,6000.0,1.33030569553,-0.0267617423087,-0.0135978274047,89.5809555054,0.349065840244,0.0216827709228,0.00836560875177,0.000937354052439,0.00165483134333,0.00165483134333,-0.000197613990167,0.0055046514608,4.14422178268,4.14422178268,-0.0262753069401,-1.00874519348,2030,2036,2551,2048,2048,2905,3412,3414,3232,3356,3078,3040,3142,3134,3225,2843,3399,3406,3236,3355,3120,3341,3378,3184
1508406167574099267,103,1508406167573687864,plot_matl,0.0,0.0,1.40129846432e-45,4.59163467805e-41,4.47807657576e+28,4.56444948785e-41,0.349065840244,0.30633226037,1.33035302162,-0.00339551572688,0.0151878912002,0.0151878912002,0.0114017864689,0.000212757804547,-96.3557128906,-96.3557128906,-129.670196533,-0.70369553566,1379,2228,2220,2030,2030,2884,3358,3381,3212,3328,3060,2900,3027,2958,3121,2743,3330,3356,3194,3280,2930,3264,3321,3054,0.01003332,1.029981565,1.03343196,0.680678427219,4500.0,0.652699172497,-0.023793766275,-0.027979247272,125.906616211,1.34390354156,6000.0,1.33031094074,-0.0268159359694,-0.0135925523937,89.5986633301,0.349065840244,0.0216827709228,0.00834839046001,0.000891055795364,0.0018776570214,0.0018776570214,0.000148856226588,-0.0180300436914,4.17105913162,4.17105913162,-0.0951115861535,-0.928391754627,2027,2038,2551,2048,2048,2905,3412,3414,3226,3351,3077,3036,3139,3132,3223,2841,3395,3406,3236,3355,3120,3341,3378,3184
1508406167584037630,104,1508406167583737680,plot_matl,0.0,0.0,1.40129846432e-45,4.59163467805e-41,4.47807657576e+28,4.56444948785e-41,0.349065840244,0.30498278141,1.33035683632,-0.00338465278037,0.00175840291195,0.00175840291195,0.0113579435274,-4.24728932558e-06,-96.4454116821,-96.4454116821,-129.764068604,-0.68673825264,1372,2216,2228,2030,2030,2887,3358,3381,3212,3328,3060,2900,3027,2958,3121,2743,3330,3356,3193,3277,2928,3262,3321,3054,0.010048938,1.040031171,1.045089552,0.680678427219,4500.0,0.655398130417,0.0305395703763,-0.025280283764,113.761283875,1.34390354156,6000.0,1.33035314083,0.0114308670163,-0.0135503439233,77.7880020142,0.349065840244,0.0216827709228,0.00834964495152,0.000863319379278,0.00240717292763,0.00240717292763,0.0001218313555,-0.0174620822072,4.17569828033,4.17569828033,0.0797749608755,-1.06931078434,2035,2036,2552,2050,2050,2903,3412,3414,3226,3351,3077,3036,3139,3132,3223,2841,3395,3406,3233,3353,3119,3338,3377,3182
1508406167593956681,105,1508406167593686303,plot_matl,0.0,0.0,1.40129846432e-45,4.59163467805e-41,4.47807657576e+28,4.56444948785e-41,0.349065840244,0.30498278141,1.33039045334,-0.00342053966597,0.000906514993403,0.000906514993403,-0.0283822920173,-0.00904917810112,-96.4350738525,-96.4350738525,-129.658966064,-0.652431368828,1397,2259,2228,2030,2030,2887,3359,3377,3215,3330,3059,2898,3027,2959,3119,2743,3330,3356,3193,3277,2928,3262,3321,3054,0.009958459,1.049979758,1.045638195,0.680678427219,4500.0,0.654048621655,0.00170526606962,-0.0266297664493,119.833946228,1.34390354156,6000.0,1.3304220438,0.0100691122934,-0.0134815210477,77.6602859497,0.349065840244,0.0216827709228,0.00836369488388,0.000820697285235,0.00239482079633,0.00239482079633,-0.0155031485483,0.00788775179535,4.2527141571,4.2527141571,0.0607954077423,-1.12196815014,2031,2037,2552,2050,2050,2903,3411,3411,3227,3352,3075,3034,3140,3132,3222,2841,3395,3406,3233,3353,3119,3338,3377,3182
1508406167604088985,106,1508406167603685250,plot_matl,0.0,0.0,1.40129846432e-45,4.59163467805e-41,4.47807657576e+28,4.56444948785e-41,0.349065840244,0.30633226037,1.33038377762,-0.00342215877026,0.0148735567927,0.0148735567927,0.0108626587316,0.000750877719838,-96.5815734863,-96.5815734863,-129.357315063,-0.582533717155,1388,2247,2225,2031,2031,2887,3359,3377,3215,3330,3059,2898,3027,2959,3119,2743,3328,3357,3195,3277,2926,3261,3320,3055,0.00998885,1.059978604,1.0588181,0.680678427219,4500.0,0.655398130417,0.0284918248653,-0.025280283764,113.761283875,1.34390354156,6000.0,1.33038020134,0.0109820729122,-0.0135233718902,77.6232147217,0.349065840244,0.0216827709228,0.00834736134857,0.00079889013432,0.00281548104249,0.00281548104249,0.000171216976014,0.00832950882614,4.31800603867,4.31800603867,0.0545336455107,-1.21670985222,2033,2031,2551,2049,2049,2903,3411,3411,3227,3352,3075,3034,3140,3132,3222,2841,3397,3403,3233,3355,3121,3339,3375,3181
1508406167613863217,107,1508406167613697524,plot_matl,0.0,0.0,1.40129846432e-45,4.59163467805e-41,4.47807657576e+28,4.56444948785e-41,0.349065840244,0.30633226037,1.33037531376,-0.00345016410574,0.0139107760042,0.0139107760042,0.0110386898741,0.00131269230042,-96.6152267456,-96.6152267456,-129.332214355,-0.570930540562,1380,2230,2225,2031,2031,2885,3357,3378,3214,3331,3060,2898,3027,2958,3119,2743,3328,3357,3195,3277,2926,3261,3320,3055,0.010009198,1.069989359,1.070984186,0.680678427219,4500.0,0.654048621655,0.00102331186645,-0.0266297664493,119.833946228,1.34390354156,6000.0,1.33029437065,-0.0264397189021,-0.0136091886088,89.5879058838,0.349065840244,0.0216827709228,0.00834880117327,0.0007466134266,0.00364255206659,0.00364255206659,0.00014017461217,0.00939349923283,4.18822956085,4.18822956085,0.113314554095,-1.190736413,2027,2039,2551,2049,2049,2903,3412,3413,3226,3351,3075,3034,3139,3131,3222,2841,3397,3403,3233,3355,3121,3339,3375,3181
1508406167624044006,108,1508406167623674143,plot_matl,0.0,0.0,1.40129846432e-45,4.59163467805e-41,4.47807657576e+28,4.56444948785e-41,0.349065840244,0.30633226037,1.33034145832,-0.00346510275267,0.0138323875144,0.0138323875144,0.0116902282462,-0.008141416125,-96.5030670166,-96.5030670166,-129.196105957,-0.635627448559,1432,2278,2225,2031,2031,2885,3357,3378,3214,3331,3060,2898,3027,2958,3117,2743,3331,3357,3197,3277,2926,3262,3321,3053,0.009979149,1.079967372,1.077748092,0.680678427219,4500.0,0.652699172497,-0.0257984399796,-0.027979247272,125.906616211,1.34390354156,6000.0,1.33037495613,0.0110140582547,-0.0135285472497,77.7881240845,0.349065840244,0.0216827709228,0.00834998581558,0.000763905816711,0.00476191844791,0.00476191844791,0.000114620910608,-0.0154199348763,4.3013215065,4.3013215065,0.169152721763,-1.23836278915,2038,2035,2551,2049,2049,2903,3412,3413,3226,3351,3075,3034,3139,3131,3221,2840,3396,3404,3231,3355,3119,3338,3375,3180
1508406167633898769,109,1508406167633663957,plot_matl,0.0,0.0,1.40129846432e-45,4.59163467805e-41,4.47807657576e+28,4.56444948785e-41,0.349065840244,0.30498278141,1.33030021191,-0.00345154805109,0.00063400703948,0.00063400703948,0.0124653093517,0.00135740695987,-96.4119949341,-96.4119949341,-128.895782471,-0.493564337492,1358,2193,2215,2029,2029,2881,3356,3377,3214,3329,3063,2897,3027,2958,3117,2743,3331,3357,3197,3277,2926,3262,3321,3053,0.009988167,1.0899565,1.088710203,0.680678427219,4500.0,0.654048621655,0.000689575914294,-0.0266297664493,119.833946228,1.34390354156,6000.0,1.33029794693,0.0125117870048,-0.0136056318879,77.8685379028,0.349065840244,0.0216827709228,0.0083509478718,0.000711608387064,0.00482339272276,0.00482339272276,9.38700832194e-05,-0.0143941603601,4.39512062073,4.39512062073,0.429786473513,-1.14802002907,2026,2030,2551,2054,2054,2903,3411,3413,3226,3350,3074,3034,3139,3131,3221,2840,3396,3404,3231,3355,3119,3338,3375,3180
1508406167644027887,110,1508406167643682825,plot_matl,0.0,0.0,1.40129846432e-45,4.59163467805e-41,4.47807657576e+28,4.56444948785e-41,0.349065840244,0.30498278141,1.33030986786,-0.00344848143868,0.000544507696759,0.000544507696759,0.0122989425436,0.0012864023447,-96.3371047974,-96.3371047974,-128.951293945,-0.495360791683,1419,2262,2215,2029,2029,2881,3356,3377,3214,3329,3063,2897,3026,2959,3120,2740,3330,3357,3194,3279,2927,3261,3321,3053,0.010020291,1.099976405,1.10223201,0.680678427219,4500.0,0.654048621655,0.000529054377694,-0.0266297664493,119.833946228,1.34390354156,6000.0,1.33030617237,-0.0267036668956,-0.0135973058641,89.5983200073,0.349065840244,0.0240919683129,0.00833872333169,0.0007584503619,0.0273051001132,0.0273051001132,0.000341200851835,0.00915895774961,4.36534738541,4.36534738541,0.324332028627,-1.25525665283,2035,2038,2551,2054,2054,2903,3411,3413,3226,3350,3074,3034,3139,3132,3221,2840,3394,3401,3232,3353,3120,3339,3375,3180
1508406167654081322,111,1508406167653678750,plot_matl,0.0,0.0,1.40129846432e-45,4.59163467805e-41,4.47807657576e+28,4.56444948785e-41,0.349065840244,0.30498278141,1.33031094074,-0.00344499992207,-3.39170328516e-05,-3.39170328516e-05,-0.0268099363893,0.00121818040498,-96.2760772705,-96.2760772705,-128.779251099,-0.364902079105,1469,2318,2212,2032,2032,2880,3357,3380,3212,3331,3063,2897,3026,2959,3120,2740,3330,3357,3194,3279,2927,3261,3321,3054,0.009995674,1.109972149,1.109519814,0.680678427219,4500.0,0.654048621655,-6.39041027171e-05,-0.0266297664493,119.833946228,1.34390354156,6000.0,1.33027017117,-0.0260157249868,-0.0136333722621,89.9255371094,0.349065840244,0.0216827709228,0.00834172405303,0.000797085696831,0.00286867329851,0.00286867329851,0.000279428961221,0.00834547448903,4.48024654388,4.48024654388,0.265614122152,-1.38210117817,2035,2037,2551,2051,2051,2902,3410,3413,3225,3351,3074,3034,3139,3132,3221,2840,3394,3401,3232,3353,3120,3339,3375,3179
1508406167664014593,112,1508406167663697055,plot_matl,0.0,0.0,1.40129846432e-45,4.59163467805e-41,4.47807657576e+28,4.56444948785e-41,0.349065840244,0.30498278141,1.33021354675,-0.00345872528851,-0.000293725490337,-0.000293725490337,0.0142108267173,0.00151145516429,-96.1562805176,-96.1562805176,-128.632522583,-0.390504509211,1444,2301,2212,2032,2032,2880,3357,3380,3212,3331,3063,2899,3026,2958,3119,2740,3331,3358,3193,3280,2927,3261,3321,3054,0.010017647,1.119990117,1.121976464,0.680678427219,4500.0,0.654048621655,-0.000553021382075,-0.0266297664493,119.833946228,1.34390354156,6000.0,1.33027017117,-0.0260157249868,-0.0136333722621,89.9255371094,0.349065840244,0.0216827709228,0.00834418367594,0.000783060153481,0.0010643400019,0.0010643400019,0.000228804390645,-0.0158548764884,4.43989419937,4.43989419937,-0.000359063153155,-1.44631040096,2037,2038,2551,2051,2051,2902,3410,3413,3225,3351,3074,3035,3140,3130,3222,2839,3395,3402,3232,3355,3120,3339,3375,3179
1508406167674122213,113,1508406167673723534,plot_matl,0.0,0.0,1.40129846432e-45,4.59163467805e-41,4.47807657576e+28,4.56444948785e-41,0.349065840244,0.30498278141,1.33012890816,-0.00347063387744,0.000261706823949,0.000261706823949,0.0159437544644,0.00175509252585,-96.3364181519,-96.3364181519,-128.810073853,-0.412069052458,1428,2279,2220,2033,2033,2882,3356,3379,3212,3331,3063,2899,3026,2958,3119,2740,3331,3358,3193,3280,2927,3259,3322,3053,0.010026955,1.130017044,1.133045915,0.680678427219,4500.0,0.654048621655,-3.0549686926e-05,-0.0266297664493,119.833946228,1.34390354156,6000.0,1.3301371336,0.0157719645649,-0.0137663707137,77.948638916,0.349065840244,0.0216827709228,0.00834619160742,0.000795843661763,0.0012905956246,0.0012905956246,0.000187472207472,-0.0161042846739,4.43190050125,4.43190050125,0.106264531612,-1.35411500931,2035,2034,2551,2051,2051,2903,3411,3412,3225,3351,3074,3035,3140,3130,3222,2839,3395,3402,3232,3355,3119,3339,3374,3181
1508406167684120442,114,1508406167683707907,plot_matl,0.0,0.0,1.40129846432e-45,4.59163467805e-41,4.47807657576e+28,4.56444948785e-41,0.349065840244,0.30498278141,1.33013212681,-0.00348944589496,-0.000277849758277,-0.000277849758277,0.0158900525421,-0.00763214565814,-96.6007537842,-96.6007537842,-128.915817261,-0.452102512121,1374,2210,2220,2033,2033,2882,3356,3379,3212,3327,3060,2896,3027,2956,3117,2740,3327,3357,3193,3280,2927,3259,3322,3053,0.009983416,1.140001382,1.138109424,0.680678427219,4500.0,0.654048621655,-0.00106206594501,-0.0266297664493,119.833946228,1.34390354156,6000.0,1.33010137081,-0.0225643441081,-0.0138022033498,89.8421325684,0.349065840244,0.0216827709228,0.00836256705225,0.000784625764936,0.000594107201323,0.000594107201323,-0.000144290097523,0.00861187279224,4.31121921539,4.31121921539,0.121875427663,-1.38769578934,2036,2044,2551,2051,2051,2903,3411,3412,3228,3349,3073,3035,3140,3131,3222,2842,3396,3403,3232,3355,3119,3339,3374,3181
1508406167693973032,115,1508406167693691885,plot_matl,0.0,0.0,1.40129846432e-45,4.59163467805e-41,4.47807657576e+28,4.56444948785e-41,0.349065840244,0.30498278141,1.33010423183,-0.0034703318961,-0.000215439475141,-0.000215439475141,0.0164657440037,0.00174665939994,-96.7883224487,-96.7883224487,-128.717224121,-0.294070541859,1422,2271,2228,2032,2032,2886,3356,3379,3212,3327,3060,2896,3027,2956,3117,2740,3327,3357,3194,3274,2928,3262,3323,3054,0.00998487,1.14998565,1.14826005,0.680678427219,4500.0,0.654048621655,-0.000405948900152,-0.0266297664493,119.833946228,1.34390354156,6000.0,1.33015155792,0.0155130596831,-0.0137520125136,77.8106689453,0.349065840244,0.0216827709228,0.00836124643683,0.000773644482251,0.000486112490762,0.000486112490762,-0.000118061558169,0.00883279554546,4.2952299118,4.2952299118,0.0997213423252,-1.44134867191,2039,2040,2550,2053,2053,2904,3411,3412,3228,3349,3073,3035,3140,3131,3222,2842,3396,3403,3234,3352,3118,3336,3376,3182
1508406167703986326,116,1508406167703677646,plot_matl,0.0,0.0,1.40129846432e-45,4.59163467805e-41,4.47807657576e+28,4.56444948785e-41,0.349065840244,0.30498278141,1.33021712303,-0.00346398050897,-0.000436251604697,-0.000436251604697,0.0142169781029,0.00161472545005,-96.7945709229,-96.7945709229,-128.725860596,-0.131525233388,1387,2242,2228,2032,2032,2886,3358,3378,3213,3327,3058,2898,3024,2957,3118,2744,3327,3357,3194,3274,2928,3262,3323,3054,0.009984388,1.159970921,1.158189008,0.680678427219,4500.0,0.655398130417,0.0259135738015,-0.025280283764,113.761283875,1.34390354156,6000.0,1.3302577734,0.0133951706812,-0.013645705767,78.069984436,0.349065840244,0.0216827709228,0.00836016703397,0.000807837815955,-3.11265321216e-05,-3.11265321216e-05,-9.66376028373e-05,0.00815692637116,4.23233509064,4.23233509064,0.114552929997,-1.4494754076,2026,2035,2550,2053,2053,2904,3411,3413,3226,3351,3074,3034,3141,3130,3223,2841,3396,3403,3234,3352,3118,3336,3376,3182
1508406167713842427,117,1508406167713661802,plot_matl,0.0,0.0,1.40129846432e-45,4.59163467805e-41,4.47807657576e+28,4.56444948785e-41,0.349065840244,0.30498278141,1.33027124405,-0.0034602060914,-0.000584719877224,-0.000584719877224,0.0130807142705,0.0112790763378,-96.8715591431,-96.8715591431,-128.619033813,-0.215544879436,1452,2308,2224,2032,2032,2886,3358,3378,3213,3327,3058,2898,3024,2957,3118,2744,3329,3358,3193,3279,2926,3260,3322,3054,0.009982268,1.169954199,1.167925356,0.680678427219,4500.0,0.654048621655,-0.00110052269883,-0.0266297664493,119.833946228,1.34390354156,6000.0,1.33030951023,0.0123098464683,-0.0135939931497,77.99659729,0.349065840244,0.0216827709228,0.00834605935961,0.000766570796259,0.000318754202453,0.000318754202453,0.000189037367818,-0.015514052473,4.14798259735,4.14798259735,-0.0414986126125,-1.32269060612,2028,2040,2551,2049,2049,2904,3411,3413,3226,3351,3074,3034,3141,3130,3223,2841,3394,3402,3232,3356,3119,3338,3374,3180
1508406167724131058,118,1508406167723705547,plot_matl,0.0,0.0,1.40129846432e-45,4.59163467805e-41,4.47807657576e+28,4.56444948785e-41,0.349065840244,0.30498278141,1.33031618595,-0.0034660466481,-1.99352962227e-06,-1.99352962227e-06,0.0121440747753,0.00162210129201,-96.8619537354,-96.8619537354,-128.644180298,-0.358055114746,1388,2235,2224,2032,2032,2885,3356,3378,3213,3330,3059,2898,3026,2958,3118,2744,3329,3358,3193,3279,2926,3260,3322,3054,0.010045412,1.179999027,1.185358616,0.680678427219,4500.0,0.654048621655,-0.00110052269883,-0.0266297664493,119.833946228,1.34390354156,6000.0,1.33030951023,0.0123098464683,-0.0135939931497,77.99659729,0.349065840244,0.0216827709228,0.00834773015231,0.000773030973505,0.000261124514509,0.000261124514509,0.000154860070325,0.0088597945869,4.18415355682,4.18415355682,0.187477573752,-1.27452135086,2030,2039,2551,2049,2049,2903,3411,3412,3226,3351,3075,3034,3139,3131,3223,2841,3394,3402,3232,3356,3119,3338,3374,3180
1508406167734041162,119,1508406167733731721,plot_matl,0.0,0.0,1.40129846432e-45,4.59163467805e-41,4.47807657576e+28,4.56444948785e-41,0.349065840244,0.30363330245,1.33032810688,-0.00347879598849,-0.0126103078946,-0.0126103078946,0.0119190849364,-0.00789020955563,-96.7056808472,-96.7056808472,-128.670150757,-0.308293521404,1385,2225,2224,2032,2032,2885,3356,3378,3213,3330,3059,2898,3026,2958,3119,2743,3329,3358,3192,3276,2926,3261,3321,3056,0.010025066,1.190024975,1.192982854,0.680678427219,4500.0,0.654048621655,0.00245235906914,-0.0266297664493,119.833946228,1.34390354156,6000.0,1.3303630352,0.011215550825,-0.013540466316,77.73853302,0.349065840244,0.0216827709228,0.00834910199046,0.000762030133046,0.00151128193829,0.00151128193829,0.000126783881569,-0.0153874503449,4.19285154343,4.19285154343,0.255083978176,-1.15047419071,2031,2043,2551,2049,2049,2903,3411,3412,3226,3351,3075,3034,3139,3131,3222,2841,3395,3402,3233,3353,3119,3338,3374,3180
1508406167744212069,120,1508406167743708417,plot_matl,0.0,0.0,1.40129846432e-45,4.59163467805e-41,4.47807657576e+28,4.56444948785e-41,0.349065840244,0.30363330245,1.33032381535,-0.00346164708026,-0.0118035981432,-0.0118035981432,-0.027111466974,0.00153979461174,-96.7922897339,-96.7922897339,-128.894165039,-0.339048594236,1348,2185,2215,2031,2031,2881,3359,3378,3213,3329,3062,2897,3026,2958,3119,2743,3329,3358,3192,3276,2926,3261,3321,3056,0.009976806,1.200001812,1.19721672,0.680678427219,4500.0,0.655398130417,0.0296094398946,-0.025280283764,113.761283875,1.34390354156,6000.0,1.33035886288,0.0112572694197,-0.0135446721688,77.792350769,0.349065840244,0.0192735753953,0.00835022702813,0.000799095840193,-0.0226087179035,-0.0226087179035,0.000103776648757,0.00835440587252,4.20084190369,4.20084190369,0.13732907176,-0.981984615326,2016,2029,2551,2055,2055,2903,3409,3412,3226,3350,3074,3036,3139,3131,3222,2841,3395,3402,3233,3353,3119,3338,3374,3180
1508406167754129420,121,1508406167753702623,plot_matl,0.0,0.0,1.40129846432e-45,4.59163467805e-41,4.47807657576e+28,4.56444948785e-41,0.349065840244,0.30498278141,1.33039879799,-0.00347314286046,0.00102146703284,0.00102146703284,0.01051498577,0.00178202800453,-96.7143554688,-96.7143554688,-128.988754272,-0.393199503422,1398,2241,2215,2031,2031,2881,3359,3378,3213,3329,3062,2897,3025,2959,3118,2740,3330,3356,3193,3277,2927,3262,3321,3056,0.009993334,1.209995787,1.209193414,0.680678427219,4500.0,0.654048621655,0.00192438415252,-0.0266297664493,119.833946228,1.34390354156,6000.0,1.33035588264,0.0114128720015,-0.0135476570576,77.791809082,0.349065840244,0.0216827709228,0.0083633903414,0.000790104619227,0.00144784105942,0.00144784105942,-0.000168493876117,-0.0159115232527,4.23191308975,4.23191308975,0.0278527289629,-1.25648987293,2027,2041,2551,2055,2055,2903,3409,3412,3226,3350,3074,3036,3140,3131,3223,2839,3396,3403,3232,3354,3120,3338,3374,3180
1508406167764118760,122,1508406167763659427,plot_matl,0.0,0.0,1.40129846432e-45,4.59163467805e-41,4.47807657576e+28,4.56444948785e-41,0.349065840244,0.30363330245,1.33031892776,-0.00348390755244,-0.012781387195,-0.012781387195,-0.0269069317728,-0.00777201913297,-96.5851974487,-96.5851974487,-129.211578369,-0.20609292388,1452,2304,2212,2033,2033,2882,3358,3378,3211,3330,3062,2897,3025,2959,3118,2740,3330,3356,3193,3277,2927,3262,3321,3054,0.009954204,1.219951383,1.214412888,0.680678427219,4500.0,0.654048621655,0.00192438415252,-0.0266297664493,119.833946228,1.34390354156,6000.0,1.33035588264,0.0114128720015,-0.0135476570576,77.791809082,0.349065840244,0.0216827709228,0.00839082896709,0.0007175746141,0.00252205040306,0.00252205040306,-0.000720685406122,-0.0144429737702,4.26167917252,4.26167917252,0.047169841826,-1.31387209892,2030,2036,2551,2050,2050,2904,3411,3410,3226,3350,3074,3036,3140,3131,3223,2839,3396,3403,3232,3354,3120,3338,3374,3179
1508406167773907049,123,1508406167773701904,plot_matl,0.0,0.0,1.40129846432e-45,4.59163467805e-41,4.47807657576e+28,4.56444948785e-41,0.349065840244,0.30363330245,1.33031892776,-0.00348390755244,-0.012781387195,-0.012781387195,-0.0269069317728,-0.00777201913297,-96.5851974487,-96.5851974487,-129.211578369,-0.20609292388,1452,2304,2212,2033,2033,2882,3358,3378,3211,3330,3062,2897,3025,2959,3118,2740,3330,3356,3193,3277,2927,3262,3321,3054,0.010044668,1.229995168,1.235494164,0.680678427219,4500.0,0.652699172497,-0.0251182168722,-0.027979247272,125.906616211,1.34390354156,6000.0,1.33024263382,-0.0253669433296,-0.0136608444154,89.047744751,0.349065840244,0.0216827709228,0.00839082896709,0.0007175746141,0.00252205040306,0.00252205040306,-0.000720685406122,-0.0144429737702,4.26167917252,4.26167917252,0.047169841826,-1.31387209892,2030,2036,2551,2050,2050,2904,3411,3410,3226,3350,3074,3036,3140,3131,3223,2839,3396,3403,3232,3354,3120,3338,3374,3179
1508406167784115706,124,1508406167783727671,plot_matl,0.0,0.0,1.40129846432e-45,4.59163467805e-41,4.47807657576e+28,4.56444948785e-41,0.349065840244,0.30498278141,1.33030998707,-0.00348498323001,0.000529666955117,0.000529666955117,-0.0267333760858,0.00202994351275,-96.5341033936,-96.5341033936,-129.326385498,-0.388871282339,1420,2268,2219,2031,2031,2882,3356,3380,3211,3330,3062,2896,3025,2959,3118,2740,3328,3356,3194,3277,2929,3261,3321,3053,0.010026258,1.240021311,1.243255992,0.680678427219,4500.0,0.652699172497,-0.0257268007845,-0.027979247272,125.906616211,1.34390354156,6000.0,1.33023297787,-0.0251770149916,-0.0136705925688,89.4929275513,0.349065840244,0.0240919683129,0.00840781908482,0.000733664957806,0.0266851056367,0.0266851056367,-0.00106052169576,0.00972043722868,4.19325017929,4.19325017929,0.0444137454033,-1.0705602169,2032,2035,2551,2052,2052,2903,3410,3411,3226,3350,3075,3035,3139,3132,3223,2840,3396,3403,3234,3354,3119,3338,3377,3181
1508406167793807815,125,1508406167793661909,plot_matl,0.0,0.0,1.40129846432e-45,4.59163467805e-41,4.47807657576e+28,4.56444948785e-41,0.349065840244,0.30498278141,1.33024919033,-0.0034849238582,0.0016995377373,0.0016995377373,0.0135740758851,0.00202828389592,-96.5081253052,-96.5081253052,-129.412765503,-0.393506318331,1463,2311,2219,2031,2031,2882,3356,3380,3212,3328,3060,2897,3026,2958,3119,2741,3329,3356,3194,3277,2929,3261,3321,3053,0.00993149,1.249954133,1.24143625,0.680678427219,4500.0,0.654048621655,0.00371675984934,-0.0266297664493,119.833946228,1.34390354156,6000.0,1.33021235466,-0.0247599277645,-0.0136912148446,89.5681991577,0.349065840244,0.0216827709228,0.00839827954769,0.000724562443793,0.00285281916149,0.00285281916149,-0.000867896946147,0.00989978387952,4.10968971252,4.10968971252,0.0528777018189,-1.28649556637,2032,2037,2551,2052,2052,2903,3410,3411,3225,3351,3075,3034,3139,3130,3223,2840,3396,3403,3234,3354,3119,3338,3377,3181
1508406167803799226,126,1508406167803655898,plot_matl,0.0,0.0,1.40129846432e-45,4.59163467805e-41,4.47807657576e+28,4.56444948785e-41,0.349065840244,0.30498278141,1.33023655415,-0.00347492215224,0.00137206539512,0.00137206539512,0.0138496896252,0.00182978156954,-96.4542694092,-96.4542694092,-129.328979492,-0.248144716024,1385,2238,2228,2031,2031,2886,3356,3380,3212,3328,3060,2897,3026,2958,3119,2741,3329,3356,3195,3277,2927,3263,3319,3053,0.009993791,1.259948096,1.259217666,0.680678427219,4500.0,0.654048621655,0.00365329650231,-0.0266297664493,119.833946228,1.34390354156,6000.0,1.33019816875,-0.0244797505438,-0.0137053038925,89.6275634766,0.349065840244,0.0216827709228,0.00840520206839,0.000769996142481,0.002732666675,0.002732666675,-0.00101290841121,0.00898343510926,4.21835041046,4.21835041046,0.0772731229663,-1.2463196516,2030,2036,2551,2051,2051,2903,3410,3411,3225,3351,3075,3034,3139,3130,3223,2840,3396,3403,3233,3355,3118,3339,3376,3180
1508406167813975764,127,1508406167813682732,plot_matl,0.0,0.0,1.40129846432e-45,4.59163467805e-41,4.47807657576e+28,4.56444948785e-41,0.349065840244,0.30498278141,1.33021664619,-0.00345853273757,0.00108532549348,0.00108532549348,-0.0248800590634,0.00149887753651,-96.3682022095,-96.3682022095,-129.208221436,-0.0134838055819,1378,2231,2228,2031,2031,2886,3356,3378,3215,3327,3060,2895,3024,2958,3120,2745,3329,3356,3195,3277,2927,3263,3319,3053,0.01002848,1.269975802,1.27361696,0.680678427219,4500.0,0.654048621655,0.00150012993254,-0.0266297664493,119.833946228,1.34390354156,6000.0,1.33018290997,0.0148865114897,-0.0137206185609,77.7925567627,0.349065840244,0.0216827709228,0.00839617755264,0.000829785712995,0.00266408012249,0.00266408012249,-0.000829730532132,0.00777835864574,4.30553531647,4.30553531647,0.133008271456,-1.24015760422,2029,2040,2551,2051,2051,2903,3410,3411,3226,3349,3075,3036,3140,3130,3221,2840,3396,3403,3233,3355,3118,3339,3376,3180
1508406167824109357,128,1508406167823702104,plot_matl,0.0,0.0,1.40129846432e-45,4.59163467805e-41,4.47807657576e+28,4.56444948785e-41,0.349065840244,0.30633226037,1.33013367653,-0.00345388124697,0.0142562286928,0.0142562286928,0.0158978756517,0.00140404899139,-96.2640609741,-96.2640609741,-128.898880005,-0.166864544153,1428,2284,2225,2035,2035,2886,3356,3378,3215,3327,3060,2895,3024,2958,3120,2745,3328,3356,3194,3276,2925,3262,3322,3055,0.010019136,1.279995408,1.282449408,0.680678427219,4500.0,0.655398130417,0.0283863916993,-0.025280283764,113.761283875,1.34390354156,6000.0,1.33010554314,-0.0225741807371,-0.0137980189174,89.7682342529,0.349065840244,0.0240919683129,0.00838872976601,0.000832273624837,0.0260199550539,0.0260199550539,-0.000678552256431,0.00771221797913,4.36376428604,4.36376428604,0.151663139462,-1.26016056538,2042,2036,2551,2052,2052,2903,3410,3411,3226,3349,3075,3036,3140,3130,3221,2840,3395,3404,3233,3353,3118,3338,3374,3180
1508406167834078330,129,1508406167833677371,plot_matl,0.0,0.0,1.40129846432e-45,4.59163467805e-41,4.47807657576e+28,4.56444948785e-41,0.349065840244,0.30498278141,1.33017528057,-0.00345912948251,0.000218868095544,0.000218868095544,0.0151081681252,-0.00826167408377,-96.2863540649,-96.2863540649,-128.921768188,0.0416494011879,1388,2244,2225,2035,2035,2885,3356,3379,3217,3329,3059,2897,3025,2959,3120,2745,3328,3356,3194,3276,2925,3262,3322,3055,0.009975368,1.289970806,1.286822472,0.680678427219,4500.0,0.654048621655,0.000412012363086,-0.0266297664493,119.833946228,1.34390354156,6000.0,1.33017718792,0.015008572489,-0.0137263629586,78.02293396,0.349065840244,0.0216827709228,0.00839597452432,0.000813575927168,0.00182060943916,0.00182060943916,-0.000826622941531,-0.0164122302085,4.41298627853,4.41298627853,0.189199388027,-1.21074581146,2031,2035,2551,2052,2052,2904,3410,3412,3226,3351,3074,3034,3137,3129,3221,2840,3395,3404,3233,3353,3118,3338,3374,3180
1508406167844021285,130,1508406167843673642,plot_matl,0.0,0.0,1.40129846432e-45,4.59163467805e-41,4.47807657576e+28,4.56444948785e-41,0.349065840244,0.30498278141,1.33013534546,-0.00346236675978,-7.50519830035e-05,-7.50519830035e-05,-0.0231632515788,0.00156850507483,-96.3391571045,-96.3391571045,-128.973495483,0.109405636787,1449,2305,2225,2035,2035,2885,3356,3379,3217,3329,3059,2897,3025,2959,3118,2744,3329,3357,3194,3278,2926,3260,3321,3057,0.009995509,1.299966841,1.29941617,0.680678427219,4500.0,0.655398130417,0.0271170884371,-0.025280283764,113.761283875,1.34390354156,6000.0,1.33010399342,-0.0225556809455,-0.0137994941324,89.5280914307,0.349065840244,0.0216827709228,0.00838864594698,0.000840532709844,0.00278736487962,0.00278736487962,-0.000677676231135,0.00751497177407,4.41136789322,4.41136789322,0.336174994707,-1.13031601906,2037,2037,2551,2052,2052,2904,3410,3412,3226,3351,3074,3034,3137,3129,3222,2841,3394,3403,3231,3353,3121,3337,3376,3181
1508406167854139760,131,1508406167853707558,plot_matl,0.0,0.0,1.40129846432e-45,4.59163467805e-41,4.47807657576e+28,4.56444948785e-41,0.349065840244,0.30498278141,1.33006882668,-0.00346656260081,0.000176502246177,0.000176502246177,-0.0217825993896,0.00165365717839,-96.4937591553,-96.4937591553,-128.867294312,0.421034216881,1495,2348,2214,2035,2035,2880,3357,3377,3213,3328,3061,2897,3025,2959,3118,2744,3329,3357,3194,3278,2926,3260,3321,3057,0.010034046,1.310000867,1.314460026,0.680678427219,4500.0,0.654048621655,0.000332899071509,-0.0266297664493,119.833946228,1.34390354156,6000.0,1.33008146286,0.017036376521,-0.0138220973313,78.0553207397,0.349065840244,0.0192735753953,0.0083825616166,0.000862620887347,-0.0206506010145,-0.0206506010145,-0.00055403605802,0.00705692311749,4.30034828186,4.30034828186,0.347115278244,-0.86382317543,2037,2040,2551,2054,2054,2904,3412,3411,3227,3351,3074,3035,3137,3129,3222,2841,3394,3403,3231,3353,3121,3337,3376,3181
1508406167863969715,132,1508406167863670309,plot_matl,0.0,0.0,1.40129846432e-45,4.59163467805e-41,4.47807657576e+28,4.56444948785e-41,0.349065840244,0.30498278141,1.33006882668,-0.00346656260081,0.000176502246177,0.000176502246177,-0.0217825993896,0.00165365717839,-96.4937591553,-96.4937591553,-128.867294312,0.421034216881,1487,2337,2214,2035,2035,2880,3357,3377,3213,3328,3061,2897,3026,2958,3120,2741,3330,3355,3193,3278,2928,3262,3321,3057,0.009961446,1.319962959,1.314910872,0.680678427219,4500.0,0.654048621655,0.000332899071509,-0.0266297664493,119.833946228,1.34390354156,6000.0,1.33008146286,0.017036376521,-0.0138220973313,78.0553207397,0.349065840244,0.0192735753953,0.0083825616166,0.000862620887347,-0.0206506010145,-0.0206506010145,-0.00055403605802,0.00705692311749,4.30034828186,4.30034828186,0.347115278244,-0.86382317543,2035,2032,2551,2054,2054,2904,3412,3411,3227,3351,3074,3035,3138,3132,3223,2840,3393,3403,3234,3355,3120,3338,3376,3181
1508406167874022189,133,1508406167873687252,plot_matl,0.0,0.0,1.40129846432e-45,4.59163467805e-41,4.47807657576e+28,4.56444948785e-41,0.349065840244,0.30363330245,1.33005273342,-0.00348839140497,-0.0128868604079,-0.0128868604079,-0.0217814985663,0.00203965557739,-96.5640411377,-96.5640411377,-129.009994507,0.438947528601,2663,2294,2212,2034,2034,2880,3357,3379,3213,3329,3063,2897,3026,2958,3120,2741,3330,3355,3193,3278,2928,3262,3322,3053,0.010016624,1.329980325,1.332210992,0.680678427219,4500.0,0.655398130417,0.0281134173274,-0.025280283764,113.761283875,1.34390354156,6000.0,1.33012747765,0.0161002781242,-0.0137760564685,77.9689788818,0.349065840244,0.0216827709228,0.00838473066688,0.000853944628034,0.00262966076843,0.00262966076843,-0.000604844477493,0.00730098038912,4.37179136276,4.37179136276,0.291995197535,-1.09064877033,2028,2017,2550,2054,2054,2903,3411,3414,3227,3350,3074,3035,3138,3132,3223,2840,3393,3403,3234,3355,3120,3338,3375,3182
1508406167883958006,134,1508406167883687499,plot_matl,0.0,0.0,1.40129846432e-45,4.59163467805e-41,4.47807657576e+28,4.56444948785e-41,0.349065840244,0.30363330245,1.33003890514,-0.00347857782617,-0.01225192938,-0.01225192938,0.0176207907498,0.00185557326768,-96.606628418,-96.606628418,-128.892791748,0.613701820374,2675,2242,2212,2034,2034,2880,3357,3379,3213,3329,3063,2897,3026,2956,3118,2740,3331,3357,3192,3277,2927,3262,3322,3053,0.010000357,1.339980366,1.340047838,0.680678427219,4500.0,0.652699172497,-0.0246357116848,-0.027979247272,125.906616211,1.34390354156,6000.0,1.33001625538,0.0180836450309,-0.0138872582465,77.7522583008,0.349065840244,0.0216827709228,0.00837941933423,0.000850792857818,0.00297953863628,0.00297953863628,-0.000495700980537,-0.0171259380877,4.29562425613,4.29562425613,0.245783746243,-1.20995056629,2021,2013,2550,2054,2054,2903,3411,3414,3227,3350,3074,3035,3139,3131,3221,2841,3396,3404,3232,3353,3118,3338,3375,3182
1508406167893783317,135,1508406167893662749,plot_matl,0.0,0.0,1.40129846432e-45,4.59163467805e-41,4.47807657576e+28,4.56444948785e-41,0.349065840244,0.30498278141,1.33013474941,-0.00348802143708,0.00163332128432,0.00163332128432,0.0157157797366,0.00204347912222,-96.5667648315,-96.5667648315,-128.578887939,0.542081058025,2671,2246,2219,2036,2036,2884,3358,3380,3211,3329,3063,2897,3026,2956,3118,2740,3331,3357,3192,3277,2927,3261,3321,3053,0.009973486,1.349955086,1.34642061,0.680678427219,4500.0,0.652699172497,-0.0231219250709,-0.027979247272,125.906616211,1.34390354156,6000.0,1.33018016815,0.0148082524538,-0.013723384589,77.8592147827,0.349065840244,0.0216827709228,0.00838925596327,0.000847835675813,0.00422532204539,0.00422532204539,-0.000695077644195,-0.0170867498964,4.187936306,4.187936306,0.287969410419,-1.24261212349,2030,2022,2552,2055,2055,2903,3410,3412,3226,3350,3074,3035,3139,3131,3221,2841,3396,3404,3232,3353,3118,3339,3375,3180
1508406167903975655,136,1508406167903721208,plot_matl,0.0,0.0,1.40129846432e-45,4.59163467805e-41,4.47807657576e+28,4.56444948785e-41,0.349065840244,0.30498278141,1.33013474941,-0.00348802143708,0.00163332128432,0.00163332128432,0.0157157797366,0.00204347912222,-96.5667648315,-96.5667648315,-128.578887939,0.542081058025,2669,2251,2219,2036,2036,2884,3358,3380,3211,3330,3061,2897,3028,2957,3119,2741,3330,3357,3193,3277,2927,3261,3321,3053,0.010060303,1.360014713,1.368201208,0.680678427219,4500.0,0.654048621655,0.00293842982501,-0.0266297664493,119.833946228,1.34390354156,6000.0,1.33009910583,-0.0226372145116,-0.0138043956831,89.2910308838,0.349065840244,0.0216827709228,0.00838925596327,0.000847835675813,0.00422532204539,0.00422532204539,-0.000695077644195,-0.0170867498964,4.187936306,4.187936306,0.287969410419,-1.24261212349,2021,2005,2552,2055,2055,2903,3410,3412,3226,3350,3074,3034,3138,3130,3222,2841,3395,3404,3234,3353,3118,3339,3375,3180
1508406167913851788,137,1508406167913663063,plot_matl,0.0,0.0,1.40129846432e-45,4.59163467805e-41,4.47807657576e+28,4.56444948785e-41,0.349065840244,0.30498278141,1.33013474941,-0.00348802143708,0.00163332128432,0.00163332128432,0.0157157797366,0.00204347912222,-96.5667648315,-96.5667648315,-128.578887939,0.542081058025,2663,2273,2227,2034,2034,2885,3357,3380,3211,3330,3061,2897,3028,2957,3119,2741,3330,3357,3193,3277,2927,3261,3322,3054,0.009939025,1.36995511,1.361646425,0.680678427219,4500.0,0.654048621655,0.00242050806992,-0.0266297664493,119.833946228,1.34390354156,6000.0,1.33004117012,-0.0214443597943,-0.0138622978702,90.0564804077,0.349065840244,0.0216827709228,0.00838925596327,0.000847835675813,0.00422532204539,0.00422532204539,-0.000695077644195,-0.0170867498964,4.187936306,4.187936306,0.287969410419,-1.24261212349,2026,2017,2551,2053,2053,2903,3411,3412,3226,3350,3074,3034,3138,3130,3222,2841,3395,3404,3234,3354,3120,3339,3374,3182
1508406167923957386,138,1508406167923685981,plot_matl,0.0,0.0,1.40129846432e-45,4.59163467805e-41,4.47807657576e+28,4.56444948785e-41,0.349065840244,0.30498278141,1.33013474941,-0.00348802143708,0.00163332128432,0.00163332128432,0.0157157797366,0.00204347912222,-96.5667648315,-96.5667648315,-128.578887939,0.542081058025,2679,2229,2227,2034,2034,2885,3357,3377,3214,3329,3059,2897,3027,2958,3120,2744,3328,3357,3193,3277,2927,3261,3322,3054,0.010025412,1.379979436,1.383506856,0.680678427219,4500.0,0.654048621655,0.00242050806992,-0.0266297664493,119.833946228,1.34390354156,6000.0,1.33004117012,-0.0214443597943,-0.0138622978702,90.0564804077,0.349065840244,0.0216827709228,0.00838925596327,0.000847835675813,0.00422532204539,0.00422532204539,-0.000695077644195,-0.0170867498964,4.187936306,4.187936306,0.287969410419,-1.24261212349,2030,2013,2551,2053,2053,2903,3411,3410,3228,3351,3074,3035,3139,3131,3221,2840,3395,3404,3234,3354,3120,3339,3374,3182
1508406167933899707,139,1508406167933672645,plot_matl,0.0,0.0,1.40129846432e-45,4.59163467805e-41,4.47807657576e+28,4.56444948785e-41,0.349065840244,0.30498278141,1.33008527756,-0.00347848818637,0.00108226074371,0.00108226074371,0.0167220160365,0.00189401151147,-96.5605926514,-96.5605926514,-128.827987671,0.477903842926,2656,2226,2224,2032,2032,2885,3357,3377,3214,3329,3059,2897,3027,2958,3120,2744,3328,3359,3195,3276,2924,3261,3322,3055,0.009985235,1.389965533,1.387947665,0.680678427219,4500.0,0.654048621655,0.00271386397071,-0.0266297664493,119.833946228,1.34390354156,6000.0,1.33020913601,0.0142503976822,-0.0136943683028,77.9572143555,0.349065840244,0.0216827709228,0.00839528162032,0.000873995071743,0.00274230376817,0.00274230376817,-0.000817993772216,0.00687363324687,4.15169906616,4.15169906616,0.31890463829,-1.09480655193,2022,2016,2551,2051,2051,2903,3411,3410,3228,3351,3074,3035,3139,3131,3221,2840,3395,3402,3232,3353,3118,3340,3376,3183
1508406167944087955,140,1508406167943711562,plot_matl,0.0,0.0,1.40129846432e-45,4.59163467805e-41,4.47807657576e+28,4.56444948785e-41,0.349065840244,0.30498278141,1.33008527756,-0.00347848818637,0.00108226074371,0.00108226074371,0.0167220160365,0.00189401151147,-96.5605926514,-96.5605926514,-128.827987671,0.477903842926,2678,2247,2224,2032,2032,2885,3358,3378,3214,3327,3060,2896,3026,2960,3120,2744,3328,3359,3195,3276,2924,3261,3322,3055,0.010039268,1.400004981,1.40549752,0.680678427219,4500.0,0.652699172497,-0.0245075318962,-0.027979247272,125.906616211,1.34390354156,6000.0,1.33026611805,-0.0259535722435,-0.0136374495924,89.571105957,0.349065840244,0.0216827709228,0.00839528162032,0.000873995071743,0.00274230376817,0.00274230376817,-0.000817993772216,0.00687363324687,4.15169906616,4.15169906616,0.31890463829,-1.09480655193,2033,2014,2551,2051,2051,2903,3412,3412,3226,3350,3074,3034,3138,3132,3224,2840,3395,3402,3232,3353,3118,3340,3376,3183
