%time,field.header.seq,field.header.stamp,field.header.frame_id,field.FFJ4_set_point,field.FFJ4_position_gain,field.FFJ4_process_value,field.FFJ4_process_value_dot,field.FFJ4_error,field.FFJ4_command,field.FFJ1,field.FFJ2,field.FFJ3,field.FFJ4,field.FFJ1_dot,field.FFJ2_dot,field.FFJ3_dot,field.FFJ4_dot,field.FFJ1_tao,field.FFJ2_tao,field.FFJ3_tao,field.FFJ4_tao,field.pac0,field.pac1,field.pdc0,field.tac0,field.tdc0,field.el0,field.el1,field.el2,field.el3,field.el4,field.el5,field.el6,field.el7,field.el8,field.el9,field.el10,field.el11,field.el12,field.el13,field.el14,field.el15,field.el16,field.el17,field.el18,field.dt,field.time,field.test_time2,field.FFJ0_set_point,field.FFJ0_position_gain,field.FFJ0_process_value,field.FFJ0_process_value_dot,field.FFJ0_error,field.FFJ0_command,field.FFJ3_set_point,field.FFJ3_position_gain,field.FFJ3_process_value,field.FFJ3_process_value_dot,field.FFJ3_error,field.FFJ3_command,field.MFJ1,field.MFJ2,field.MFJ3,field.MFJ4,field.MFJ1_dot,field.MFJ2_dot,field.MFJ3_dot,field.MFJ4_dot,field.MFJ1_tao,field.MFJ2_tao,field.MFJ3_tao,field.MFJ4_tao,field.Mpac0,field.Mpac1,field.Mpdc0,field.Mtac0,field.Mtdc0,field.Mel0,field.Mel1,field.Mel2,field.Mel3,field.Mel4,field.Mel5,field.Mel6,field.Mel7,field.Mel8,field.Mel9,field.Mel10,field.Mel11,field.Mel12,field.Mel13,field.Mel14,field.Mel15,field.Mel16,field.Mel17,field.Mel18
1508405920476874819,94,1508405920476623252,plot_matl,0.0,0.0,1.40129846432e-45,4.59163467805e-41,0.179022908211,4.57776182326e-41,0.349065840244,0.30363330245,1.32998871803,-0.00346722733229,-0.0087385494262,-0.0087385494262,0.0188766792417,0.00165230687708,-97.5624847412,-97.5624847412,-133.777023315,-0.188153594732,1858,1863,2221,2027,2027,2903,3367,3384,3226,3328,3063,2888,3019,2941,3110,2728,3317,3343,3176,3261,2907,3252,3315,3045,0.009958632,0.93999093,0.936111408,0.680678427219,4500.0,0.652699172497,-0.0173236187547,-0.027979247272,125.906616211,1.34390354156,6000.0,1.33002471924,0.0181485041976,-0.0138787906617,78.1759109497,0.349065840244,0.0216827709228,0.00840946566314,0.000756546214689,0.00286664953455,0.00286664953455,-0.00120476842858,-0.0153734954074,0.669774055481,0.669774055481,-1.13213384151,-0.0541305691004,2053,2042,2546,2037,2037,2922,3421,3422,3237,3362,3088,3052,3153,3145,3237,2852,3402,3409,3240,3362,3126,3348,3385,3191
1508405920486956137,95,1508405920486623600,plot_matl,0.0,0.0,1.40129846432e-45,4.59163467805e-41,0.179022908211,4.57776182326e-41,0.349065840244,0.30363330245,1.33009624481,-0.00346071948297,-0.00841074157506,-0.00841074157506,-0.0225269570947,0.00197349442169,-97.6032791138,-97.6032791138,-133.709915161,-0.327694714069,2175,2188,2221,2027,2027,2903,3367,3384,3226,3328,3063,2888,3019,2939,3108,2730,3319,3342,3190,3273,2916,3262,3321,3045,0.009999953,0.949990992,0.949995535,0.680678427219,4500.0,0.654048621655,0.00985145010054,-0.0266297664493,119.833946228,1.34390354156,6000.0,1.33014941216,0.0154639445245,-0.0137541200966,77.6448135376,0.349065840244,0.0216827709228,0.00840015523136,0.000794564140961,0.00406981538981,0.00406981538981,-0.00099769141525,0.00947088096291,0.464659810066,0.464659810066,-0.510896861553,0.0938279479742,2010,2001,2546,2037,2037,2922,3421,3422,3237,3362,3088,3052,3153,3146,3236,2851,3403,3409,3254,3375,3135,3360,3392,3191
1508405920496981583,96,1508405920496640757,plot_matl,0.0,0.0,1.40129846432e-45,4.59163467805e-41,0.179022908211,4.57776182326e-41,0.349065840244,0.30498278141,1.33017814159,-0.00343492929824,0.00459542218596,0.00459542218596,-0.0241442341357,0.0110812615603,-97.7017440796,-97.7017440796,-133.779067993,-0.485270380974,1849,1911,2219,2029,2029,2908,3374,3389,3233,3333,3067,2888,3019,2939,3108,2730,3319,3342,3190,3273,2916,3262,3321,3053,0.01001853,0.960009066,0.96177888,0.680678427219,4500.0,0.654048621655,0.00955559965223,-0.0266297664493,119.833946228,1.34390354156,6000.0,1.33018827438,0.0147250210866,-0.0137152811512,77.8510513306,0.349065840244,0.0216827709228,0.00838536769152,0.000745431054384,0.00380634493195,0.00380634493195,-0.000668785593007,0.0100668305531,0.546435654163,0.546435654163,0.0888261497021,-0.130416959524,2060,2059,2545,2037,2037,2926,3427,3427,3243,3364,3091,3052,3153,3146,3236,2851,3403,3409,3254,3375,3135,3360,3392,3200
1508405920506933311,97,1508405920506638380,plot_matl,0.0,0.0,1.40129846432e-45,4.59163467805e-41,0.179022908211,4.57776182326e-41,0.349065840244,0.30498278141,1.33017814159,-0.00343492929824,0.00459542218596,0.00459542218596,-0.0241442341357,0.0110812615603,-97.7017440796,-97.7017440796,-133.779067993,-0.485270380974,2178,2189,2219,2029,2029,2908,3374,3389,3233,3333,3067,2890,3022,2947,3114,2741,3321,3347,3177,3262,2907,3262,3321,3053,0.009997077,0.970006709,0.969716469,0.680678427219,4500.0,0.654048621655,0.00781179592013,-0.0266297664493,119.833946228,1.34390354156,6000.0,1.33014500141,0.0156284235418,-0.0137585485354,78.066947937,0.349065840244,0.0216827709228,0.00838536769152,0.000745431054384,0.00380634493195,0.00380634493195,-0.000668785593007,0.0100668305531,0.546435654163,0.546435654163,0.0888261497021,-0.130416959524,2020,2006,2545,2037,2037,2926,3427,3427,3243,3364,3091,3053,3156,3148,3238,2854,3404,3413,3242,3363,3128,3360,3392,3200
1508405920516832060,98,1508405920516632102,plot_matl,0.0,0.0,1.40129846432e-45,4.59163467805e-41,0.179022908211,4.57776182326e-41,0.349065840244,0.30498278141,1.33017599583,-0.003425730858,0.00401943223551,0.00401943223551,0.015004215762,0.00107024319004,-97.7209320068,-97.7209320068,-133.861618042,-0.464083731174,1832,1889,2222,2032,2032,2904,3370,3387,3228,3333,3067,2890,3022,2947,3114,2741,3321,3347,3177,3262,2907,3256,3313,3045,0.009992696,0.9799999,0.979284208,0.680678427219,4500.0,0.655398130417,0.0340428501368,-0.025280283764,113.761283875,1.34390354156,6000.0,1.33010268211,-0.0225923974067,-0.0138008184731,89.7056427002,0.349065840244,0.0240919683129,0.00837990548462,0.000724262208678,0.0274511165917,0.0274511165917,-0.00054729176918,0.0103722214699,0.628831684589,0.628831684589,0.254352986813,-0.175164550543,2034,2046,2544,2040,2040,2924,3422,3423,3240,3364,3091,3053,3156,3148,3238,2854,3404,3413,3242,3363,3128,3350,3387,3192
1508405920526947295,99,1508405920526657741,plot_matl,0.0,0.0,1.40129846432e-45,4.59163467805e-41,0.179022908211,4.57776182326e-41,0.349065840244,0.30363330245,1.33008301258,-0.00341733312234,-0.00990883074701,-0.00990883074701,0.0169299338013,0.000826119619887,-97.6466751099,-97.6466751099,-134.12437439,-0.504090547562,2176,2188,2222,2032,2032,2904,3370,3387,3228,3331,3065,2889,3022,2950,3113,2737,3321,3344,3176,3262,2907,3256,3313,3045,0.010024699,0.990025289,0.992445201,0.680678427219,4500.0,0.654048621655,0.006631587632,-0.0266297664493,119.833946228,1.34390354156,6000.0,1.33004832268,-0.0214591715485,-0.0138551760465,89.4632644653,0.349065840244,0.0192735753953,0.00837179366499,0.000670120003633,-0.0197122357786,-0.0197122357786,-0.00036686778185,-0.0131905116141,0.675252795219,0.675252795219,0.0960823819041,-0.0828044563532,2014,2008,2544,2040,2040,2924,3422,3423,3240,3364,3090,3050,3154,3146,3235,2853,3404,3411,3240,3363,3128,3350,3387,3192
1508405920536938397,100,1508405920536653662,plot_matl,0.0,0.0,1.40129846432e-45,4.59163467805e-41,0.179022908211,4.57776182326e-41,0.349065840244,0.30363330245,1.33008301258,-0.00341733312234,-0.00990883074701,-0.00990883074701,0.0169299338013,0.000826119619887,-97.6466751099,-97.6466751099,-134.12437439,-0.504090547562,1853,1909,2222,2031,2031,2905,3371,3387,3228,3331,3065,2889,3022,2950,3113,2737,3321,3344,3176,3261,2907,3255,3314,3044,0.009998402,1.000023068,0.9998402,0.680678427219,4500.0,0.652699172497,-0.0183761101216,-0.027979247272,125.906616211,1.34390354156,6000.0,1.33005523682,-0.0216206330806,-0.0138482730836,89.5597000122,0.349065840244,0.0192735753953,0.00837179366499,0.000670120003633,-0.0197122357786,-0.0197122357786,-0.00036686778185,-0.0131905116141,0.675252795219,0.675252795219,0.0960823819041,-0.0828044563532,2045,2055,2545,2042,2042,2921,3422,3423,3240,3364,3090,3050,3154,3146,3235,2853,3404,3411,3240,3363,3126,3348,3385,3194
1508405920546810285,101,1508405920546640441,plot_matl,0.0,0.0,1.40129846432e-45,4.59163467805e-41,0.179022908211,4.57776182326e-41,0.349065840244,0.30363330245,1.33001494408,-0.00341129791923,-0.00909584388137,-0.00909584388137,-0.0208040624857,0.000668885710184,-97.5743331909,-97.5743331909,-134.279541016,-0.412742197514,2164,2171,2222,2031,2031,2905,3371,3386,3226,3330,3063,2889,3022,2949,3114,2737,3320,3344,3176,3261,2907,3255,3314,3044,0.009984825,1.010008488,1.008467325,0.680678427219,4500.0,0.654048621655,0.00878743920475,-0.0266297664493,119.833946228,1.34390354156,6000.0,1.33004510403,0.0176705252379,-0.0138584002852,77.659614563,0.349065840244,0.0216827709228,0.00836880970746,0.000677046424244,0.00558150233701,0.00558150233701,-0.000300497806165,-0.0133610144258,0.734002768993,0.734002768993,0.25960996747,-0.105142608285,2006,2001,2545,2042,2042,2921,3422,3422,3238,3361,3088,3050,3155,3144,3237,2852,3405,3411,3240,3363,3126,3348,3385,3194
1508405920556956883,102,1508405920556634336,plot_matl,0.0,0.0,1.40129846432e-45,4.59163467805e-41,0.179022908211,4.57776182326e-41,0.349065840244,0.30363330245,1.33004260063,-0.0034325956367,-0.00913667306304,-0.00913667306304,0.0177353546023,-0.00868613272905,-97.6515884399,-97.6515884399,-134.26612854,-0.5605224967,1842,1901,2223,2026,2026,2905,3371,3386,3226,3330,3063,2889,3022,2949,3114,2737,3320,3342,3175,3262,2905,3255,3314,3046,0.009993851,1.020002307,1.019372802,0.680678427219,4500.0,0.654048621655,0.00816285703331,-0.0266297664493,119.833946228,1.34390354156,6000.0,1.33006966114,0.0172131583095,-0.0138338543475,77.3850708008,0.349065840244,0.0216827709228,0.00838148593903,0.000706452876329,0.00587256904691,0.00587256904691,0.0147937051952,-0.0140093807131,0.694469153881,0.694469153881,0.466762363911,-0.225243002176,2035,2051,2545,2039,2039,2921,3422,3422,3238,3361,3088,3050,3155,3144,3237,2852,3405,3410,3240,3363,3127,3351,3385,3191
1508405920566990436,103,1508405920566644402,plot_matl,0.0,0.0,1.40129846432e-45,4.59163467805e-41,0.179022908211,4.57776182326e-41,0.349065840244,0.30498278141,1.33002901077,-0.00345081184059,0.00392821710557,0.00392821710557,-0.0210070163012,-0.00832130387425,-97.5722122192,-97.5722122192,-134.030380249,-0.604805231094,2183,2196,2223,2026,2026,2904,3366,3386,3226,3328,3064,2890,3023,2949,3114,2737,3320,3342,3175,3262,2905,3255,3314,3046,0.010010579,1.030013475,1.031089637,0.680678427219,4500.0,0.654048621655,0.00562486285344,-0.0266297664493,119.833946228,1.34390354156,6000.0,1.3300498724,-0.0214332044125,-0.0138536309823,89.8388595581,0.349065840244,0.0216827709228,0.00839072559029,0.00070932059316,0.00615374511108,0.00615374511108,-0.000754578446504,-0.0140984961763,0.761391639709,0.761391639709,0.601523041725,0.214800849557,2006,2011,2545,2039,2039,2921,3421,3422,3238,3362,3091,3050,3153,3144,3236,2852,3405,3410,3240,3363,3127,3351,3385,3191
1508405920577040249,104,1508405920576636904,plot_matl,0.0,0.0,1.40129846432e-45,4.59163467805e-41,0.179022908211,4.57776182326e-41,0.349065840244,0.30498278141,1.33008253574,-0.00345467962325,0.00295983068645,0.00295983068645,0.0169513784349,0.0112752672285,-97.5746994019,-97.5746994019,-134.024536133,-0.570276319981,1846,1910,2223,2026,2026,2904,3366,3386,3226,3328,3064,2890,3023,2949,3114,2737,3319,3343,3175,3261,2906,3255,3312,3046,0.009991676,1.040005175,1.039134304,0.680678427219,4500.0,0.652699172497,-0.0211045928299,-0.027979247272,125.906616211,1.34390354156,6000.0,1.33009529114,0.0166420601308,-0.0138082867488,77.4703903198,0.349065840244,0.0192735753953,0.00839788932353,0.000734546803869,-0.0188158005476,-0.0188158005476,-0.000885377754457,0.00985363684595,0.879819333553,0.879819333553,0.746146202087,-0.0125385643914,2037,2050,2546,2039,2039,2921,3421,3422,3238,3362,3091,3050,3153,3144,3236,2853,3402,3412,3239,3362,3127,3350,3387,3190
1508405920587072997,105,1508405920586655901,plot_matl,0.0,0.0,1.40129846432e-45,4.59163467805e-41,0.179022908211,4.57776182326e-41,0.349065840244,0.30363330245,1.33006608486,-0.00344830285758,-0.00951029080898,-0.00951029080898,0.0172733739018,0.00135048350785,-97.4047317505,-97.4047317505,-134.216079712,-0.656764030457,2163,2179,2223,2029,2029,2905,3366,3383,3227,3326,3065,2888,3021,2949,3114,2737,3319,3343,3175,3261,2906,3255,3312,3046,0.010020533,1.050025368,1.052155965,0.680678427219,4500.0,0.654048621655,0.00801541749388,-0.0266297664493,119.833946228,1.34390354156,6000.0,1.3300703764,-0.0218936130404,-0.0138331996277,89.361289978,0.349065840244,0.0240919683129,0.00840670056641,0.000658174045384,0.0293897502124,0.0293897502124,-0.0010665692389,0.0113140335307,0.923316657543,0.923316657543,0.948343634605,-0.355228275061,2003,1996,2546,2042,2042,2920,3421,3422,3238,3363,3086,3050,3154,3144,3236,2853,3402,3412,3239,3362,3127,3350,3387,3190
1508405920597509353,106,1508405920596689681,plot_matl,0.0,0.0,1.40129846432e-45,4.59163467805e-41,0.179022908211,4.57776182326e-41,0.349065840244,0.30363330245,1.33006608486,-0.00344830285758,-0.00951029080898,-0.00951029080898,0.0172733739018,0.00135048350785,-97.4047317505,-97.4047317505,-134.216079712,-0.656764030457,1840,1904,2223,2029,2029,2905,3366,3383,3227,3326,3065,2888,3021,2948,3111,2731,3319,3343,3176,3262,2906,3254,3313,3046,0.01003308,1.060059159,1.06350648,0.680678427219,4500.0,0.654048621655,0.00803882163018,-0.0266297664493,119.833946228,1.34390354156,6000.0,1.33008790016,0.0168818421662,-0.0138156134635,77.8146362305,0.349065840244,0.0240919683129,0.00840670056641,0.000658174045384,0.0293897502124,0.0293897502124,-0.0010665692389,0.0113140335307,0.923316657543,0.923316657543,0.948343634605,-0.355228275061,2041,2053,2546,2042,2042,2920,3421,3422,3238,3363,3086,3050,3154,3145,3236,2850,3403,3410,3239,3363,3126,3351,3387,3190
1508405920607005071,107,1508405920606668844,plot_matl,0.0,0.0,1.40129846432e-45,4.59163467805e-41,0.179022908211,4.57776182326e-41,0.349065840244,0.30498278141,1.33008182049,-0.00343739031814,0.00412572408095,0.00412572408095,-0.022078435868,0.00111669371836,-97.2953262329,-97.2953262329,-134.470336914,-0.545725941658,2182,2198,2225,2032,2032,2903,3367,3384,3225,3328,3065,2888,3021,2948,3111,2731,3319,3343,3176,3262,2906,3254,3313,3044,0.009976379,1.070036659,1.067472553,0.680678427219,4500.0,0.654048621655,0.00803882163018,-0.0266297664493,119.833946228,1.34390354156,6000.0,1.33008790016,0.0168818421662,-0.0138156134635,77.8146362305,0.349065840244,0.0216827709228,0.00842407718301,0.000648382119834,0.00449881330132,0.00449881330132,-0.00140081811696,0.0114876870066,0.868576943874,0.868576943874,0.557077884674,-0.536161243916,2016,2010,2545,2038,2038,2923,3421,3420,3237,3361,3088,3050,3154,3145,3236,2850,3403,3410,3239,3363,3126,3351,3387,3193
1508405920617096091,108,1508405920616638413,plot_matl,0.0,0.0,1.40129846432e-45,4.59163467805e-41,0.179022908211,4.57776182326e-41,0.349065840244,0.30498278141,1.33011329174,-0.00342758605257,0.00429347995669,0.00429347995669,-0.0229486562312,0.000910495349672,-97.4962158203,-97.4962158203,-134.66847229,-0.629607975483,2152,2227,2225,2032,2032,2903,3367,3384,3225,3328,3065,2890,3031,2949,3119,2738,3326,3351,3182,3267,2912,3254,3313,3044,0.009969976,1.080006667,1.076757408,0.680678427219,4500.0,0.654048621655,0.0082535892725,-0.0266297664493,119.833946228,1.34390354156,6000.0,1.33010792732,0.0162468124181,-0.0137955965474,77.8367462158,0.349065840244,0.0192735753953,0.00841137673706,0.00065582053503,-0.0196591150016,-0.0196591150016,-0.00114215596113,-0.0132759977132,0.623785912991,0.623785912991,0.686620175838,-0.334644526243,2003,2002,2545,2038,2038,2923,3421,3420,3237,3361,3088,3052,3164,3154,3244,2858,3409,3417,3245,3367,3132,3351,3387,3193
1508405920626879660,109,1508405920626641279,plot_matl,0.0,0.0,1.40129846432e-45,4.59163467805e-41,0.179022908211,4.57776182326e-41,0.349065840244,0.30498278141,1.32997763157,-0.00341973686591,0.00353532563895,0.00353532563895,-0.0201616790146,0.00074540800415,-97.5473709106,-97.5473709106,-134.662445068,-0.736395120621,1901,1885,2220,2033,2033,2907,3371,3386,3229,3328,3065,2890,3031,2949,3119,2738,3326,3351,3182,3267,2912,3258,3316,3047,0.010003187,1.090009933,1.090347383,0.680678427219,4500.0,0.652699172497,-0.0199339482933,-0.027979247272,125.906616211,1.34390354156,6000.0,1.32993793488,-0.0193536430597,-0.013965619728,89.5658416748,0.349065840244,0.0216827709228,0.00840120948851,0.000671863497701,0.00511583779007,0.00511583779007,-0.000935064919759,0.0108787640929,0.619468927383,0.619468927383,0.819067656994,-0.322488844395,2048,2048,2545,2039,2039,2923,3424,3422,3240,3361,3088,3052,3164,3154,3244,2858,3409,3417,3245,3367,3132,3353,3388,3194
1508405920637076374,110,1508405920636687132,plot_matl,0.0,0.0,1.40129846432e-45,4.59163467805e-41,0.179022908211,4.57776182326e-41,0.349065840244,0.30363330245,1.3300485611,-0.00342291803099,-0.00971525814384,-0.00971525814384,0.0175064783543,-0.0089626070112,-97.4509506226,-97.4509506226,-134.574874878,-0.747062683105,2154,2225,2220,2033,2033,2907,3371,3386,3229,3328,3067,2887,3021,2942,3113,2734,3321,3345,3177,3267,2912,3258,3316,3047,0.010045732,1.100055957,1.10503052,0.680678427219,4500.0,0.654048621655,0.0075180772692,-0.0266297664493,119.833946228,1.34390354156,6000.0,1.33000707626,-0.0207193344831,-0.0138964755461,89.6881790161,0.349065840244,0.0216827709228,0.00840606912971,0.00072452967288,0.00588080193847,0.00588080193847,-0.00103634456173,-0.0146571621299,0.510009944439,0.510009944439,0.888688623905,-0.274677932262,1992,2002,2545,2039,2039,2923,3424,3422,3240,3363,3090,3052,3154,3146,3237,2853,3404,3411,3242,3367,3132,3353,3388,3194
1508405920647007557,111,1508405920646638611,plot_matl,0.0,0.0,1.40129846432e-45,4.59163467805e-41,0.179022908211,4.57776182326e-41,0.349065840244,0.30363330245,1.32992660999,-0.00342511967756,-0.00915591605008,-0.00915591605008,-0.0190644841641,0.000847767398227,-97.5128707886,-97.5128707886,-134.352386475,-0.759461343288,1906,1886,2220,2032,2032,2905,3368,3386,3229,3328,3067,2887,3021,2942,3113,2734,3321,3345,3177,3262,2906,3256,3314,3045,0.009950206,1.110006829,1.104472866,0.680678427219,4500.0,0.654048621655,0.00861493404955,-0.0266297664493,119.833946228,1.34390354156,6000.0,1.32988977432,-0.0183165725321,-0.0140137951821,89.2148361206,0.349065840244,0.0216827709228,0.00841246452183,0.000767437217291,0.00568187888712,0.00568187888712,-0.00114649732132,-0.0155155342072,0.559544503689,0.559544503689,1.03953766823,-0.0245810039341,2047,2043,2545,2041,2041,2922,3424,3422,3240,3363,3090,3052,3154,3146,3237,2853,3404,3411,3242,3362,3127,3351,3387,3192
1508405920656986087,112,1508405920656637081,plot_matl,0.0,0.0,1.40129846432e-45,4.59163467805e-41,0.179022908211,4.57776182326e-41,0.349065840244,0.30363330245,1.32986438274,-0.00341005623341,-0.00892300251871,-0.00892300251871,0.0212919339538,0.000533471349627,-97.377571106,-97.377571106,-134.4322052,-0.727705419064,2155,2226,2220,2032,2032,2905,3368,3386,3230,3328,3067,2887,3021,2943,3111,2737,3323,3345,3177,3262,2906,3256,3314,3045,0.009997834,1.120005169,1.119757408,0.680678427219,4500.0,0.654048621655,0.00902987644076,-0.0266297664493,119.833946228,1.34390354156,6000.0,1.32982850075,-0.0170594323426,-0.0140750193968,90.0073852539,0.349065840244,0.0216827709228,0.00840209424496,0.000803984934464,0.00638004997745,0.00638004997745,-0.00093850272242,0.00824356637895,0.639450788498,0.639450788498,1.13899505138,-0.0913324728608,2002,2007,2545,2041,2041,2922,3424,3421,3237,3361,3088,3050,3153,3145,3238,2852,3402,3411,3242,3362,3127,3351,3387,3192
1508405920667033433,113,1508405920666658408,plot_matl,0.0,0.0,1.40129846432e-45,4.59163467805e-41,0.179022908211,4.57776182326e-41,0.349065840244,0.30498278141,1.32966792583,-0.00341413589194,0.00384782068431,0.00384782068431,-0.0138340676203,0.000614319229499,-97.4207839966,-97.4207839966,-134.500259399,-0.739423930645,1897,1893,2220,2028,2028,2905,3368,3386,3230,3328,3067,2887,3021,2943,3111,2737,3323,3345,3177,3260,2906,3255,3312,3042,0.010021918,1.130027263,1.132476734,0.680678427219,4500.0,0.654048621655,0.00739415921271,-0.0266297664493,119.833946228,1.34390354156,6000.0,1.32964122295,-0.0132921086624,-0.014262306504,89.5258255005,0.349065840244,0.0216827709228,0.00840612407774,0.000832367339171,0.00650508189574,0.00650508189574,-0.00103301624767,0.0076495334506,0.709578037262,0.709578037262,1.48146140575,0.359620422125,2054,2044,2545,2037,2037,2922,3424,3421,3237,3361,3088,3050,3153,3145,3238,2852,3402,3412,3240,3361,3127,3350,3385,3191
1508405920676830953,114,1508405920676649963,plot_matl,0.0,0.0,1.40129846432e-45,4.59163467805e-41,0.179022908211,4.57776182326e-41,0.349065840244,0.30498278141,1.32964837551,-0.00341726955958,0.00365446717478,0.00365446717478,-0.0134255588055,0.000674076785799,-97.3469467163,-97.3469467163,-134.552536011,-0.676036298275,2154,2219,2220,2028,2028,2906,3368,3386,3228,3327,3065,2888,3020,2948,3111,2737,3323,3345,3177,3260,2906,3255,3312,3042,0.009991876,1.140019164,1.139073864,0.680678427219,4500.0,0.654048621655,0.00701731257141,-0.0266297664493,119.833946228,1.34390354156,6000.0,1.32962191105,-0.0128898881376,-0.0142815848812,89.6800308228,0.349065840244,0.0216827709228,0.00843853410333,0.000768102705479,0.00669531011954,0.00669531011954,0.0136601170525,0.00893180444837,0.833025991917,0.833025991917,1.54262518883,0.475954294205,2006,1994,2545,2037,2037,2921,3422,3421,3238,3363,3090,3049,3154,3146,3235,2852,3402,3412,3240,3361,3127,3350,3385,3191
1508405920686818457,115,1508405920686662493,plot_matl,0.0,0.0,1.40129846432e-45,4.59163467805e-41,0.179022908211,4.57776182326e-41,0.349065840244,0.30633226037,1.32959485054,-0.00340550462715,0.0169387515634,0.0169387515634,-0.0123236905783,0.00042558813584,-97.1624221802,-97.1624221802,-134.529067993,-0.72530734539,1897,1885,2223,2028,2028,2906,3368,3386,3228,3327,3065,2888,3020,2948,3111,2739,3321,3344,3175,3262,2904,3255,3312,3044,0.010009422,1.150030009,1.15108353,0.680678427219,4500.0,0.655398130417,0.0344795845449,-0.025280283764,113.761283875,1.34390354156,6000.0,1.32961523533,0.0263227690011,-0.01428827364,77.4010467529,0.349065840244,0.0216827709228,0.00842318776995,0.000835425278638,0.00579456798732,0.00579456798732,-0.00137026270386,0.00755181256682,0.921371519566,0.921371519566,1.47225439548,0.36129796505,2054,2052,2545,2037,2037,2921,3422,3421,3238,3363,3090,3049,3154,3146,3235,2853,3402,3411,3239,3362,3127,3349,3385,3191
1508405920696888515,116,1508405920696638720,plot_matl,0.0,0.0,1.40129846432e-45,4.59163467805e-41,0.179022908211,4.57776182326e-41,0.349065840244,0.30633226037,1.32959485054,-0.00340550462715,0.0169387515634,0.0169387515634,-0.0123236905783,0.00042558813584,-97.1624221802,-97.1624221802,-134.529067993,-0.72530734539,2161,2230,2223,2027,2027,2903,3367,3384,3225,3329,3064,2888,3022,2948,3111,2739,3321,3344,3175,3262,2904,3255,3312,3044,0.009978034,1.160007239,1.157451944,0.680678427219,4500.0,0.654048621655,0.00635848427191,-0.0266297664493,119.833946228,1.34390354156,6000.0,1.3295712471,-0.011845192872,-0.0143322488293,89.4550170898,0.349065840244,0.0216827709228,0.00842318776995,0.000835425278638,0.00579456798732,0.00579456798732,-0.00137026270386,0.00755181256682,0.921371519566,0.921371519566,1.47225439548,0.36129796505,2002,2005,2545,2041,2041,2921,3421,3422,3239,3361,3088,3051,3154,3146,3235,2853,3402,3411,3239,3362,3127,3349,3385,3191
1508405920707036300,117,1508405920706639305,plot_matl,0.0,0.0,1.40129846432e-45,4.59163467805e-41,0.179022908211,4.57776182326e-41,0.349065840244,0.30363330245,1.32945024967,-0.00339365028776,-0.0101684285328,-0.0101684285328,-0.0093911960721,0.000188759193406,-97.2464828491,-97.2464828491,-134.478347778,-0.812420070171,1905,1887,2223,2027,2027,2903,3367,3384,3225,3329,3064,2888,3022,2951,3111,2739,3319,3344,3177,3261,2907,3254,3315,3044,0.010000535,1.17000795,1.170062595,0.680678427219,4500.0,0.654048621655,0.00666628498584,-0.0266297664493,119.833946228,1.34390354156,6000.0,1.32943165302,-0.00901430100203,-0.0144718950614,89.4551696777,0.349065840244,0.0216827709228,0.00841094832867,0.000863189459778,0.00555986445397,0.00555986445397,-0.0011232199613,0.00699734780937,0.902327537537,0.902327537537,1.50314629078,0.326886147261,2051,2046,2545,2041,2041,2921,3421,3422,3239,3361,3088,3051,3154,3145,3235,2851,3403,3411,3241,3362,3128,3348,3387,3191
1508405920716807772,118,1508405920716628471,plot_matl,0.0,0.0,1.40129846432e-45,4.59163467805e-41,0.179022908211,4.57776182326e-41,0.349065840244,0.30498278141,1.32943677902,-0.00339224655181,0.00309058139101,0.00309058139101,-0.00910451635718,0.000163357210113,-97.3408203125,-97.3408203125,-134.42376709,-1.06240320206,2149,2223,2221,2028,2028,2901,3366,3384,3227,3328,3063,2888,3022,2951,3111,2739,3319,3344,3177,3261,2907,3254,3315,3043,0.009987119,1.179996211,1.178480042,0.680678427219,4500.0,0.654048621655,0.00646901503205,-0.0266297664493,119.833946228,1.34390354156,6000.0,1.32941901684,-0.00874613039196,-0.0144844744354,89.5543060303,0.349065840244,0.0216827709228,0.00842941738665,0.000872876262292,0.00578311318532,0.00578311318532,-0.00149353058077,0.0067906905897,0.986651539803,0.986651539803,1.47439932823,0.303340405226,2004,2002,2545,2038,2038,2921,3421,3421,3237,3361,3087,3051,3154,3145,3235,2851,3403,3411,3241,3362,3128,3348,3387,3190
1508405920726914695,119,1508405920726635896,plot_matl,0.0,0.0,1.40129846432e-45,4.59163467805e-41,0.179022908211,4.57776182326e-41,0.349065840244,0.30363330245,1.32938826084,-0.00339079811238,-0.00960991717875,-0.00960991717875,-0.00811650883406,0.000133601541165,-97.2713317871,-97.2713317871,-134.653808594,-0.912553012371,1904,1892,2221,2028,2028,2901,3366,3384,3227,3328,3063,2889,3023,2949,3111,2738,3320,3344,3175,3262,2905,3254,3315,3043,0.010008482,1.19000437,1.191009358,0.680678427219,4500.0,0.654048621655,0.00773708848283,-0.0266297664493,119.833946228,1.34390354156,6000.0,1.32941102982,-0.00854764319956,-0.0144924493507,89.3737564087,0.349065840244,0.0192735753953,0.0084302732721,0.000868450617418,-0.0186202879995,-0.0186202879995,-0.00151112524327,0.00688361842185,0.94639146328,0.94639146328,1.0609600544,0.544001340866,2047,2052,2545,2038,2038,2921,3421,3421,3237,3361,3087,3050,3154,3146,3236,2854,3402,3410,3239,3361,3126,3348,3387,3190
1508405920737089628,120,1508405920736664033,plot_matl,0.0,0.0,1.40129846432e-45,4.59163467805e-41,0.179022908211,4.57776182326e-41,0.349065840244,0.30498278141,1.32945430279,-0.00338020315394,0.00379761727527,0.00379761727527,-0.00942578166723,-8.01762071205e-05,-97.3338241577,-97.3338241577,-134.459823608,-0.964707374573,2164,2229,2223,2029,2029,2903,3366,3386,3228,3328,3063,2889,3023,2949,3111,2738,3320,3344,3175,3262,2905,3255,3313,3045,0.01002906,1.200033284,1.2034872,0.680678427219,4500.0,0.654048621655,0.00782356690615,-0.0266297664493,119.833946228,1.34390354156,6000.0,1.32947409153,0.029247796163,-0.014429400675,77.8884735107,0.349065840244,0.0216827709228,0.00845664646477,0.000912735355087,0.00516515877098,0.00516515877098,-0.00203497428447,0.00602569943294,0.958344995975,0.958344995975,1.13913905621,0.501545846462,2000,2003,2545,2036,2036,2921,3421,3422,3238,3361,3087,3050,3154,3146,3236,2854,3402,3410,3239,3361,3126,3349,3386,3191
1508405920746973528,121,1508405920746683155,plot_matl,0.0,0.0,1.40129846432e-45,4.59163467805e-41,0.179022908211,4.57776182326e-41,0.349065840244,0.30498278141,1.32939755917,-0.00338010885753,0.00382859446108,0.00382859446108,-0.0083697065711,-6.94979680702e-05,-97.307258606,-97.307258606,-134.270690918,-0.933046400547,1897,1889,2223,2029,2029,2903,3366,3386,3228,3327,3065,2889,3019,2948,3113,2734,3320,3345,3175,3262,2905,3255,3313,3045,0.0100178,1.210051679,1.2121538,0.680678427219,4500.0,0.654048621655,0.00736254779622,-0.0266297664493,119.833946228,1.34390354156,6000.0,1.3294210434,-0.00879232026637,-0.0144824339077,89.3023376465,0.349065840244,0.0216827709228,0.00845093745738,0.000901339226402,0.005500940606,0.005500940606,-0.00192529952619,-0.0182346682996,0.777782082558,0.777782082558,0.721237003803,0.555493712425,2050,2050,2545,2036,2036,2921,3421,3422,3238,3362,3088,3050,3153,3146,3236,2852,3403,3413,3240,3361,3126,3349,3386,3191
1508405920756903261,122,1508405920756649849,plot_matl,0.0,0.0,1.40129846432e-45,4.59163467805e-41,0.179022908211,4.57776182326e-41,0.349065840244,0.30498278141,1.32957148552,-0.00338080432266,0.00389416865073,0.00389416865073,0.027275858447,-6.8368994107e-05,-97.3663482666,-97.3663482666,-134.364089966,-0.984554886818,2156,2232,2224,2032,2032,2903,3369,3386,3228,3327,3065,2889,3019,2948,3113,2734,3320,3345,3175,3262,2906,3254,3314,3045,0.009966237,1.220018734,1.215880914,0.680678427219,4500.0,0.654048621655,0.00747951352969,-0.0266297664493,119.833946228,1.34390354156,6000.0,1.32954597473,-0.0503918230534,-0.0143575426191,101.746124268,0.349065840244,0.0216827709228,0.0084477448836,0.000914066564292,0.00529198115692,0.00529198115692,-0.00186491489876,0.00598490145057,0.70996516943,0.70996516943,0.645888745785,0.686664164066,2004,1998,2545,2036,2036,2920,3422,3422,3238,3362,3088,3050,3153,3146,3236,2852,3403,3413,3240,3364,3127,3350,3385,3192
1508405920767063991,123,1508405920766634086,plot_matl,0.0,0.0,1.40129846432e-45,4.59163467805e-41,0.179022908211,4.57776182326e-41,0.349065840244,0.30498278141,1.32957684994,-0.00339033617638,0.00362863531336,0.00362863531336,0.027172986418,0.000117936993774,-97.222618103,-97.222618103,-134.558792114,-1.13507735729,1896,1876,2224,2032,2032,2903,3369,3386,3225,3329,3065,2887,3022,2948,3112,2729,3318,3345,3175,3262,2906,3254,3314,3045,0.00998306,1.230002318,1.22791638,0.680678427219,4500.0,0.652699172497,-0.0192268267274,-0.027979247272,125.906616211,1.34390354156,6000.0,1.3295917511,0.0268696434796,-0.0143117941916,77.9452438354,0.349065840244,0.0216827709228,0.00843085534871,0.000926374341361,0.00476577971131,0.00476577971131,-0.00152420834638,0.00573619268835,0.731520593166,0.731520593166,0.600029051304,0.755305290222,2044,2039,2545,2036,2036,2920,3422,3422,3236,3363,3090,3050,3153,3145,3236,2852,3404,3413,3240,3364,3127,3350,3385,3192
1508405920776904754,124,1508405920776642650,plot_matl,0.0,0.0,1.40129846432e-45,4.59163467805e-41,0.179022908211,4.57776182326e-41,0.349065840244,0.30498278141,1.32964789867,-0.00338924606331,0.00364061142318,0.00364061142318,0.0257285069674,9.66572406469e-05,-97.2574081421,-97.2574081421,-134.705093384,-0.956789731979,2151,2229,2224,2029,2029,2903,3369,3386,3225,3329,3065,2887,3022,2948,3112,2729,3318,3344,3174,3263,2906,3255,3316,3043,0.010008353,1.240011044,1.241035772,0.680678427219,4500.0,0.654048621655,0.00751759344712,-0.0266297664493,119.833946228,1.34390354156,6000.0,1.32962274551,-0.0128344073892,-0.0142807913944,89.3887252808,0.349065840244,0.0240919683129,0.00845433212817,0.000958745426033,0.0286244563758,0.0286244563758,-0.0019997144118,0.00510519789532,0.855016052723,0.855016052723,0.566497385502,0.761019289494,2000,2001,2545,2037,2037,2920,3422,3422,3236,3363,3090,3050,3153,3145,3236,2852,3404,3411,3240,3362,3127,3350,3384,3191
1508405920787096488,125,1508405920786713961,plot_matl,0.0,0.0,1.40129846432e-45,4.59163467805e-41,0.179022908211,4.57776182326e-41,0.349065840244,0.30498278141,1.32956755161,-0.00340732024051,0.00371602736413,0.00371602736413,-0.0116955852136,-0.00930775236338,-97.3912887573,-97.3912887573,-134.550003052,-0.821243286133,1891,1873,2224,2029,2029,2902,3366,3385,3227,3328,3064,2890,3019,2943,3110,2729,3318,3344,3174,3263,2906,3255,3316,3043,0.010071355,1.25008262,1.258919375,0.680678427219,4500.0,0.652699172497,-0.0195866450667,-0.027979247272,125.906616211,1.34390354156,6000.0,1.32954442501,-0.0112291537225,-0.0143591295928,89.5255355835,0.349065840244,0.0216827709228,0.00843647774309,0.000890929892194,0.00490237213671,0.00490237213671,-0.00163918873295,-0.0179975088686,0.918134868145,0.918134868145,0.308213353157,1.06261909008,2049,2046,2545,2037,2037,2922,3422,3423,3237,3358,3089,3050,3153,3145,3237,2852,3404,3411,3240,3362,3127,3350,3384,3191
1508405920796928315,126,1508405920796702509,plot_matl,0.0,0.0,1.40129846432e-45,4.59163467805e-41,0.179022908211,4.57776182326e-41,0.349065840244,0.30363330245,1.32953071594,-0.00342981284484,-0.00983726978302,-0.00983726978302,-0.0109623000026,0.000906017492525,-97.3968887329,-97.3968887329,-134.562225342,-0.708795905113,2148,2222,2220,2029,2029,2902,3366,3385,3227,3328,3064,2890,3019,2943,3110,2728,3319,3346,3177,3262,2906,3254,3313,3044,0.009988844,1.260071379,1.258594344,0.680678427219,4500.0,0.654048621655,0.00784334726632,-0.0266297664493,119.833946228,1.34390354156,6000.0,1.32954967022,0.027766097337,-0.0143538182601,77.0716247559,0.349065840244,0.0216827709228,0.00842176005244,0.00087924185209,0.00492901168764,0.00492901168764,-0.00134200335015,0.00668841553852,0.900172472,0.900172472,0.254635930061,0.827888011932,1998,1998,2546,2037,2037,2922,3422,3423,3237,3358,3089,3050,3153,3145,3237,2852,3403,3412,3240,3364,3126,3348,3383,3191
1508405920806797307,127,1508405920806632278,plot_matl,0.0,0.0,1.40129846432e-45,4.59163467805e-41,0.179022908211,4.57776182326e-41,0.349065840244,0.30498278141,1.32957649231,-0.00343903223984,0.00386641221121,0.00386641221121,-0.0118203889579,-0.00865923985839,-97.325302124,-97.325302124,-134.459884644,-0.408059895039,1902,1877,2220,2029,2029,2903,3370,3383,3227,3327,3065,2888,3020,2943,3110,2728,3319,3346,3177,3262,2906,3254,3313,3044,0.009926203,1.269999342,1.260627781,0.680678427219,4500.0,0.652699172497,-0.0187740847468,-0.027979247272,125.906616211,1.34390354156,6000.0,1.32955384254,-0.0113669065759,-0.0143497129902,89.4522781372,0.349065840244,0.0192735753953,0.00842361990362,0.000870382296853,-0.0193880535662,-0.0193880535662,-0.00135270960163,-0.0176118053496,0.880782425404,0.880782425404,0.20828653872,0.564986228943,2051,2042,2546,2037,2037,2920,3421,3421,3237,3360,3088,3051,3153,3145,3237,2852,3403,3412,3240,3364,3126,3348,3383,3191
1508405920816862829,128,1508405920816673010,plot_matl,0.0,0.0,1.40129846432e-45,4.59163467805e-41,0.179022908211,4.57776182326e-41,0.349065840244,0.30363330245,1.3295404911,-0.00344595802017,-0.00943792890757,-0.00943792890757,-0.0111069558188,0.00125717523042,-97.3701705933,-97.3701705933,-134.306335449,-0.374132603407,2163,2228,2220,2029,2029,2903,3370,3383,3227,3327,3065,2888,3020,2939,3112,2728,3316,3342,3178,3262,2906,3254,3314,3044,0.010044229,1.280041819,1.285661312,0.680678427219,4500.0,0.654048621655,0.00854674074799,-0.0266297664493,119.833946228,1.34390354156,6000.0,1.32959210873,0.0268841348588,-0.0143113685772,77.6756515503,0.349065840244,0.0216827709228,0.00842761527747,0.000826778064948,0.00572721567005,0.00572721567005,0.0139201423153,-0.0166619215161,0.981852889061,0.981852889061,-0.132675215602,0.39651453495,2008,2006,2546,2037,2037,2920,3421,3421,3237,3360,3088,3051,3153,3144,3236,2851,3401,3411,3238,3363,3129,3348,3387,3191
1508405920827238345,129,1508405920826652332,plot_matl,0.0,0.0,1.40129846432e-45,4.59163467805e-41,0.179022908211,4.57776182326e-41,0.349065840244,0.30498278141,1.32953763008,-0.00345291267149,0.0041439589113,0.0041439589113,-0.0111154997721,0.0013809602242,-97.4841003418,-97.4841003418,-134.250930786,-0.30135089159,1890,1873,2222,2025,2025,2902,3368,3386,3228,3328,3063,2888,3020,2939,3112,2728,3316,3342,3178,3262,2906,3254,3314,3045,0.009978455,1.290021392,1.287220695,0.680678427219,4500.0,0.654048621655,0.00796118285507,-0.0266297664493,119.833946228,1.34390354156,6000.0,1.32955288887,0.0276413541287,-0.014350653626,78.1063690186,0.349065840244,0.0192735753953,0.00841453392059,0.000756756402552,-0.0182862319052,-0.0182862319052,-0.00115248223301,-0.0153284044936,0.935113132,0.935113132,-0.131270095706,0.355776101351,2048,2039,2545,2034,2034,2921,3422,3420,3239,3360,3088,3051,3153,3144,3236,2851,3401,3411,3238,3363,3129,3348,3387,3191
1508405920836913445,130,1508405920836648312,plot_matl,0.0,0.0,1.40129846432e-45,4.59163467805e-41,0.179022908211,4.57776182326e-41,0.349065840244,0.30363330245,1.32950520515,-0.00345774972811,-0.00945702474564,-0.00945702474564,-0.0104440636933,0.00146941607818,-97.5038909912,-97.5038909912,-134.090911865,-0.286395430565,2149,2218,2222,2025,2025,2902,3368,3386,3228,3328,3063,2886,3019,2941,3108,2731,3321,3344,3176,3262,2906,3254,3314,3045,0.009995925,1.300017191,1.29947025,0.680678427219,4500.0,0.654048621655,0.00856020860374,-0.0266297664493,119.833946228,1.34390354156,6000.0,1.32956111431,0.0275170207024,-0.014342404902,77.9801330566,0.349065840244,0.0192735753953,0.00841702707112,0.000795670668595,-0.0188691802323,-0.0188691802323,-0.00120044057257,0.00836130324751,0.801282405853,0.801282405853,-0.0722618177533,0.519067168236,1999,1999,2545,2034,2034,2921,3422,3420,3239,3360,3088,3051,3154,3145,3236,2851,3401,3410,3241,3363,3126,3348,3387,3191
1508405920847204907,131,1508405920846697106,plot_matl,0.0,0.0,1.40129846432e-45,4.59163467805e-41,0.179022908211,4.57776182326e-41,0.349065840244,0.30498278141,1.3295147419,-0.00346189923584,0.00439494429156,0.00439494429156,-0.0106178857386,-0.00820147525519,-97.5194396973,-97.5194396973,-133.995437622,-0.163443014026,1894,1877,2220,2025,2025,2904,3368,3384,3226,3328,3063,2886,3019,2941,3108,2731,3321,3344,3176,3262,2906,3255,3313,3042,0.010047622,1.310065796,1.316238482,0.680678427219,4500.0,0.652699172497,-0.0177379008383,-0.027979247272,125.906616211,1.34390354156,6000.0,1.32953190804,0.0281155351549,-0.0143716242164,77.7346572876,0.349065840244,0.0216827709228,0.00843403954059,0.000848423573188,0.00538003724068,0.00538003724068,-0.00154947931878,-0.0171655863523,0.579361319542,0.579361319542,0.0736391916871,0.639588952065,2046,2050,2545,2036,2036,2920,3421,3420,3239,3360,3088,3051,3154,3145,3236,2851,3401,3410,3241,3363,3126,3350,3386,3192
1508405920857021054,132,1508405920856670339,plot_matl,0.0,0.0,1.40129846432e-45,4.59163467805e-41,0.179022908211,4.57776182326e-41,0.349065840244,0.30363330245,1.32959711552,-0.00345729966648,-0.0093140527606,-0.0093140527606,0.0267957989126,0.0014746626839,-97.5033950806,-97.5033950806,-133.918563843,-0.281583636999,2154,2220,2220,2025,2025,2904,3368,3384,3226,3328,3063,2887,3019,2939,3111,2732,3321,3343,3177,3262,2906,3255,3313,3042,0.009972401,1.320038773,1.316356932,0.680678427219,4500.0,0.654048621655,0.00884961802512,-0.0266297664493,119.833946228,1.34390354156,6000.0,1.32960915565,0.026498965919,-0.0142943877727,78.2162780762,0.349065840244,0.0216827709228,0.00843281392008,0.000804549898021,0.00526523776352,0.00526523776352,-0.00153935421258,0.00821341946721,0.436404377222,0.436404377222,-0.65891546011,0.340594410896,2006,2008,2545,2036,2036,2920,3421,3420,3239,3361,3088,3050,3153,3145,3237,2851,3403,3411,3238,3363,3126,3350,3386,3192
1508405920867029958,133,1508405920866643056,plot_matl,0.0,0.0,1.40129846432e-45,4.59163467805e-41,0.179022908211,4.57776182326e-41,0.349065840244,0.30363330245,1.32959711552,-0.00345729966648,-0.0093140527606,-0.0093140527606,0.0267957989126,0.0014746626839,-97.5033950806,-97.5033950806,-133.918563843,-0.281583636999,2154,2220,2220,2025,2025,2904,3368,3384,3226,3328,3063,2887,3019,2939,3111,2732,3321,3343,3177,3262,2906,3255,3313,3042,0.009972682,1.33001156,1.326366706,0.680678427219,4500.0,0.654048621655,0.0087217092514,-0.0266297664493,119.833946228,1.34390354156,6000.0,1.32960915565,0.026498965919,-0.0142943877727,78.2162780762,0.349065840244,0.0216827709228,0.00843281392008,0.000804549898021,0.00526523776352,0.00526523776352,-0.00153935421258,0.00821341946721,0.436404377222,0.436404377222,-0.65891546011,0.340594410896,2006,2008,2545,2036,2036,2920,3421,3420,3239,3361,3088,3050,3153,3145,3237,2851,3403,3411,3238,3363,3126,3350,3386,3192
1508405920877019523,134,1508405920876644188,plot_matl,0.0,0.0,1.40129846432e-45,4.59163467805e-41,0.179022908211,4.57776182326e-41,0.349065840244,0.30363330245,1.32959711552,-0.00345729966648,-0.0093140527606,-0.0093140527606,0.0267957989126,0.0014746626839,-97.5033950806,-97.5033950806,-133.918563843,-0.281583636999,2155,2218,2221,2024,2024,2903,3370,3385,3228,3328,3064,2887,3020,2942,3110,2738,3321,3343,3177,3263,2906,3255,3314,3045,0.010001026,1.340012727,1.340137484,0.680678427219,4500.0,0.652699172497,-0.0181842986494,-0.027979247272,125.906616211,1.34390354156,6000.0,1.32965171337,-0.0134510984644,-0.0142518011853,89.5339736938,0.349065840244,0.0216827709228,0.00843281392008,0.000804549898021,0.00526523776352,0.00526523776352,-0.00153935421258,0.00821341946721,0.436404377222,0.436404377222,-0.65891546011,0.340594410896,2010,2006,2545,2041,2041,2919,3421,3421,3238,3362,3088,3049,3153,3145,3235,2852,3402,3411,3238,3363,3126,3350,3387,3192
1508405920887040139,135,1508405920886669524,plot_matl,0.0,0.0,1.40129846432e-45,4.59163467805e-41,0.179022908211,4.57776182326e-41,0.349065840244,0.30498278141,1.32958614826,-0.00344240362756,0.00413348712027,0.00413348712027,-0.012150679715,0.00116571853869,-97.466217041,-97.466217041,-133.743255615,-0.265436947346,1901,1893,2220,2027,2027,2903,3370,3385,3228,3328,3064,2887,3020,2942,3110,2738,3321,3347,3176,3261,2905,3255,3313,3043,0.010025091,1.350038314,1.353387285,0.680678427219,4500.0,0.652699172497,-0.018218582496,-0.027979247272,125.906616211,1.34390354156,6000.0,1.32960367203,0.026611559093,-0.0142998322845,77.0732269287,0.349065840244,0.0216827709228,0.00842201896012,0.000772670959122,0.00457865651697,0.00457865651697,-0.00133100582752,0.00887028500438,0.304979175329,0.304979175329,-0.692995131016,0.199016138911,2049,2052,2545,2038,2038,2919,3421,3421,3238,3362,3088,3049,3153,3145,3235,2852,3402,3410,3239,3363,3125,3348,3385,3192
1508405920897030451,136,1508405920896656021,plot_matl,0.0,0.0,1.40129846432e-45,4.59163467805e-41,0.179022908211,4.57776182326e-41,0.349065840244,0.30498278141,1.32958614826,-0.00344240362756,0.00413348712027,0.00413348712027,-0.012150679715,0.00116571853869,-97.466217041,-97.466217041,-133.743255615,-0.265436947346,2146,2213,2220,2027,2027,2904,3367,3384,3228,3328,3064,2886,3019,2947,3110,2738,3321,3347,3176,3261,2905,3255,3313,3043,0.009986148,1.360024495,1.358116128,0.680678427219,4500.0,0.652699172497,-0.0174070633948,-0.027979247272,125.906616211,1.34390354156,6000.0,1.32962810993,-0.0129539826885,-0.0142753627151,89.5599975586,0.349065840244,0.0216827709228,0.00842201896012,0.000772670959122,0.00457865651697,0.00457865651697,-0.00133100582752,0.00887028500438,0.304979175329,0.304979175329,-0.692995131016,0.199016138911,1996,2002,2545,2038,2038,2920,3421,3422,3238,3364,3089,3050,3155,3145,3235,2852,3402,3410,3239,3363,3125,3348,3385,3192
1508405920906966460,137,1508405920906641293,plot_matl,0.0,0.0,1.40129846432e-45,4.59163467805e-41,0.179022908211,4.57776182326e-41,0.349065840244,0.30498278141,1.32958614826,-0.00344240362756,0.00413348712027,0.00413348712027,-0.012150679715,0.00116571853869,-97.466217041,-97.466217041,-133.743255615,-0.265436947346,2146,2213,2220,2027,2027,2904,3367,3384,3228,3328,3064,2886,3019,2947,3110,2738,3321,3347,3176,3261,2905,3255,3313,3043,0.009984429,1.370009556,1.367866773,0.680678427219,4500.0,0.652699172497,-0.0181559640914,-0.027979247272,125.906616211,1.34390354156,6000.0,1.32961177826,-0.0126271303743,-0.0142917810008,89.6926956177,0.349065840244,0.0216827709228,0.00842201896012,0.000772670959122,0.00457865651697,0.00457865651697,-0.00133100582752,0.00887028500438,0.304979175329,0.304979175329,-0.692995131016,0.199016138911,1996,2002,2545,2038,2038,2920,3421,3422,3238,3364,3089,3050,3155,3145,3235,2852,3402,3410,3239,3363,3125,3348,3385,3192
1508405920917101615,138,1508405920916655484,plot_matl,0.0,0.0,1.40129846432e-45,4.59163467805e-41,0.179022908211,4.57776182326e-41,0.349065840244,0.30498278141,1.32958614826,-0.00344240362756,0.00413348712027,0.00413348712027,-0.012150679715,0.00116571853869,-97.466217041,-97.466217041,-133.743255615,-0.265436947346,1901,1944,2224,2027,2027,2904,3367,3384,3228,3328,3064,2886,3019,2947,3110,2738,3320,3344,3175,3260,2905,3254,3328,3064,0.010014877,1.380024554,1.382053026,0.680678427219,4500.0,0.654048621655,0.00703904870898,-0.0266297664493,119.833946228,1.34390354156,6000.0,1.32962095737,-0.0146285919473,-0.0142825199291,89.3853302002,0.349065840244,0.0216827709228,0.00842201896012,0.000772670959122,0.00457865651697,0.00457865651697,-0.00133100582752,0.00887028500438,0.304979175329,0.304979175329,-0.692995131016,0.199016138911,2060,2052,2545,2038,2038,2920,3421,3422,3238,3364,3089,3050,3155,3145,3235,2852,3402,3411,3238,3364,3127,3351,3402,3212
1508405920927132849,139,1508405920926735639,plot_matl,0.0,0.0,1.40129846432e-45,4.59163467805e-41,0.179022908211,4.57776182326e-41,0.349065840244,0.30498278141,1.32959651947,-0.00342182186432,0.00364394369535,0.00364394369535,-0.0140645578504,0.00120872550178,-97.3373336792,-97.3373336792,-133.324447632,-0.131061673164,2151,2167,2224,2032,2032,2910,3374,3390,3232,3333,3069,2893,3025,2947,3110,2738,3320,3344,3175,3260,2905,3254,3328,3064,0.010079204,1.390104414,1.401009356,0.680678427219,4500.0,0.654048621655,0.00703904870898,-0.0266297664493,119.833946228,1.34390354156,6000.0,1.32962095737,-0.0146285919473,-0.0142825199291,89.3853302002,0.349065840244,0.0192735753953,0.00844418350607,0.000851049087942,-0.0186786632985,-0.0186786632985,-0.00175591243897,0.00840563792735,0.218921259046,0.218921259046,-0.548704922199,0.167290881276,2008,2006,2545,2039,2039,2930,3429,3426,3245,3367,3093,3054,3157,3145,3235,2852,3402,3411,3238,3364,3127,3351,3402,3212
1508405920936981220,140,1508405920936650460,plot_matl,0.0,0.0,1.40129846432e-45,4.59163467805e-41,0.179022908211,4.57776182326e-41,0.349065840244,0.30498278141,1.32959651947,-0.00342182186432,0.00364394369535,0.00364394369535,-0.0140645578504,0.00120872550178,-97.3373336792,-97.3373336792,-133.324447632,-0.131061673164,1890,1920,2224,2032,2032,2910,3374,3390,3232,3333,3069,2893,3025,2951,3115,2733,3320,3346,3178,3267,2910,3258,3314,3064,0.009914461,1.400019085,1.38802454,0.680678427219,4500.0,0.654048621655,0.00519937835634,-0.0266297664493,119.833946228,1.34390354156,6000.0,1.32967126369,-0.0150254778564,-0.014232294634,89.1874847412,0.349065840244,0.0192735753953,0.00844418350607,0.000851049087942,-0.0186786632985,-0.0186786632985,-0.00175591243897,0.00840563792735,0.218921259046,0.218921259046,-0.548704922199,0.167290881276,2051,2043,2545,2039,2039,2930,3429,3426,3245,3367,3093,3054,3157,3148,3238,2855,3406,3415,3242,3364,3129,3351,3389,3212
1508405920946895224,141,1508405920946682071,plot_matl,0.0,0.0,1.40129846432e-45,4.59163467805e-41,0.179022908211,4.57776182326e-41,0.349065840244,0.30498278141,1.32959651947,-0.00342182186432,0.00364394369535,0.00364394369535,-0.0140645578504,0.00120872550178,-97.3373336792,-97.3373336792,-133.324447632,-0.131061673164,2143,2157,2222,2031,2031,2904,3369,3388,3229,3328,3066,2893,3025,2951,3115,2733,3320,3346,3178,3267,2910,3258,3314,3046,0.01003112,1.410050715,1.41438792,0.680678427219,4500.0,0.652699172497,-0.0204987898469,-0.027979247272,125.906616211,1.34390354156,6000.0,1.32972800732,0.0231304634362,-0.0141755407676,77.8739471436,0.349065840244,0.0192735753953,0.00844418350607,0.000851049087942,-0.0186786632985,-0.0186786632985,-0.00175591243897,0.00840563792735,0.218921259046,0.218921259046,-0.548704922199,0.167290881276,2005,2008,2545,2034,2034,2924,3424,3423,3239,3363,3088,3054,3157,3148,3238,2855,3406,3415,3242,3364,3129,3351,3389,3194
1508405920957119587,142,1508405920956663603,plot_matl,0.0,0.0,1.40129846432e-45,4.59163467805e-41,0.179022908211,4.57776182326e-41,0.349065840244,0.30498278141,1.32959651947,-0.00342182186432,0.00364394369535,0.00364394369535,-0.0140645578504,0.00120872550178,-97.3373336792,-97.3373336792,-133.324447632,-0.131061673164,1895,1935,2222,2031,2031,2904,3369,3388,3229,3328,3066,2889,3021,2943,3112,2728,3317,3343,3176,3264,2907,3258,3314,3046,0.009981446,1.420032262,1.417365332,0.680678427219,4500.0,0.654048621655,0.00846404116601,-0.0266297664493,119.833946228,1.34390354156,6000.0,1.32990753651,-0.0193858966231,-0.0139960004017,89.3595657349,0.349065840244,0.0192735753953,0.00844418350607,0.000851049087942,-0.0186786632985,-0.0186786632985,-0.00175591243897,0.00840563792735,0.218921259046,0.218921259046,-0.548704922199,0.167290881276,2049,2046,2545,2034,2034,2924,3424,3423,3239,3363,3088,3052,3155,3147,3237,2853,3404,3412,3240,3363,3128,3351,3389,3194
1508405920967141660,143,1508405920966675819,plot_matl,0.0,0.0,1.40129846432e-45,4.59163467805e-41,0.179022908211,4.57776182326e-41,0.349065840244,0.30498278141,1.3298715353,-0.00341334822588,0.00406663538888,0.00406663538888,-0.0186283066869,0.00078788259998,-97.5139083862,-97.5139083862,-133.536407471,-0.0775819122791,2134,2152,2221,2030,2030,2904,3367,3383,3228,3328,3066,2889,3021,2943,3112,2728,3317,3343,3176,3264,2907,3255,3313,3045,0.010011821,1.430044459,1.431690403,0.680678427219,4500.0,0.652699172497,-0.0187880843878,-0.027979247272,125.906616211,1.34390354156,6000.0,1.32984507084,-0.018033022061,-0.0140584586188,90.142868042,0.349065840244,0.0216827709228,0.00844630785286,0.000868761970196,0.00616396451369,0.00616396451369,0.0135155040771,0.00748486863449,-0.212497532368,-0.212497532368,-1.44517707825,0.0436905436218,2004,2006,2546,2039,2039,2921,3420,3421,3239,3363,3088,3052,3155,3147,3237,2853,3404,3412,3240,3363,3128,3350,3388,3190
1508405920976936604,144,1508405920976647025,plot_matl,0.0,0.0,1.40129846432e-45,4.59163467805e-41,0.179022908211,4.57776182326e-41,0.349065840244,0.30498278141,1.3298715353,-0.00341334822588,0.00406663538888,0.00406663538888,-0.0186283066869,0.00078788259998,-97.5139083862,-97.5139083862,-133.536407471,-0.0775819122791,1882,1924,2221,2030,2030,2904,3367,3383,3228,3328,3066,2887,3020,2939,3111,2730,3321,3342,3176,3264,2907,3255,3313,3045,0.009969862,1.440015185,1.435660128,0.680678427219,4500.0,0.652699172497,-0.0187749136239,-0.027979247272,125.906616211,1.34390354156,6000.0,1.32982325554,0.0215442217886,-0.0140802096575,77.5743560791,0.349065840244,0.0216827709228,0.00844630785286,0.000868761970196,0.00616396451369,0.00616396451369,0.0135155040771,0.00748486863449,-0.212497532368,-0.212497532368,-1.44517707825,0.0436905436218,2043,2039,2546,2039,2039,2921,3420,3421,3239,3362,3090,3052,3154,3146,3236,2852,3403,3412,3238,3363,3128,3350,3388,3190
1508405920987030732,145,1508405920986654023,plot_matl,0.0,0.0,1.40129846432e-45,4.59163467805e-41,0.179022908211,4.57776182326e-41,0.349065840244,0.30498278141,1.3298715353,-0.00341334822588,0.00406663538888,0.00406663538888,-0.0186283066869,0.00078788259998,-97.5139083862,-97.5139083862,-133.536407471,-0.0775819122791,2133,2157,2221,2031,2031,2904,3367,3383,3228,3328,3066,2887,3020,2939,3111,2730,3321,3342,3176,3263,2907,3255,3312,3041,0.010007746,1.450023013,1.45112317,0.680678427219,4500.0,0.652699172497,-0.0192142985761,-0.027979247272,125.906616211,1.34390354156,6000.0,1.32984888554,-0.0179117117077,-0.0140546457842,89.4378051758,0.349065840244,0.0216827709228,0.00844630785286,0.000868761970196,0.00616396451369,0.00616396451369,0.0135155040771,0.00748486863449,-0.212497532368,-0.212497532368,-1.44517707825,0.0436905436218,2007,2005,2545,2034,2034,2922,3422,3421,3239,3362,3090,3052,3154,3146,3236,2852,3403,3412,3238,3363,3129,3351,3385,3190
1508405920997004191,146,1508405920996643588,plot_matl,0.0,0.0,1.40129846432e-45,4.59163467805e-41,0.179022908211,4.57776182326e-41,0.349065840244,0.30498278141,1.3298715353,-0.00341334822588,0.00406663538888,0.00406663538888,-0.0186283066869,0.00078788259998,-97.5139083862,-97.5139083862,-133.536407471,-0.0775819122791,1890,1931,2221,2031,2031,2904,3367,3386,3226,3326,3066,2888,3019,2942,3108,2731,3319,3342,3176,3263,2907,3255,3312,3041,0.009988874,1.460011857,1.458375604,0.680678427219,4500.0,0.654048621655,0.00759588554502,-0.0266297664493,119.833946228,1.34390354156,6000.0,1.32979273796,-0.0167056489736,-0.0141108371317,89.358505249,0.349065840244,0.0216827709228,0.00844630785286,0.000868761970196,0.00616396451369,0.00616396451369,0.0135155040771,0.00748486863449,-0.212497532368,-0.212497532368,-1.44517707825,0.0436905436218,2047,2039,2545,2034,2034,2922,3422,3420,3238,3361,3089,3051,3154,3146,3236,2852,3403,3412,3238,3363,3129,3351,3385,3190
1508405921007015981,147,1508405921006669431,plot_matl,0.0,0.0,1.40129846432e-45,4.59163467805e-41,0.179022908211,4.57776182326e-41,0.349065840244,0.30363330245,1.32979941368,-0.00339862704277,-0.0094495229423,-0.0094495229423,-0.0168093591928,0.000391830893932,-97.408821106,-97.408821106,-133.539123535,-0.13067600131,2133,2160,2220,2030,2030,2904,3367,3386,3226,3326,3066,2888,3019,2942,3108,2731,3319,3345,3177,3262,2907,3254,3314,3044,0.010025386,1.47003807,1.473731742,0.680678427219,4500.0,0.654048621655,0.00911043398082,-0.0266297664493,119.833946228,1.34390354156,6000.0,1.32982254028,0.0219050515443,-0.0140810161829,77.8291244507,0.349065840244,0.0216827709228,0.0084372041747,0.000860586646013,0.00520908879116,0.00520908879116,-0.00163708429318,0.00741905206814,-0.298918396235,-0.298918396235,-2.15740799904,0.308123499155,2010,2004,2545,2037,2037,2922,3422,3420,3238,3361,3089,3051,3154,3146,3236,2852,3403,3411,3240,3362,3126,3349,3384,3191
1508405921017062604,148,1508405921016686774,plot_matl,0.0,0.0,1.40129846432e-45,4.59163467805e-41,0.179022908211,4.57776182326e-41,0.349065840244,0.30363330245,1.32979941368,-0.00339862704277,-0.0094495229423,-0.0094495229423,-0.0168093591928,0.000391830893932,-97.408821106,-97.408821106,-133.539123535,-0.13067600131,1866,1912,2220,2030,2030,2904,3368,3385,3229,3329,3066,2886,3020,2943,3110,2731,3319,3345,3177,3262,2907,3254,3314,3044,0.010016697,1.480055378,1.482471156,0.680678427219,4500.0,0.654048621655,0.00988529250026,-0.0266297664493,119.833946228,1.34390354156,6000.0,1.32987582684,-0.0181914493442,-0.0140276448801,89.173866272,0.349065840244,0.0216827709228,0.0084372041747,0.000860586646013,0.00520908879116,0.00520908879116,-0.00163708429318,0.00741905206814,-0.298918396235,-0.298918396235,-2.15740799904,0.308123499155,2052,2039,2545,2037,2037,2921,3421,3422,3238,3363,3088,3052,3152,3147,3235,2852,3403,3411,3240,3362,3126,3349,3384,3191
1508405921026888009,149,1508405921026635546,plot_matl,0.0,0.0,1.40129846432e-45,4.59163467805e-41,0.179022908211,4.57776182326e-41,0.349065840244,0.30363330245,1.32979941368,-0.00339862704277,-0.0094495229423,-0.0094495229423,-0.0168093591928,0.000391830893932,-97.408821106,-97.408821106,-133.539123535,-0.13067600131,2136,2162,2220,2030,2030,2904,3368,3385,3229,3329,3066,2886,3020,2943,3110,2735,3321,3344,3176,3262,2907,3253,3314,3043,0.009947754,1.490003664,1.482215346,0.680678427219,4500.0,0.654048621655,0.0085919816047,-0.0266297664493,119.833946228,1.34390354156,6000.0,1.32992827892,0.0199036877602,-0.0139751862735,77.5977859497,0.349065840244,0.0216827709228,0.0084372041747,0.000860586646013,0.00520908879116,0.00520908879116,-0.00163708429318,0.00741905206814,-0.298918396235,-0.298918396235,-2.15740799904,0.308123499155,2010,2005,2545,2037,2037,2921,3421,3422,3238,3363,3088,3052,3152,3147,3235,2853,3402,3410,3240,3362,3126,3350,3385,3192
1508405921036779238,150,1508405921036624845,plot_matl,0.0,0.0,1.40129846432e-45,4.59163467805e-41,0.179022908211,4.57776182326e-41,0.349065840244,0.30363330245,1.32979941368,-0.00339862704277,-0.0094495229423,-0.0094495229423,-0.0168093591928,0.000391830893932,-97.408821106,-97.408821106,-133.539123535,-0.13067600131,1881,1930,2220,2028,2028,2903,3368,3387,3227,3329,3065,2886,3020,2943,3110,2735,3321,3344,3176,3262,2907,3253,3314,3043,0.009987939,1.49999242,1.49819085,0.680678427219,4500.0,0.652699172497,-0.0181402023882,-0.027979247272,125.906616211,1.34390354156,6000.0,1.32986283302,-0.0177507549524,-0.0140407104045,89.7962036133,0.349065840244,0.0216827709228,0.0084372041747,0.000860586646013,0.00520908879116,0.00520908879116,-0.00163708429318,0.00741905206814,-0.298918396235,-0.298918396235,-2.15740799904,0.308123499155,2048,2048,2545,2042,2042,2920,3421,3421,3239,3362,3088,3049,3153,3147,3235,2853,3402,3410,3240,3362,3126,3350,3385,3192
1508405921046939408,151,1508405921046655678,plot_matl,0.0,0.0,1.40129846432e-45,4.59163467805e-41,0.179022908211,4.57776182326e-41,0.349065840244,0.30363330245,1.32986760139,-0.0034233762417,-0.00898191984743,-0.00898191984743,0.0212306566536,-0.008943955414,-97.3872451782,-97.3872451782,-133.348068237,-0.00555533031002,2135,2153,2220,2028,2028,2903,3368,3387,3227,3329,3065,2886,3020,2944,3112,2739,3322,3343,3176,3262,2905,3254,3314,3043,0.010032288,1.510023998,1.514875488,0.680678427219,4500.0,0.652699172497,-0.0177701376379,-0.027979247272,125.906616211,1.34390354156,6000.0,1.32984566689,-0.017405834049,-0.0140578281134,89.5583877563,0.349065840244,0.0192735753953,0.00846124161035,0.000785755051766,-0.0215945728123,-0.0215945728123,0.0132255190983,-0.015782693401,-0.335950642824,-0.335950642824,-1.41817057133,0.63046836853,2010,2015,2545,2042,2042,2920,3421,3421,3239,3362,3088,3049,3153,3144,3234,2851,3403,3412,3240,3362,3127,3348,3385,3192
1508405921056867188,152,1508405921056649194,plot_matl,0.0,0.0,1.40129846432e-45,4.59163467805e-41,0.179022908211,4.57776182326e-41,0.349065840244,0.30363330245,1.32986760139,-0.0034233762417,-0.00898191984743,-0.00898191984743,0.0212306566536,-0.008943955414,-97.3872451782,-97.3872451782,-133.348068237,-0.00555533031002,1870,1921,2220,2030,2030,2905,3367,3386,3227,3328,3064,2886,3020,2944,3112,2739,3322,3343,3176,3262,2905,3254,3314,3044,0.009993381,1.520017828,1.518993912,0.680678427219,4500.0,0.652699172497,-0.0177701376379,-0.027979247272,125.906616211,1.34390354156,6000.0,1.329859972,-0.0177083015442,-0.0140435900539,89.6243438721,0.349065840244,0.0192735753953,0.00846124161035,0.000785755051766,-0.0215945728123,-0.0215945728123,0.0132255190983,-0.015782693401,-0.335950642824,-0.335950642824,-1.41817057133,0.63046836853,2049,2046,2545,2038,2038,2921,3424,3421,3239,3362,3090,3049,3153,3144,3234,2851,3403,3412,3240,3362,3127,3348,3385,3194
1508405921067202101,153,1508405921066629658,plot_matl,0.0,0.0,1.40129846432e-45,4.59163467805e-41,0.179022908211,4.57776182326e-41,0.349065840244,0.30363330245,1.32986760139,-0.0034233762417,-0.00898191984743,-0.00898191984743,0.0212306566536,-0.008943955414,-97.3872451782,-97.3872451782,-133.348068237,-0.00555533031002,1870,1921,2220,2030,2030,2905,3367,3386,3227,3328,3064,2886,3020,2944,3112,2739,3322,3343,3176,3262,2905,3254,3314,3044,0.009978726,1.529997351,1.526745078,0.680678427219,4500.0,0.652699172497,-0.0194772034883,-0.027979247272,125.906616211,1.34390354156,6000.0,1.32988142967,0.0209467392415,-0.0140220494941,77.8326568604,0.349065840244,0.0192735753953,0.00846124161035,0.000785755051766,-0.0215945728123,-0.0215945728123,0.0132255190983,-0.015782693401,-0.335950642824,-0.335950642824,-1.41817057133,0.63046836853,2049,2046,2545,2038,2038,2921,3424,3421,3239,3362,3090,3049,3153,3144,3234,2851,3403,3412,3240,3362,3127,3348,3385,3194
1508405921076903947,154,1508405921076652083,plot_matl,0.0,0.0,1.40129846432e-45,4.59163467805e-41,0.179022908211,4.57776182326e-41,0.349065840244,0.30363330245,1.32986760139,-0.0034233762417,-0.00898191984743,-0.00898191984743,0.0212306566536,-0.008943955414,-97.3872451782,-97.3872451782,-133.348068237,-0.00555533031002,1885,1931,2223,2028,2028,2902,3367,3385,3225,3328,3064,2886,3019,2948,3111,2739,3321,3343,3175,3261,2905,3254,3314,3043,0.010024109,1.540020708,1.543712786,0.680678427219,4500.0,0.654048621655,0.00874631851912,-0.0266297664493,119.833946228,1.34390354156,6000.0,1.32985568047,-0.0175920650363,-0.0140478704125,89.5438232422,0.349065840244,0.0192735753953,0.00846124161035,0.000785755051766,-0.0215945728123,-0.0215945728123,0.0132255190983,-0.015782693401,-0.335950642824,-0.335950642824,-1.41817057133,0.63046836853,2053,2050,2544,2037,2037,2921,3422,3422,3239,3362,3090,3050,3153,3146,3236,2852,3403,3411,3241,3362,3127,3349,3383,3192
