%time,field.header.seq,field.header.stamp,field.header.frame_id,field.FFJ4_set_point,field.FFJ4_position_gain,field.FFJ4_process_value,field.FFJ4_process_value_dot,field.FFJ4_error,field.FFJ4_command,field.FFJ1,field.FFJ2,field.FFJ3,field.FFJ4,field.FFJ1_dot,field.FFJ2_dot,field.FFJ3_dot,field.FFJ4_dot,field.FFJ1_tao,field.FFJ2_tao,field.FFJ3_tao,field.FFJ4_tao,field.pac0,field.pac1,field.pdc0,field.tac0,field.tdc0,field.el0,field.el1,field.el2,field.el3,field.el4,field.el5,field.el6,field.el7,field.el8,field.el9,field.el10,field.el11,field.el12,field.el13,field.el14,field.el15,field.el16,field.el17,field.el18,field.dt,field.time,field.test_time2,field.FFJ0_set_point,field.FFJ0_position_gain,field.FFJ0_process_value,field.FFJ0_process_value_dot,field.FFJ0_error,field.FFJ0_command,field.FFJ3_set_point,field.FFJ3_position_gain,field.FFJ3_process_value,field.FFJ3_process_value_dot,field.FFJ3_error,field.FFJ3_command,field.MFJ1,field.MFJ2,field.MFJ3,field.MFJ4,field.MFJ1_dot,field.MFJ2_dot,field.MFJ3_dot,field.MFJ4_dot,field.MFJ1_tao,field.MFJ2_tao,field.MFJ3_tao,field.MFJ4_tao,field.Mpac0,field.Mpac1,field.Mpdc0,field.Mtac0,field.Mtdc0,field.Mel0,field.Mel1,field.Mel2,field.Mel3,field.Mel4,field.Mel5,field.Mel6,field.Mel7,field.Mel8,field.Mel9,field.Mel10,field.Mel11,field.Mel12,field.Mel13,field.Mel14,field.Mel15,field.Mel16,field.Mel17,field.Mel18
1508405892615057267,92,1508405892614693387,plot_matl,0.0,0.0,1.40129846432e-45,4.59163467805e-41,2.82502477649e+25,4.57706117402e-41,0.349065840244,0.30363330245,1.32972586155,-0.00350489863195,-0.00961662083864,-0.00961662083864,0.0240841545165,0.00242005474865,-97.3706665039,-97.3706665039,-133.982910156,-0.515378415585,2082,2095,2222,2030,2030,2903,3370,3387,3225,3330,3065,2888,3021,2948,3113,2734,3316,3345,3175,3260,2904,3256,3312,3044,0.009978891,0.920016279,0.918057972,0.680678427219,4500.0,0.654048621655,0.00881854724139,-0.0266297664493,119.833946228,1.34390354156,6000.0,1.32972693443,-0.0150035507977,-0.0141766220331,89.5829925537,0.349065840244,0.0216827709228,0.00847270153463,0.000716601323802,0.00446438184008,0.00446438184008,-0.00240529607981,-0.0145161012188,-0.109007619321,-0.109007619321,-1.82068359852,-0.166771665215,2022,2018,2545,2042,2042,2923,3423,3424,3241,3362,3089,3049,3153,3145,3235,2851,3402,3411,3239,3363,3128,3350,3384,3191
1508405892624978407,93,1508405892624712780,plot_matl,0.0,0.0,1.40129846432e-45,4.59163467805e-41,2.82502477649e+25,4.57706117402e-41,0.349065840244,0.30363330245,1.32972669601,-0.00350909167901,-0.00911597441882,-0.00911597441882,0.0240118224174,-0.00724423211068,-97.4526672363,-97.4526672363,-134.035919189,-0.600312829018,2082,2095,2222,2030,2030,2903,3370,3387,3225,3330,3065,2888,3021,2948,3113,2734,3316,3345,3175,3260,2904,3256,3312,3044,0.010018741,0.930035842,0.931742913,0.680678427219,4500.0,0.654048621655,0.00881854724139,-0.0266297664493,119.833946228,1.34390354156,6000.0,1.32972693443,-0.0150035507977,-0.0141766220331,89.5829925537,0.349065840244,0.0216827709228,0.00849259924144,0.000718981667887,0.00365974078886,0.00365974078886,0.0125051103532,-0.0145287252963,-0.0850158110261,-0.0850158110261,-1.52093982697,-0.133729040623,2022,2018,2545,2042,2042,2923,3423,3424,3241,3362,3089,3049,3153,3145,3235,2851,3402,3411,3239,3363,3128,3350,3384,3191
1508405892635141525,94,1508405892634703943,plot_matl,0.0,0.0,1.40129846432e-45,4.59163467805e-41,2.82502477649e+25,4.57706117402e-41,0.349065840244,0.30363330245,1.32977831364,-0.00354256248102,-0.00863226782531,-0.00863226782531,-0.0147638227791,-0.00690387235954,-97.5489501953,-97.5489501953,-134.387573242,-0.590331375599,1986,1988,2221,2034,2034,2905,3367,3398,3238,3330,3065,2888,3021,2948,3113,2734,3316,3345,3175,3260,2904,3254,3310,3042,0.009992301,0.940027117,0.939276294,0.680678427219,4500.0,0.652699172497,-0.0172645356506,-0.027979247272,125.906616211,1.34390354156,6000.0,1.32977831364,-0.0147638227791,-0.0141251794994,89.7585830688,0.349065840244,0.0216827709228,0.00846844632179,0.000666771142278,0.0062663750723,0.0062663750723,-0.00233994680457,-0.014314414002,-0.0700602680445,-0.0700602680445,-1.14272451401,0.196002453566,2017,2002,2545,2037,2037,2924,3424,3435,3250,3362,3089,3049,3153,3145,3235,2851,3402,3411,3239,3363,3128,3350,3387,3190
1508405892644862731,95,1508405892644671331,plot_matl,0.0,0.0,1.40129846432e-45,4.59163467805e-41,2.82502477649e+25,4.57706117402e-41,0.349065840244,0.30498278141,1.32987451553,-0.00350503250957,0.00531360600144,0.00531360600144,0.022041760385,0.00216430448927,-97.5930328369,-97.5930328369,-134.349365234,-0.739188015461,2064,2079,2221,2034,2034,2905,3367,3398,3238,3336,3073,2894,3028,2953,3117,2737,3323,3348,3178,3260,2904,3254,3310,3042,0.009963817,0.949993162,0.946562615,0.680678427219,4500.0,0.654048621655,0.0106272120029,-0.0266297664493,119.833946228,1.34390354156,6000.0,1.32987451553,0.022041760385,-0.0140289645642,78.2214508057,0.349065840244,0.0216827709228,0.00846218597144,0.000674637558404,0.00513693736866,0.00513693736866,0.0131314750761,-0.0143345315009,-0.0183477476239,-0.0183477476239,-1.56503558159,0.350127607584,2014,2015,2545,2037,2037,2924,3424,3435,3250,3373,3097,3058,3159,3151,3242,2856,3408,3414,3242,3363,3128,3350,3387,3190
1508405892654964728,96,1508405892654697592,plot_matl,0.0,0.0,1.40129846432e-45,4.59163467805e-41,2.82502477649e+25,4.57706117402e-41,0.349065840244,0.30498278141,1.32985258102,-0.00350192422047,0.0055487761274,0.0055487761274,-0.01682356745,0.00213796668686,-97.6188812256,-97.6188812256,-134.247238159,-0.676528692245,1928,1954,2222,2035,2035,2907,3370,3398,3238,3336,3073,2894,3028,2953,3117,2737,3323,3348,3178,3264,2906,3257,3315,3045,0.010027838,0.960020584,0.962672448,0.680678427219,4500.0,0.654048621655,0.0110975522548,-0.0266297664493,119.833946228,1.34390354156,6000.0,1.32985258102,-0.01682356745,-0.0140509502962,89.2468414307,0.349065840244,0.0216827709228,0.00845663901418,0.000667392334435,0.00506789283827,0.00506789283827,-0.00209678290412,0.0104592274874,-0.13612511754,-0.13612511754,-2.27973866463,0.286563366652,2044,2051,2545,2035,2035,2922,3422,3435,3250,3373,3097,3058,3159,3151,3242,2856,3408,3414,3242,3367,3129,3353,3390,3194
1508405892664958144,97,1508405892664722608,plot_matl,0.0,0.0,1.40129846432e-45,4.59163467805e-41,2.82502477649e+25,4.57706117402e-41,0.349065840244,0.30363330245,1.33001410961,-0.00349896377884,-0.00834687054157,-0.00834687054157,0.0188660044223,-0.00764703610912,-97.696144104,-97.696144104,-134.202331543,-0.775316894054,2114,2127,2222,2035,2035,2907,3370,3386,3230,3327,3063,2887,3021,2946,3112,2735,3319,3348,3178,3264,2906,3257,3315,3045,0.01002456,0.9700456,0.97238232,0.680678427219,4500.0,0.652699172497,-0.0166937410831,-0.027979247272,125.906616211,1.34390354156,6000.0,1.33001410961,0.0188660044223,-0.0138894384727,77.7068939209,0.349065840244,0.0192735753953,0.00845133699477,0.000618791964371,-0.0197351519018,-0.0197351519018,-0.00198590639047,-0.0234013218433,-0.228146061301,-0.228146061301,-2.64615058899,0.376311570406,2043,2036,2545,2035,2035,2922,3422,3423,3241,3364,3091,3053,3154,3145,3237,2851,3404,3414,3242,3367,3129,3353,3390,3194
1508405892675078311,98,1508405892674721855,plot_matl,0.0,0.0,1.40129846432e-45,4.59163467805e-41,2.82502477649e+25,4.57706117402e-41,0.349065840244,0.30363330245,1.32989943027,-0.00349452067167,-0.0090588433668,-0.0090588433668,-0.017998566851,0.00207056198269,-97.6049804688,-97.6049804688,-134.162704468,-0.85198700428,1932,1932,2220,2030,2030,2907,3370,3386,3230,3327,3063,2887,3021,2946,3112,2735,3319,3344,3174,3262,2903,3252,3313,3043,0.009999823,0.980045113,0.979982654,0.680678427219,4500.0,0.652699172497,-0.0181176867336,-0.027979247272,125.906616211,1.34390354156,6000.0,1.32989943027,-0.017998566851,-0.0140041382983,89.5512619019,0.349065840244,0.0216827709228,0.00844744592905,0.000658203731291,0.00425329199061,0.00425329199061,-0.00190478784498,0.0107860649005,-0.188182428479,-0.188182428479,-2.67407393456,0.595489382744,2023,2019,2545,2036,2036,2922,3422,3423,3241,3364,3091,3053,3154,3145,3237,2851,3404,3412,3240,3365,3127,3351,3386,3193
1508405892685104486,99,1508405892684720876,plot_matl,0.0,0.0,1.40129846432e-45,4.59163467805e-41,2.82502477649e+25,4.57706117402e-41,0.349065840244,0.30498278141,1.32991027832,-0.00349188805558,0.00445541227236,0.00445541227236,-0.0183072574437,0.00204577273689,-97.6365966797,-97.6365966797,-134.341720581,-0.848581075668,1980,1987,2220,2030,2030,2906,3368,3383,3227,3329,3063,2885,3020,2943,3111,2735,3319,3344,3174,3262,2903,3252,3313,3043,0.009998556,0.990043849,0.989857044,0.680678427219,4500.0,0.654048621655,0.00891082454473,-0.0266297664493,119.833946228,1.34390354156,6000.0,1.32991027832,-0.0183072574437,-0.013993229717,89.6759033203,0.349065840244,0.0216827709228,0.00847217068076,0.000645364634693,0.00343809439801,0.00343809439801,-0.00238869828172,-0.013374905102,-0.372383624315,-0.372383624315,-2.41946935654,0.461043596268,2017,2008,2545,2036,2036,2922,3421,3423,3241,3363,3090,3050,3154,3144,3237,2851,3404,3412,3240,3365,3127,3351,3386,3193
1508405892695046994,100,1508405892694707650,plot_matl,0.0,0.0,1.40129846432e-45,4.59163467805e-41,2.82502477649e+25,4.57706117402e-41,0.349065840244,0.30363330245,1.32988464832,-0.00349076185375,-0.00945874489844,-0.00945874489844,0.0211796332151,-0.00771781848744,-97.5188598633,-97.5188598633,-134.278625488,-0.910471856594,2093,2115,2220,2030,2030,2906,3368,3383,3227,3329,3063,2885,3020,2943,3111,2733,3320,3344,3175,3261,2904,3255,3314,3042,0.009987777,1.000031074,0.9987777,0.680678427219,4500.0,0.652699172497,-0.0189174897969,-0.027979247272,125.906616211,1.34390354156,6000.0,1.32988464832,0.0211796332151,-0.0140188252553,78.1306610107,0.349065840244,0.0216827709228,0.00847731903195,0.000683397985995,0.0032099050004,0.0032099050004,0.0128425089642,0.0104153892025,-0.265835165977,-0.265835165977,-2.93297433853,0.301074594259,2030,2028,2544,2036,2036,2922,3421,3423,3241,3363,3090,3050,3154,3144,3237,2851,3405,3412,3239,3363,3126,3351,3385,3192
1508405892705071619,101,1508405892704705274,plot_matl,0.0,0.0,1.40129846432e-45,4.59163467805e-41,2.82502477649e+25,4.57706117402e-41,0.349065840244,0.30363330245,1.32989907265,-0.00347141548991,-0.00994196347892,-0.00994196347892,0.0208745766431,0.0016786379274,-97.5310745239,-97.5310745239,-133.865722656,-0.815502226353,1909,1938,2220,2030,2030,2906,3369,3383,3226,3328,3066,2886,3021,2943,3111,2733,3320,3344,3175,3261,2904,3255,3314,3042,0.009994179,1.010027387,1.009412079,0.680678427219,4500.0,0.652699172497,-0.0198839269578,-0.027979247272,125.906616211,1.34390354156,6000.0,1.32989907265,0.0208745766431,-0.0140044894069,78.1765670776,0.349065840244,0.0216827709228,0.00848072301596,0.000734700763132,0.00303771509789,0.00303771509789,-0.0025739679113,0.00942616071552,-0.147620782256,-0.147620782256,-3.01836323738,0.211575582623,2029,2033,2544,2036,2036,2921,3421,3423,3239,3361,3090,3052,3154,3144,3237,2851,3405,3412,3239,3363,3126,3351,3385,3192
1508405892714887200,102,1508405892714675009,plot_matl,0.0,0.0,1.40129846432e-45,4.59163467805e-41,2.82502477649e+25,4.57706117402e-41,0.349065840244,0.30498278141,1.32986879349,-0.00347345904447,0.0039474456571,0.0039474456571,-0.0176477935165,0.00172883609775,-97.4242172241,-97.4242172241,-133.960388184,-0.874780833721,2098,2130,2220,2030,2030,2906,3369,3383,3226,3328,3066,2886,3021,2941,3111,2729,3319,3344,3176,3262,2905,3254,3309,3042,0.00996941,1.019996912,1.01687982,0.680678427219,4500.0,0.654048621655,0.00789489131421,-0.0266297664493,119.833946228,1.34390354156,6000.0,1.32986879349,-0.0176477935165,-0.014034721069,89.8098144531,0.349065840244,0.0216827709228,0.00845789350569,0.000712200126145,0.00290943635628,0.00290943635628,-0.00210544862784,0.00990787986666,-0.18974250555,-0.18974250555,-2.61684679985,0.418153017759,2034,2035,2544,2036,2036,2921,3421,3423,3239,3361,3090,3052,3154,3145,3236,2851,3403,3411,3238,3364,3125,3348,3387,3192
1508405892725120558,103,1508405892724719268,plot_matl,0.0,0.0,1.40129846432e-45,4.59163467805e-41,2.82502477649e+25,4.57706117402e-41,0.349065840244,0.30363330245,1.32977199554,-0.00348177924752,-0.00864768121392,-0.00864768121392,-0.0157464966178,0.00190603034571,-97.4294586182,-97.4294586182,-134.043518066,-0.826824486256,1934,1935,2220,2030,2030,2907,3368,3384,3229,3328,3064,2886,3021,2941,3111,2729,3319,3344,3176,3262,2905,3254,3309,3042,0.010046017,1.030042727,1.034739751,0.680678427219,4500.0,0.652699172497,-0.0172953624278,-0.027979247272,125.906616211,1.34390354156,6000.0,1.32977199554,-0.0157464966178,-0.0141315404326,89.7656936646,0.349065840244,0.0216827709228,0.00848072394729,0.000720852171071,0.00191585498396,0.00191585498396,-0.00256617553532,0.00976482126862,-0.381403267384,-0.381403267384,-2.61815619469,0.420914500952,2027,2020,2545,2039,2039,2922,3422,3422,3239,3362,3089,3052,3154,3145,3236,2851,3403,3411,3238,3364,3125,3348,3387,3191
1508405892735040846,104,1508405892734732232,plot_matl,0.0,0.0,1.40129846432e-45,4.59163467805e-41,2.82502477649e+25,4.57706117402e-41,0.349065840244,0.30363330245,1.32966971397,-0.00348024605773,-0.00904867518693,-0.00904867518693,0.0253796949983,0.00188997306395,-97.389793396,-97.389793396,-133.925308228,-0.893474280834,1994,2001,2220,2030,2030,2907,3368,3384,3229,3328,3064,2888,3022,2940,3110,2732,3318,3342,3176,3262,2902,3254,3309,3042,0.010013219,1.040055475,1.041374776,0.680678427219,4500.0,0.652699172497,-0.0180973503739,-0.027979247272,125.906616211,1.34390354156,6000.0,1.32977199554,-0.0157464966178,-0.0141315404326,89.7656936646,0.349065840244,0.0192735753953,0.00849831849337,0.000651503389236,-0.0218779277056,-0.0218779277056,-0.0029192622751,-0.0133074196056,-0.343179553747,-0.343179553747,-3.18877625465,0.652122974396,2017,2018,2545,2039,2039,2922,3422,3422,3239,3362,3089,3052,3156,3145,3235,2850,3405,3411,3239,3364,3127,3348,3387,3191
1508405892744761646,105,1508405892744668770,plot_matl,0.0,0.0,1.40129846432e-45,4.59163467805e-41,2.82502477649e+25,4.57706117402e-41,0.349065840244,0.30498278141,1.32969069481,-0.00348063162528,0.00419560726732,0.00419560726732,0.0249542165548,0.00190281122923,-97.4235916138,-97.4235916138,-133.972061157,-0.950544178486,2055,2078,2220,2029,2029,2907,3370,3383,3228,3328,3064,2888,3022,2940,3110,2732,3318,3342,3176,3262,2902,3254,3312,3043,0.009932234,1.049990259,1.04288457,0.680678427219,4500.0,0.654048621655,0.00839121453464,-0.0266297664493,119.833946228,1.34390354156,6000.0,1.32969069481,0.0249542165548,-0.0142128346488,77.5499954224,0.349065840244,0.0216827709228,0.00849826727062,0.000660481688101,0.00160585960839,0.00160585960839,-0.00290899188258,0.0110182566568,-0.280353426933,-0.280353426933,-3.68261694908,0.67428869009,2009,2021,2545,2038,2038,2921,3422,3422,3238,3362,3089,3052,3156,3145,3235,2850,3405,3411,3239,3364,3127,3350,3384,3190
1508405892755114035,106,1508405892754700573,plot_matl,0.0,0.0,1.40129846432e-45,4.59163467805e-41,2.82502477649e+25,4.57706117402e-41,0.349065840244,0.30498278141,1.3296970129,-0.00349048501812,0.00293000764214,0.00293000764214,-0.0142467375845,-0.00766440341249,-97.4458007812,-97.4458007812,-134.052612305,-0.846057891846,1902,1933,2220,2029,2029,2907,3370,3383,3228,3325,3065,2888,3020,2943,3109,2729,3318,3341,3175,3262,2902,3254,3312,3043,0.010035325,1.060023891,1.06374445,0.680678427219,4500.0,0.654048621655,0.00586001528427,-0.0266297664493,119.833946228,1.34390354156,6000.0,1.3296970129,-0.0142467375845,-0.0142065640539,89.0453033447,0.349065840244,0.0216827709228,0.00847260281444,0.000589034927543,0.00180708337575,0.00180708337575,-0.00238678604364,-0.0119585646316,-0.26511490345,-0.26511490345,-3.32452702522,0.73170286417,2032,2040,2545,2038,2038,2921,3422,3422,3238,3363,3088,3050,3153,3145,3237,2851,3402,3412,3238,3364,3127,3350,3384,3190
1508405892765076769,107,1508405892764698181,plot_matl,0.0,0.0,1.40129846432e-45,4.59163467805e-41,2.82502477649e+25,4.57706117402e-41,0.349065840244,0.30363330245,1.32970786095,-0.00349745363928,-0.0106973852962,-0.0106973852962,-0.0145002668723,-0.00749522820115,-97.4360275269,-97.4360275269,-134.119827271,-0.760637223721,2107,2127,2222,2033,2033,2904,3368,3383,3228,3325,3065,2888,3020,2943,3109,2729,3318,3341,3175,3262,2903,3254,3313,3041,0.009997388,1.070021129,1.069720516,0.680678427219,4500.0,0.652699172497,-0.0213947705925,-0.027979247272,125.906616211,1.34390354156,6000.0,1.32970786095,-0.0145002668723,-0.0141956266016,89.4440689087,0.349065840244,0.0192735753953,0.00848177354783,0.000572793360334,-0.0227818563581,-0.0227818563581,0.0127883115783,-0.011576263234,-0.322002142668,-0.322002142668,-2.86876010895,0.634626448154,2047,2045,2544,2038,2038,2922,3422,3422,3238,3363,3088,3050,3153,3145,3237,2851,3402,3412,3238,3363,3126,3348,3386,3192
1508405892775102812,108,1508405892774717985,plot_matl,0.0,0.0,1.40129846432e-45,4.59163467805e-41,2.82502477649e+25,4.57706117402e-41,0.349065840244,0.30498278141,1.32989287376,-0.00349428341724,0.00287287845276,0.00287287845276,0.0208575353026,0.00220654415898,-97.4377975464,-97.4377975464,-134.311477661,-0.765528202057,1935,1924,2222,2033,2033,2904,3368,3384,3229,3329,3065,2889,3023,2946,3112,2732,3319,3341,3175,3262,2903,3254,3313,3041,0.010018611,1.080040927,1.082009988,0.680678427219,4500.0,0.654048621655,0.00574575690553,-0.0266297664493,119.833946228,1.34390354156,6000.0,1.32989287376,0.0208575353026,-0.0140106081963,77.6502380371,0.349065840244,0.0216827709228,0.00845881644636,0.000556780491024,0.00257799797691,0.00257799797691,-0.00208996725269,0.0132240979001,-0.454133450985,-0.454133450985,-4.35952091217,0.431039184332,2026,2021,2544,2038,2038,2922,3422,3423,3239,3362,3088,3051,3154,3146,3237,2853,3402,3412,3238,3363,3126,3348,3386,3192
1508405892785044133,109,1508405892784725185,plot_matl,0.0,0.0,1.40129846432e-45,4.59163467805e-41,2.82502477649e+25,4.57706117402e-41,0.349065840244,0.30498278141,1.32989299297,-0.0034825114999,0.00307864206843,0.00307864206843,-0.0183884818107,0.00196947646327,-97.5394897461,-97.5394897461,-134.287414551,-0.77013528347,1974,1982,2222,2032,2032,2904,3368,3384,3229,3329,3065,2889,3023,2946,3112,2732,3319,3342,3175,3262,2906,3255,3312,3043,0.010006273,1.090048098,1.090683757,0.680678427219,4500.0,0.654048621655,0.00615728413686,-0.0266297664493,119.833946228,1.34390354156,6000.0,1.32989299297,-0.0183884818107,-0.0140105476603,89.6395568848,0.349065840244,0.0216827709228,0.00845490954816,0.000632410810795,0.00168967491481,0.00168967491481,-0.00198854785413,0.0117567442358,-0.267440497875,-0.267440497875,-4.27519464493,0.489638417959,2010,2005,2545,2035,2035,2922,3422,3423,3239,3362,3088,3051,3154,3146,3237,2853,3402,3412,3238,3361,3125,3351,3386,3192
1508405892795154552,110,1508405892794720478,plot_matl,0.0,0.0,1.40129846432e-45,4.59163467805e-41,2.82502477649e+25,4.57706117402e-41,0.349065840244,0.30498278141,1.32991123199,-0.00350091396831,0.00277051469311,0.00277051469311,0.0203834902495,-0.00742485467345,-97.4021224976,-97.4021224976,-134.187835693,-0.811712920666,2075,2095,2222,2032,2032,2905,3369,3384,3226,3327,3062,2891,3021,2947,3112,2732,3319,3342,3175,3262,2906,3255,3312,3043,0.009997383,1.100044368,1.09971213,0.680678427219,4500.0,0.654048621655,0.00554102938622,-0.0266297664493,119.833946228,1.34390354156,6000.0,1.32991123199,0.0203834902495,-0.013992308639,77.815284729,0.349065840244,0.0216827709228,0.00843689218163,0.000582574401051,0.00182198709808,0.00182198709808,-0.00162886199541,-0.0117269447073,-0.133179560304,-0.133179560304,-4.02041339874,0.471687585115,2022,2026,2545,2035,2035,2920,3421,3423,3238,3361,3091,3052,3154,3145,3237,2853,3402,3412,3238,3361,3125,3351,3386,3192
1508405892804984905,111,1508405892804680308,plot_matl,0.0,0.0,1.40129846432e-45,4.59163467805e-41,2.82502477649e+25,4.57706117402e-41,0.349065840244,0.30498278141,1.32988226414,-0.00348856346682,0.00226690038107,0.00226690038107,-0.0181115400046,0.00209317682311,-97.4017410278,-97.4017410278,-134.263092041,-0.803520739079,1917,1945,2222,2032,2032,2905,3369,3384,3226,3327,3062,2891,3021,2947,3112,2732,3318,3342,3175,3258,2904,3255,3312,3040,0.009956505,1.110002487,1.105172055,0.680678427219,4500.0,0.654048621655,0.00453380076215,-0.0266297664493,119.833946228,1.34390354156,6000.0,1.32988226414,-0.0181115400046,-0.0140212541446,89.3869857788,0.349065840244,0.0216827709228,0.00842206086963,0.000582852400839,0.00322797102854,0.00322797102854,-0.00133277324494,-0.0117490552366,-0.177274376154,-0.177274376154,-3.72022867203,0.528208851814,2037,2041,2544,2035,2035,2920,3421,3423,3238,3361,3091,3052,3154,3145,3237,2850,3403,3410,3240,3362,3125,3351,3385,3192
1508405892815168191,112,1508405892814743383,plot_matl,0.0,0.0,1.40129846432e-45,4.59163467805e-41,2.82502477649e+25,4.57706117402e-41,0.349065840244,0.30498278141,1.32989025116,-0.00351348472759,0.00208470807411,0.00208470807411,-0.0182980597019,-0.00715229753405,-97.3384780884,-97.3384780884,-134.179031372,-0.762431621552,2094,2108,2222,2033,2033,2904,3367,3384,3227,3327,3066,2891,3021,2947,3112,2732,3318,3342,3175,3258,2904,3255,3312,3040,0.010062759,1.120065711,1.127029008,0.680678427219,4500.0,0.654048621655,0.00416941614822,-0.0266297664493,119.833946228,1.34390354156,6000.0,1.32989025116,-0.0182980597019,-0.0140133081004,89.1317062378,0.349065840244,0.0216827709228,0.00842474028468,0.000587899005041,0.00356972124428,0.00356972124428,-0.00137160287704,-0.0118383169174,-0.225213706493,-0.225213706493,-3.30825161934,0.754414618015,2034,2028,2544,2039,2039,2922,3421,3423,3238,3362,3088,3049,3153,3145,3237,2850,3403,3410,3240,3362,3125,3351,3385,3192
1508405892824994251,113,1508405892824687866,plot_matl,0.0,0.0,1.40129846432e-45,4.59163467805e-41,2.82502477649e+25,4.57706117402e-41,0.349065840244,0.30363330245,1.32983291149,-0.00352451298386,-0.0116641782224,-0.0116641782224,0.0218769107014,-0.00691341748461,-97.4582138062,-97.4582138062,-134.335968018,-0.839072167873,1945,1939,2222,2033,2033,2904,3367,3384,3227,3327,3066,2891,3021,2949,3112,2734,3319,3343,3172,3260,2903,3255,3313,3040,0.009945225,1.130010339,1.123810425,0.680678427219,4500.0,0.652699172497,-0.0233283564448,-0.027979247272,125.906616211,1.34390354156,6000.0,1.32983291149,0.0218769107014,-0.014070619829,78.5071411133,0.349065840244,0.0216827709228,0.00842663832009,0.00054454623023,0.00467516668141,0.00467516668141,-0.00139609107282,0.0134713463485,-0.300165474415,-0.300165474415,-3.43807721138,0.550820350647,2028,2027,2544,2039,2039,2922,3421,3423,3238,3362,3088,3049,3153,3145,3236,2852,3402,3411,3238,3364,3126,3351,3385,3192
1508405892834947693,114,1508405892834698075,plot_matl,0.0,0.0,1.40129846432e-45,4.59163467805e-41,2.82502477649e+25,4.57706117402e-41,0.349065840244,0.30498278141,1.32981920242,-0.00351789151318,0.00212557567284,0.00212557567284,-0.0168825350702,-0.0070547927171,-97.4867019653,-97.4867019653,-134.539886475,-0.909548461437,2006,2003,2222,2034,2034,2905,3368,3383,3227,3328,3065,2891,3021,2949,3112,2734,3319,3343,3172,3260,2903,3255,3313,3043,0.010009081,1.14002035,1.141035234,0.680678427219,4500.0,0.654048621655,0.00425115134567,-0.0266297664493,119.833946228,1.34390354156,6000.0,1.32981920242,-0.0168825350702,-0.0140842953697,89.79737854,0.349065840244,0.0216827709228,0.00841357838362,0.00053163402481,0.00423805555329,0.00423805555329,-0.0011405129917,-0.010756877251,-0.278982192278,-0.278982192278,-3.54531407356,0.508350193501,2028,2025,2545,2035,2035,2921,3423,3422,3240,3360,3088,3049,3153,3145,3236,2852,3402,3411,3238,3364,3126,3351,3385,3194
1508405892844951055,115,1508405892844689965,plot_matl,0.0,0.0,1.40129846432e-45,4.59163467805e-41,2.82502477649e+25,4.57706117402e-41,0.349065840244,0.30498278141,1.32984673977,-0.00351903936826,0.00198793062009,0.00198793062009,-0.0174313616008,0.00273314490914,-97.3633041382,-97.3633041382,-134.373321533,-0.814332425594,2058,2086,2222,2034,2034,2905,3368,3383,3227,3328,3065,2886,3021,2945,3112,2735,3319,3340,3172,3261,2902,3255,3313,3043,0.009992166,1.150012619,1.14909909,0.680678427219,4500.0,0.654048621655,0.00397586124018,-0.0266297664493,119.833946228,1.34390354156,6000.0,1.32984673977,-0.0174313616008,-0.0140568390489,89.5910949707,0.349065840244,0.0216827709228,0.00844378117472,0.000590906478465,0.00487342150882,0.00487342150882,-0.0017546818126,0.0125344377011,-0.154985204339,-0.154985204339,-3.6598803997,0.412747174501,2012,2023,2545,2035,2035,2921,3423,3422,3240,3360,3088,3050,3153,3145,3237,2851,3401,3411,3240,3362,3126,3351,3385,3194
1508405892855126001,116,1508405892854759306,plot_matl,0.0,0.0,1.40129846432e-45,4.59163467805e-41,2.82502477649e+25,4.57706117402e-41,0.349065840244,0.30498278141,1.32979106903,-0.00351192802191,0.0018813504139,0.0018813504139,-0.016275934875,0.00258494867012,-97.5147018433,-97.5147018433,-134.565261841,-0.626042962074,1908,1933,2221,2034,2034,2906,3370,3383,3227,3328,3065,2886,3021,2945,3112,2735,3319,3340,3172,3261,2902,3255,3311,3043,0.010067092,1.160080888,1.167782672,0.680678427219,4500.0,0.654048621655,0.00376270082779,-0.0266297664493,119.833946228,1.34390354156,6000.0,1.32979106903,-0.016275934875,-0.0141124418005,89.7321548462,0.349065840244,0.0216827709228,0.00846627354622,0.000635388598312,0.00533472746611,0.00533472746611,-0.00222385535017,-0.0128616634756,-0.196559712291,-0.196559712291,-3.75784277916,0.523430943489,2037,2044,2545,2034,2034,2921,3423,3422,3239,3360,3088,3050,3153,3145,3237,2851,3401,3411,3240,3362,3126,3348,3384,3191
1508405892864985045,117,1508405892864712878,plot_matl,0.0,0.0,1.40129846432e-45,4.59163467805e-41,2.82502477649e+25,4.57706117402e-41,0.349065840244,0.30363330245,1.32985532284,-0.0034967714455,-0.0113239986822,-0.0113239986822,-0.0175650604069,0.00228532310575,-97.5261077881,-97.5261077881,-134.540435791,-0.442508846521,2118,2139,2221,2034,2034,2906,3370,3383,3227,3327,3063,2886,3021,2943,3109,2733,3319,3343,3173,3261,2902,3255,3311,3043,0.009955506,1.170035811,1.164794202,0.680678427219,4500.0,0.652699172497,-0.0226479973644,-0.027979247272,125.906616211,1.34390354156,6000.0,1.32985532284,-0.0175650604069,-0.0140481805429,89.6756973267,0.349065840244,0.0192735753953,0.00846037082374,0.000610052724369,-0.0181388091296,-0.0181388091296,-0.00211546896026,0.0121207060292,-0.278285205364,-0.278285205364,-3.16625571251,0.682430624962,2049,2043,2545,2034,2034,2921,3423,3422,3239,3361,3090,3052,3154,3147,3236,2851,3402,3412,3240,3362,3126,3348,3384,3191
1508405892874978830,118,1508405892874710061,plot_matl,0.0,0.0,1.40129846432e-45,4.59163467805e-41,2.82502477649e+25,4.57706117402e-41,0.349065840244,0.30498278141,1.32986617088,-0.00350165879354,0.00235562119633,0.00235562119633,-0.0178323667496,-0.00738122547045,-97.5026779175,-97.5026779175,-134.63822937,-0.290365576744,1958,1943,2221,2036,2036,2905,3366,3383,3227,3327,3063,2886,3021,2943,3109,2733,3319,3343,3173,3261,2902,3252,3312,3042,0.009997634,1.180033134,1.179720812,0.680678427219,4500.0,0.654048621655,0.00471124239266,-0.0266297664493,119.833946228,1.34390354156,6000.0,1.32986617088,-0.0178323667496,-0.0140373911709,89.6470413208,0.349065840244,0.0216827709228,0.00845485273749,0.000601596140768,0.00672547379509,0.00672547379509,-0.00201349309646,-0.0225929860026,-0.370076686144,-0.370076686144,-2.60973215103,0.478327065706,2034,2027,2543,2036,2036,2922,3420,3422,3239,3361,3090,3052,3154,3147,3236,2851,3402,3412,3240,3363,3126,3350,3383,3191
1508405892885081588,119,1508405892884690447,plot_matl,0.0,0.0,1.40129846432e-45,4.59163467805e-41,2.82502477649e+25,4.57706117402e-41,0.349065840244,0.30498278141,1.32984602451,-0.00351583189331,0.00243250560015,0.00243250560015,-0.0174203682691,-0.00708481483161,-97.3457336426,-97.3457336426,-134.433197021,-0.23201072216,1985,1983,2221,2036,2036,2905,3366,3384,3226,3329,3063,2886,3019,2942,3111,2730,3317,3343,3173,3261,2902,3252,3312,3042,0.009979587,1.190013168,1.187570853,0.680678427219,4500.0,0.654048621655,0.00486501120031,-0.0266297664493,119.833946228,1.34390354156,6000.0,1.32984602451,-0.0174203682691,-0.0140575394034,89.4430389404,0.349065840244,0.0216827709228,0.00845119077712,0.000577099621296,0.0050947428681,0.0050947428681,-0.00191471702419,-0.0116452053189,-0.377129465342,-0.377129465342,-2.02973771095,0.672739565372,2014,2009,2543,2036,2036,2922,3420,3423,3240,3363,3090,3051,3154,3145,3238,2852,3403,3412,3240,3363,3126,3350,3383,3191
1508405892895158861,120,1508405892894697761,plot_matl,0.0,0.0,1.40129846432e-45,4.59163467805e-41,2.82502477649e+25,4.57706117402e-41,0.349065840244,0.30363330245,1.32989811897,-0.00351797509938,-0.0106609296054,-0.0106609296054,-0.0184594541788,0.00272380141541,-97.4278335571,-97.4278335571,-134.43006897,-0.263257563114,2069,2089,2220,2034,2034,2905,3366,3384,3226,3329,3063,2886,3019,2942,3111,2730,3317,3342,3175,3260,2904,3251,3313,3042,0.010007053,1.200020728,1.20084636,0.680678427219,4500.0,0.652699172497,-0.0213218592107,-0.027979247272,125.906616211,1.34390354156,6000.0,1.32989811897,-0.0184594541788,-0.0140053685755,89.5511932373,0.349065840244,0.0216827709228,0.00844649318606,0.000516966218129,0.00459256628528,0.00459256628528,-0.0018334267661,-0.0104070864618,-0.379000514746,-0.379000514746,-2.13666844368,0.473293066025,2016,2030,2545,2036,2036,2922,3420,3423,3240,3363,3090,3051,3154,3145,3238,2852,3403,3412,3239,3362,3126,3349,3385,3194
1508405892905095872,121,1508405892904701944,plot_matl,0.0,0.0,1.40129846432e-45,4.59163467805e-41,2.82502477649e+25,4.57706117402e-41,0.349065840244,0.30363330245,1.32984137535,-0.00350148533471,-0.00993357878178,-0.00993357878178,0.0217977818102,0.00239213579334,-97.4976043701,-97.4976043701,-134.352844238,-0.074912533164,1916,1941,2220,2034,2034,2907,3366,3382,3227,3327,3064,2886,3019,2941,3111,2730,3317,3342,3175,3260,2904,3251,3313,3042,0.010003536,1.210025032,1.210427856,0.680678427219,4500.0,0.652699172497,-0.0198671575636,-0.027979247272,125.906616211,1.34390354156,6000.0,1.32984137535,0.0217977818102,-0.0140620982274,77.7971725464,0.349065840244,0.0216827709228,0.00842995196581,0.000549917574972,0.00423720525578,0.00423720525578,-0.00150086847134,0.0134188318625,-0.274378746748,-0.274378746748,-1.70012891293,0.64414358139,2030,2040,2545,2036,2036,2922,3422,3422,3239,3362,3089,3052,3155,3146,3236,2852,3403,3412,3239,3362,3126,3349,3385,3194
1508405892915173542,122,1508405892914716531,plot_matl,0.0,0.0,1.40129846432e-45,4.59163467805e-41,2.82502477649e+25,4.57706117402e-41,0.349065840244,0.30363330245,1.32986402512,-0.00350570585579,-0.00936433207244,-0.00936433207244,-0.0177073311061,0.0024800945539,-97.5155944824,-97.5155944824,-134.246566772,0.0476819165051,2107,2132,2220,2034,2034,2907,3366,3382,3227,3327,3064,2886,3019,2941,3111,2732,3319,3344,3173,3259,2903,3254,3312,3044,0.010015008,1.220039764,1.221830976,0.680678427219,4500.0,0.652699172497,-0.0187286641449,-0.027979247272,125.906616211,1.34390354156,6000.0,1.32986402512,-0.0177073311061,-0.0140394903719,89.6723175049,0.349065840244,0.0216827709228,0.00842952169478,0.000583873712458,0.00479744002223,0.00479744002223,-0.00149377738126,0.0127436425537,-0.372751355171,-0.372751355171,-1.57324182987,0.676423072815,2029,2029,2544,2036,2036,2922,3422,3422,3239,3362,3089,3052,3155,3146,3236,2851,3403,3410,3240,3362,3126,3349,3384,3190
1508405892925132603,123,1508405892924728242,plot_matl,0.0,0.0,1.40129846432e-45,4.59163467805e-41,2.82502477649e+25,4.57706117402e-41,0.349065840244,0.30633226037,1.32984316349,-0.00348499929532,0.0170957520604,0.0170957520604,0.021776355803,0.00205855234526,-97.5265426636,-97.5265426636,-134.349838257,0.00149594829418,1968,1948,2220,2032,2032,2905,3369,3385,3227,3329,3063,2889,3019,2941,3111,2732,3319,3344,3173,3259,2903,3254,3312,3044,0.010010944,1.230051234,1.231346112,0.680678427219,4500.0,0.655398130417,0.0341915041208,-0.025280283764,113.761283875,1.34390354156,6000.0,1.32984316349,0.021776355803,-0.0140603221953,77.4274368286,0.349065840244,0.0216827709228,0.00841591320932,0.000605153094511,0.00477559538558,0.00477559538558,-0.00121989729814,-0.0121904723346,-0.452350497246,-0.452350497246,-2.09104537964,0.798188328743,2035,2026,2544,2035,2035,2923,3422,3421,3239,3362,3089,3050,3154,3146,3236,2851,3403,3410,3240,3362,3126,3349,3384,3190
1508405892935006235,124,1508405892934699701,plot_matl,0.0,0.0,1.40129846432e-45,4.59163467805e-41,2.82502477649e+25,4.57706117402e-41,0.349065840244,0.30498278141,1.32975924015,-0.00349492253736,0.00288119236939,0.00288119236939,0.023474579677,-0.00753259519115,-97.6469192505,-97.6469192505,-134.545410156,0.153904959559,1983,1982,2220,2032,2032,2905,3369,3385,3227,3329,3063,2889,3019,2943,3109,2730,3318,3342,3175,3261,2903,3253,3310,3044,0.009970868,1.240022738,1.236387632,0.680678427219,4500.0,0.654048621655,0.00576238473877,-0.0266297664493,119.833946228,1.34390354156,6000.0,1.32975924015,0.023474579677,-0.0141443349421,78.0812683105,0.349065840244,0.0216827709228,0.00840506423265,0.000621569692157,0.00426916591823,0.00426916591823,-0.00100154802203,-0.012594467029,-0.307329803705,-0.307329803705,-1.89575922489,0.509612739086,2016,2006,2544,2035,2035,2923,3422,3421,3239,3362,3089,3050,3154,3145,3237,2851,3403,3410,3240,3361,3126,3349,3386,3190
1508405892945137943,125,1508405892944707963,plot_matl,0.0,0.0,1.40129846432e-45,4.59163467805e-41,2.82502477649e+25,4.57706117402e-41,0.349065840244,0.30498278141,1.32968759537,-0.00349361822009,0.00262638321146,0.00262638321146,-0.0142035521567,0.00220297463238,-97.6718521118,-97.6718521118,-134.744598389,0.260822147131,2061,2081,2220,2031,2031,2905,3367,3383,3228,3327,3064,2889,3019,2943,3109,2730,3318,3342,3175,3261,2903,3253,3310,3044,0.010008262,1.250031091,1.25103275,0.680678427219,4500.0,0.654048621655,0.00525276642293,-0.0266297664493,119.833946228,1.34390354156,6000.0,1.32968759537,-0.0142035521567,-0.0142159387469,89.5142211914,0.349065840244,0.0216827709228,0.00839600618929,0.00059546821285,0.00398086663336,0.00398086663336,-0.000819259672426,0.0123949684203,-0.386613130569,-0.386613130569,-1.73272514343,0.450044602156,2012,2013,2545,2035,2035,2922,3421,3422,3239,3361,3090,3050,3154,3145,3237,2851,3403,3410,3240,3361,3126,3349,3386,3191
1508405892954909019,126,1508405892954695259,plot_matl,0.0,0.0,1.40129846432e-45,4.59163467805e-41,2.82502477649e+25,4.57706117402e-41,0.349065840244,0.30498278141,1.32962429523,-0.00350024015643,0.00241585914046,0.00241585914046,-0.0129796722904,-0.00743414927274,-97.6991653442,-97.6991653442,-134.761779785,0.291520982981,1917,1936,2220,2031,2031,2905,3367,3383,3228,3327,3064,2889,3022,2947,3111,2731,3316,3344,3175,3259,2906,3253,3310,3044,0.009985403,1.260017421,1.258160778,0.680678427219,4500.0,0.654048621655,0.00483171828091,-0.0266297664493,119.833946228,1.34390354156,6000.0,1.32962429523,-0.0129796722904,-0.0142792072147,89.5447540283,0.349065840244,0.0240919683129,0.00840244349092,0.000645749503747,0.0271495357156,0.0271495357156,-0.000959668599535,0.0114013152197,-0.387696176767,-0.387696176767,-1.58053648472,0.611911833286,2032,2042,2545,2035,2035,2922,3421,3422,3239,3361,3090,3050,3153,3145,3235,2851,3402,3411,3240,3363,3126,3349,3386,3191
1508405892965129517,127,1508405892964720419,plot_matl,0.0,0.0,1.40129846432e-45,4.59163467805e-41,2.82502477649e+25,4.57706117402e-41,0.349065840244,0.30498278141,1.32950818539,-0.00349674723111,0.00288972444832,0.00288972444832,-0.0106160202995,0.00225841766223,-97.825592041,-97.825592041,-134.877319336,0.315666973591,2136,2154,2222,2032,2032,2906,3366,3386,3228,3327,3064,2889,3022,2947,3111,2731,3316,3344,3175,3259,2906,3255,3310,3043,0.010026947,1.270043437,1.273422269,0.680678427219,4500.0,0.654048621655,0.00577944889665,-0.0266297664493,119.833946228,1.34390354156,6000.0,1.32950818539,-0.0106160202995,-0.0143953477964,89.6808929443,0.349065840244,0.0192735753953,0.00842296611518,0.000619815895334,-0.0215863343328,-0.0215863343328,0.0139737362042,0.0119525771588,-0.348632514477,-0.348632514477,-1.38578546047,0.821646094322,2051,2049,2544,2038,2038,2922,3421,3423,3237,3361,3090,3050,3153,3145,3235,2851,3402,3411,3240,3363,3126,3349,3384,3192
1508405892975081858,128,1508405892974718073,plot_matl,0.0,0.0,1.40129846432e-45,4.59163467805e-41,2.82502477649e+25,4.57706117402e-41,0.349065840244,0.30498278141,1.32952189445,-0.00351886660792,0.00282361800782,0.00282361800782,0.0281789358705,0.00272575207055,-97.817817688,-97.817817688,-134.894042969,0.150494173169,1950,1933,2222,2032,2032,2906,3366,3386,3228,3328,3062,2889,3020,2947,3112,2734,3319,3342,3173,3259,2906,3255,3310,3043,0.009996747,1.280041071,1.279583616,0.680678427219,4500.0,0.654048621655,0.00564723601565,-0.0266297664493,119.833946228,1.34390354156,6000.0,1.32952189445,0.0281789358705,-0.0143816517666,77.6129837036,0.349065840244,0.0216827709228,0.00843822676688,0.000620025675744,0.00308867963031,0.00308867963031,-0.00169098901097,0.0119628831744,-0.361686140299,-0.361686140299,-1.31611967087,0.827724397182,2036,2025,2544,2038,2038,2922,3421,3423,3237,3361,3091,3051,3154,3145,3236,2850,3403,3411,3239,3363,3126,3349,3384,3192
1508405892985047689,129,1508405892984717185,plot_matl,0.0,0.0,1.40129846432e-45,4.59163467805e-41,2.82502477649e+25,4.57706117402e-41,0.349065840244,0.30498278141,1.32953262329,-0.00351350172423,0.0030603390187,0.0030603390187,0.0279816314578,0.00261796079576,-97.8175506592,-97.8175506592,-134.903045654,0.125281840563,1967,1969,2222,2028,2028,2905,3368,3386,3228,3328,3062,2889,3020,2947,3112,2734,3319,3342,3173,3261,2903,3253,3313,3043,0.009998746,1.290040122,1.289838234,0.680678427219,4500.0,0.654048621655,0.00612067803741,-0.0266297664493,119.833946228,1.34390354156,6000.0,1.32953262329,0.0279816314578,-0.0143709322438,78.6599121094,0.349065840244,0.0216827709228,0.00842322222888,0.000663539161906,0.00253829546273,0.00253829546273,-0.00138501962647,0.0111179463565,-0.278402715921,-0.278402715921,-1.52816951275,0.773412942886,2003,2004,2545,2039,2039,2921,3421,3423,3237,3361,3091,3051,3154,3145,3236,2850,3403,3411,3239,3361,3126,3348,3383,3192
1508405892994982295,130,1508405892994692503,plot_matl,0.0,0.0,1.40129846432e-45,4.59163467805e-41,2.82502477649e+25,4.57706117402e-41,0.349065840244,0.30498278141,1.32963955402,-0.00354163860902,0.00274068815634,0.00274068815634,0.0257975813001,-0.00657630199566,-97.5977859497,-97.5977859497,-134.988372803,0.102555975318,2075,2095,2222,2028,2028,2905,3368,3386,3227,3327,3063,2890,3022,2948,3112,2734,3319,3342,3173,3261,2903,3253,3313,3043,0.009975168,1.300015696,1.29677184,0.680678427219,4500.0,0.654048621655,0.00548137631267,-0.0266297664493,119.833946228,1.34390354156,6000.0,1.32963955402,0.0257975813001,-0.0142639419064,78.107925415,0.349065840244,0.0216827709228,0.00843842886388,0.000632313953247,0.00251930928789,0.00251930928789,-0.00169163849205,-0.0127596044913,-0.354588419199,-0.354588419199,-2.75429940224,0.680355131626,2017,2025,2545,2039,2039,2921,3421,3421,3238,3361,3088,3050,3156,3145,3235,2851,3402,3411,3239,3361,3126,3348,3383,3192
1508405893004978184,131,1508405893004685215,plot_matl,0.0,0.0,1.40129846432e-45,4.59163467805e-41,2.82502477649e+25,4.57706117402e-41,0.349065840244,0.30498278141,1.32973110676,-0.00357459089719,0.00245766970329,0.00245766970329,0.0239033680409,0.00384737830609,-97.5987701416,-97.5987701416,-135.1040802,0.117314755917,1946,1976,2222,2029,2029,2905,3368,3386,3227,3327,3063,2890,3022,2948,3112,2734,3319,3343,3173,3262,2902,3254,3312,3042,0.009992586,1.310008197,1.309028766,0.680678427219,4500.0,0.654048621655,0.00491533940658,-0.0266297664493,119.833946228,1.34390354156,6000.0,1.32973110676,0.0239033680409,-0.0141724031419,78.1499710083,0.349065840244,0.0216827709228,0.00844907294959,0.00060507102171,0.00294944550842,0.00294944550842,-0.00192837789655,0.0122592560947,-0.357095628977,-0.357095628977,-3.17191052437,0.541645407677,2042,2050,2544,2037,2037,2921,3421,3421,3238,3361,3088,3050,3156,3145,3235,2851,3402,3412,3238,3363,3126,3351,3385,3191
1508405893015075504,132,1508405893014713463,plot_matl,0.0,0.0,1.40129846432e-45,4.59163467805e-41,2.82502477649e+25,4.57706117402e-41,0.349065840244,0.30498278141,1.32983934879,-0.00357369915582,0.00247905566357,0.00247905566357,0.0217276345938,0.00384063506499,-97.6002426147,-97.6002426147,-135.013015747,0.208759024739,2128,2135,2222,2029,2029,2903,3369,3384,3227,3326,3065,2888,3022,2949,3113,2734,3319,3343,3173,3262,2902,3254,3312,3042,0.010027331,1.3200363,1.323607692,0.680678427219,4500.0,0.654048621655,0.00495811132714,-0.0266297664493,119.833946228,1.34390354156,6000.0,1.32983934879,0.0217276345938,-0.0140641210601,77.9548187256,0.349065840244,0.0216827709228,0.00846098084003,0.00058385822922,0.00365265645087,0.00365265645087,-0.00214249896817,-0.0117955300957,-0.402039170265,-0.402039170265,-2.8561167717,0.546125769615,2040,2030,2544,2037,2037,2921,3421,3422,3239,3361,3089,3051,3155,3147,3233,2851,3402,3412,3238,3363,3126,3351,3385,3191
1508405893025282127,133,1508405893024766758,plot_matl,0.0,0.0,1.40129846432e-45,4.59163467805e-41,2.82502477649e+25,4.57706117402e-41,0.349065840244,0.30498278141,1.32992649078,-0.00354947801679,0.0030144979246,0.0030144979246,0.019961187616,0.00333568942733,-97.420791626,-97.420791626,-135.080947876,0.212629407644,1923,1922,2222,2029,2029,2903,3369,3384,3227,3326,3065,2888,3022,2949,3113,2735,3319,3342,3174,3260,2903,3253,3310,3041,0.010054332,1.330089685,1.337226156,0.680678427219,4500.0,0.654048621655,0.00602899584919,-0.0266297664493,119.833946228,1.34390354156,6000.0,1.32992649078,0.019961187616,-0.0139770451933,77.5492858887,0.349065840244,0.0216827709228,0.00846948567778,0.000652044254821,0.00303792161867,0.00303792161867,-0.00231609633192,0.0112762786448,-0.429557770491,-0.429557770491,-2.21970510483,0.508352637291,2014,2012,2544,2037,2037,2921,3421,3422,3239,3361,3089,3051,3155,3147,3233,2851,3402,3412,3240,3364,3126,3351,3387,3191
1508405893035172602,134,1508405893034715135,plot_matl,0.0,0.0,1.40129846432e-45,4.59163467805e-41,2.82502477649e+25,4.57706117402e-41,0.349065840244,0.30498278141,1.32982718945,-0.00353740062565,0.00271947286092,0.00271947286092,-0.0170817375183,-0.00667285919189,-97.5252304077,-97.5252304077,-134.697219849,0.0617946460843,1998,1997,2222,2030,2030,2905,3367,3383,3228,3324,3062,2886,3019,2949,3113,2735,3319,3342,3174,3260,2903,3253,3310,3041,0.009948136,1.340038258,1.333050224,0.680678427219,4500.0,0.654048621655,0.00543894572183,-0.0266297664493,119.833946228,1.34390354156,6000.0,1.32982718945,-0.0170817375183,-0.0140762841329,89.4602661133,0.349065840244,0.0216827709228,0.0084909722209,0.000640971760731,0.00292468024418,0.00292468024418,-0.00275032338686,-0.0129765504971,-0.334573596716,-0.334573596716,-1.78574562073,0.524980604649,2013,2005,2544,2042,2042,2922,3422,3423,3240,3361,3090,3052,3154,3147,3233,2851,3402,3412,3240,3364,3126,3351,3387,3191
1508405893045132249,135,1508405893044699859,plot_matl,0.0,0.0,1.40129846432e-45,4.59163467805e-41,2.82502477649e+25,4.57706117402e-41,0.349065840244,0.30498278141,1.32974779606,-0.00354632711969,0.00273347040638,0.00273347040638,-0.0153644923121,-0.00649326713756,-97.4216156006,-97.4216156006,-134.649246216,-0.0893075615168,2094,2117,2222,2030,2030,2905,3367,3383,3228,3324,3062,2886,3019,2943,3111,2734,3319,3342,3175,3259,2902,3253,3309,3041,0.009984123,1.350023483,1.347856605,0.680678427219,4500.0,0.654048621655,0.00546694081277,-0.0266297664493,119.833946228,1.34390354156,6000.0,1.32974779606,-0.0153644923121,-0.0141557613388,89.7397689819,0.349065840244,0.0192735753953,0.00846623443067,0.000588003487792,-0.0205543786287,-0.0205543786287,-0.00224884552881,-0.0119130052626,-0.22919459641,-0.22919459641,-1.51150155067,0.880413651466,2025,2028,2544,2042,2042,2922,3422,3423,3240,3361,3090,3052,3154,3146,3236,2852,3402,3412,3239,3364,3126,3349,3387,3191
1508405893055080566,136,1508405893054687911,plot_matl,0.0,0.0,1.40129846432e-45,4.59163467805e-41,2.82502477649e+25,4.57706117402e-41,0.349065840244,0.30498278141,1.3297804594,-0.00353491492569,0.00298462901264,0.00298462901264,-0.0160809401423,0.00303862127475,-97.4218292236,-97.4218292236,-134.532180786,-0.296580970287,1919,1947,2221,2030,2030,2905,3367,3382,3228,3329,3065,2886,3019,2943,3111,2734,3319,3342,3175,3259,2902,3253,3309,3040,0.009985657,1.360010397,1.358049352,0.680678427219,4500.0,0.654048621655,0.00596925802529,-0.0266297664493,119.833946228,1.34390354156,6000.0,1.3297804594,-0.0160809401423,-0.0141230151057,89.3305664062,0.349065840244,0.0240919683129,0.00846165791154,0.000625313026831,0.0282978061587,0.0282978061587,-0.0021413739305,0.0118142515421,-0.256625473499,-0.256625473499,-1.34839475155,1.07594347,2032,2042,2544,2040,2040,2922,3422,3422,3238,3364,3088,3052,3154,3146,3236,2852,3402,3412,3239,3364,3126,3349,3387,3190
1508405893065060751,137,1508405893064710486,plot_matl,0.0,0.0,1.40129846432e-45,4.59163467805e-41,2.82502477649e+25,4.57706117402e-41,0.349065840244,0.30498278141,1.32984733582,-0.00356008950621,0.0022146187257,0.0022146187257,0.0216236840934,-0.00621416000649,-97.5598754883,-97.5598754883,-134.473876953,-0.357906550169,2092,2112,2221,2030,2030,2905,3367,3382,3228,3329,3065,2885,3021,2942,3112,2732,3317,3343,3175,3260,2902,3253,3309,3040,0.010022354,1.370032646,1.373062498,0.680678427219,4500.0,0.654048621655,0.0044292374514,-0.0266297664493,119.833946228,1.34390354156,6000.0,1.32984733582,0.0216236840934,-0.0140561508015,77.9230499268,0.349065840244,0.0216827709228,0.00846841000021,0.000643478531856,0.00324232084677,0.00324232084677,-0.00228745979257,-0.0129992850125,-0.228386700153,-0.228386700153,-2.1905412674,0.952394843102,2029,2022,2544,2040,2040,2922,3422,3422,3238,3364,3088,3052,3154,3144,3234,2851,3404,3412,3241,3363,3129,3349,3387,3190
1508405893074875361,138,1508405893074676888,plot_matl,0.0,0.0,1.40129846432e-45,4.59163467805e-41,2.82502477649e+25,4.57706117402e-41,0.349065840244,0.30498278141,1.329859972,-0.0035456425976,0.00183181453031,0.00183181453031,-0.017712244764,0.00325994170271,-97.4989776611,-97.4989776611,-134.49319458,-0.358451873064,1957,1955,2220,2030,2030,2907,3370,3383,3228,3329,3065,2885,3021,2942,3112,2732,3317,3343,3175,3260,2902,3252,3311,3042,0.009965562,1.379998689,1.375247556,0.680678427219,4500.0,0.654048621655,0.00366362906061,-0.0266297664493,119.833946228,1.34390354156,6000.0,1.329859972,-0.017712244764,-0.0140435118228,89.2013626099,0.349065840244,0.0192735753953,0.00846408400685,0.000570844684262,-0.021633002907,-0.021633002907,-0.00217570341192,-0.0115250432864,-0.391283541918,-0.391283541918,-2.54598617554,0.815002083778,2040,2028,2545,2038,2038,2922,3421,3421,3240,3364,3088,3052,3154,3144,3234,2851,3404,3412,3241,3363,3129,3350,3386,3193
1508405893085099871,139,1508405893084692192,plot_matl,0.0,0.0,1.40129846432e-45,4.59163467805e-41,2.82502477649e+25,4.57706117402e-41,0.349065840244,0.30498278141,1.32986867428,-0.00354386190884,0.00148836174048,0.00148836174048,0.0211811922491,0.00320801511407,-97.475440979,-97.475440979,-134.371688843,-0.552199840546,2013,2016,2220,2030,2030,2907,3370,3383,3228,3326,3065,2887,3020,2941,3109,2731,3317,3342,3174,3260,2902,3252,3311,3042,0.010017453,1.390015305,1.392425967,0.680678427219,4500.0,0.654048621655,0.00297672348097,-0.0266297664493,119.833946228,1.34390354156,6000.0,1.32986867428,0.0211811922491,-0.0140349082649,78.6096496582,0.349065840244,0.0192735753953,0.00849828030914,0.000594591954723,-0.0207928977907,-0.0207928977907,0.0124554261565,0.0124231399968,-0.141414672136,-0.141414672136,-2.48009824753,0.69887804985,2024,2012,2545,2038,2038,2922,3421,3421,3240,3363,3090,3050,3154,3146,3237,2850,3402,3409,3239,3363,3129,3350,3386,3193
1508405893095022259,140,1508405893094701171,plot_matl,0.0,0.0,1.40129846432e-45,4.59163467805e-41,2.82502477649e+25,4.57706117402e-41,0.349065840244,0.30498278141,1.32986867428,-0.00354386190884,0.00148836174048,0.00148836174048,0.0211811922491,0.00320801511407,-97.475440979,-97.475440979,-134.371688843,-0.552199840546,2065,2087,2220,2031,2031,2905,3368,3383,3228,3326,3065,2887,3020,2941,3109,2731,3317,3342,3174,3259,2904,3254,3310,3042,0.010007867,1.400024134,1.40110138,0.680678427219,4500.0,0.652699172497,-0.0237750411034,-0.027979247272,125.906616211,1.34390354156,6000.0,1.32995307446,0.0194565095007,-0.0139504037797,78.257598877,0.349065840244,0.0192735753953,0.00849828030914,0.000594591954723,-0.0207928977907,-0.0207928977907,0.0124554261565,0.0124231399968,-0.141414672136,-0.141414672136,-2.48009824753,0.69887804985,2009,2017,2544,2039,2039,2921,3422,3421,3240,3363,3090,3050,3154,3146,3237,2850,3402,3409,3239,3364,3126,3350,3386,3192
1508405893104940908,141,1508405893104665822,plot_matl,0.0,0.0,1.40129846432e-45,4.59163467805e-41,2.82502477649e+25,4.57706117402e-41,0.349065840244,0.30498278141,1.32986867428,-0.00354386190884,0.00148836174048,0.00148836174048,0.0211811922491,0.00320801511407,-97.475440979,-97.475440979,-134.371688843,-0.552199840546,1896,1929,2220,2031,2031,2905,3368,3385,3228,3327,3063,2889,3021,2941,3109,2731,3318,3342,3174,3259,2904,3254,3310,3042,0.009961241,1.409987203,1.404534981,0.680678427219,4500.0,0.652699172497,-0.0224220138043,-0.027979247272,125.906616211,1.34390354156,6000.0,1.32988262177,-0.0182178746909,-0.0140209179372,89.0460510254,0.349065840244,0.0192735753953,0.00849828030914,0.000594591954723,-0.0207928977907,-0.0207928977907,0.0124554261565,0.0124231399968,-0.141414672136,-0.141414672136,-2.48009824753,0.69887804985,2034,2032,2544,2039,2039,2921,3422,3422,3239,3362,3089,3051,3155,3144,3236,2851,3403,3409,3239,3364,3126,3350,3386,3192
1508405893115283279,142,1508405893114741485,plot_matl,0.0,0.0,1.40129846432e-45,4.59163467805e-41,2.82502477649e+25,4.57706117402e-41,0.349065840244,0.30498278141,1.32986867428,-0.00354386190884,0.00148836174048,0.00148836174048,0.0211811922491,0.00320801511407,-97.475440979,-97.475440979,-134.371688843,-0.552199840546,2118,2149,2220,2031,2031,2905,3368,3385,3228,3327,3063,2889,3021,2941,3109,2731,3318,3343,3174,3259,2905,3256,3312,3042,0.010079222,1.420064909,1.431249524,0.680678427219,4500.0,0.652699172497,-0.0212803389877,-0.027979247272,125.906616211,1.34390354156,6000.0,1.32978451252,-0.0162649955601,-0.0141190038994,90.008972168,0.349065840244,0.0192735753953,0.00849828030914,0.000594591954723,-0.0207928977907,-0.0207928977907,0.0124554261565,0.0124231399968,-0.141414672136,-0.141414672136,-2.48009824753,0.69887804985,2044,2045,2545,2039,2039,2921,3422,3422,3239,3362,3089,3051,3155,3144,3236,2851,3403,3411,3240,3363,3127,3349,3385,3191
1508405893125146362,143,1508405893124691546,plot_matl,0.0,0.0,1.40129846432e-45,4.59163467805e-41,2.82502477649e+25,4.57706117402e-41,0.349065840244,0.30363330245,1.32978451252,-0.00356275844388,-0.0106401694939,-0.0106401694939,-0.0162649955601,-0.00615617353469,-97.4725189209,-97.4725189209,-134.007522583,-0.379256010056,1956,1945,2220,2031,2031,2906,3367,3384,3227,3327,3063,2890,3020,2946,3111,2731,3318,3343,3174,3259,2905,3256,3312,3042,0.009948918,1.430014498,1.422695274,0.680678427219,4500.0,0.654048621655,0.00489191804081,-0.0266297664493,119.833946228,1.34390354156,6000.0,1.3297393322,-0.015316169709,-0.0141641702503,89.4635162354,0.349065840244,0.0192735753953,0.00849740207195,0.000627359549981,-0.0205479767174,-0.0205479767174,-0.00287267612293,-0.0127884475514,0.134011149406,0.134011149406,-3.41813230515,0.663591563702,2034,2022,2545,2039,2039,2922,3423,3420,3238,3361,3090,3049,3154,3146,3236,2851,3403,3411,3240,3363,3127,3349,3385,3191
1508405893135278816,144,1508405893134739153,plot_matl,0.0,0.0,1.40129846432e-45,4.59163467805e-41,2.82502477649e+25,4.57706117402e-41,0.349065840244,0.30363330245,1.32978451252,-0.00356275844388,-0.0106401694939,-0.0106401694939,-0.0162649955601,-0.00615617353469,-97.4725189209,-97.4725189209,-134.007522583,-0.379256010056,1976,1982,2222,2031,2031,2906,3367,3384,3227,3327,3063,2890,3020,2946,3111,2729,3318,3343,3175,3261,2904,3256,3310,3042,0.010048013,1.440062195,1.446913872,0.680678427219,4500.0,0.654048621655,0.00449425773695,-0.0266297664493,119.833946228,1.34390354156,6000.0,1.32981562614,-0.0167988780886,-0.0140878614038,89.602394104,0.349065840244,0.0192735753953,0.00849740207195,0.000627359549981,-0.0205479767174,-0.0205479767174,-0.00287267612293,-0.0127884475514,0.134011149406,0.134011149406,-3.41813230515,0.663591563702,2011,2010,2545,2039,2039,2922,3423,3420,3238,3361,3090,3049,3154,3146,3236,2851,3404,3412,3239,3362,3126,3349,3385,3191
1508405893145106730,145,1508405893144700890,plot_matl,0.0,0.0,1.40129846432e-45,4.59163467805e-41,2.82502477649e+25,4.57706117402e-41,0.349065840244,0.30363330245,1.32978451252,-0.00356275844388,-0.0106401694939,-0.0106401694939,-0.0162649955601,-0.00615617353469,-97.4725189209,-97.4725189209,-134.007522583,-0.379256010056,2061,2076,2222,2032,2032,2904,3366,3383,3228,3327,3064,2890,3022,2946,3111,2729,3318,3343,3175,3261,2904,3256,3310,3042,0.00996065,1.450023813,1.44429425,0.680678427219,4500.0,0.654048621655,0.00459094624966,-0.0266297664493,119.833946228,1.34390354156,6000.0,1.32987761497,-0.0180100351572,-0.0140259461477,89.3862915039,0.349065840244,0.0192735753953,0.00849740207195,0.000627359549981,-0.0205479767174,-0.0205479767174,-0.00287267612293,-0.0127884475514,0.134011149406,0.134011149406,-3.41813230515,0.663591563702,2023,2027,2545,2036,2036,2923,3421,3423,3239,3362,3090,3051,3154,3146,3236,2851,3404,3412,3239,3362,3126,3349,3385,3191
1508405893155159268,146,1508405893154717717,plot_matl,0.0,0.0,1.40129846432e-45,4.59163467805e-41,2.82502477649e+25,4.57706117402e-41,0.349065840244,0.30363330245,1.32978451252,-0.00356275844388,-0.0106401694939,-0.0106401694939,-0.0162649955601,-0.00615617353469,-97.4725189209,-97.4725189209,-134.007522583,-0.379256010056,1908,1937,2222,2032,2032,2904,3366,3383,3228,3327,3064,2890,3022,2947,3110,2732,3317,3342,3174,3259,2904,3253,3310,3042,0.010017198,1.460040775,1.462510908,0.680678427219,4500.0,0.654048621655,0.00576597126201,-0.0266297664493,119.833946228,1.34390354156,6000.0,1.32985115051,-0.0174581557512,-0.0140523668379,89.341796875,0.349065840244,0.0192735753953,0.00849740207195,0.000627359549981,-0.0205479767174,-0.0205479767174,-0.00287267612293,-0.0127884475514,0.134011149406,0.134011149406,-3.41813230515,0.663591563702,2036,2045,2545,2036,2036,2923,3421,3423,3239,3362,3090,3051,3154,3145,3235,2852,3402,3411,3240,3362,3128,3351,3386,3191
1508405893165200215,147,1508405893164725900,plot_matl,0.0,0.0,1.40129846432e-45,4.59163467805e-41,2.82502477649e+25,4.57706117402e-41,0.349065840244,0.30498278141,1.32985115051,-0.00354380579665,0.002882985631,0.002882985631,-0.0174581557512,-0.00656390236691,-97.5321121216,-97.5321121216,-134.022216797,-0.257729232311,2118,2135,2222,2026,2026,2906,3369,3385,3226,3327,3063,2890,3022,2947,3110,2732,3317,3342,3174,3259,2904,3253,3310,3043,0.010008113,1.470049158,1.471192611,0.680678427219,4500.0,0.652699172497,-0.0205024369061,-0.027979247272,125.906616211,1.34390354156,6000.0,1.3299074173,0.0204775333405,-0.0139961466193,77.8460464478,0.349065840244,0.0216827709228,0.00847454369068,0.000640916754492,0.00679910136387,0.00679910136387,-0.00240990053862,-0.0130172874779,0.184765815735,0.184765815735,-2.98324465752,0.952154755592,2038,2036,2545,2039,2039,2922,3422,3420,3241,3362,3089,3051,3154,3145,3235,2852,3402,3411,3240,3362,3128,3351,3386,3193
1508405893174978627,148,1508405893174694036,plot_matl,0.0,0.0,1.40129846432e-45,4.59163467805e-41,2.82502477649e+25,4.57706117402e-41,0.349065840244,0.30498278141,1.32985115051,-0.00354380579665,0.002882985631,0.002882985631,-0.0174581557512,-0.00656390236691,-97.5321121216,-97.5321121216,-134.022216797,-0.257729232311,1957,1940,2222,2026,2026,2906,3369,3385,3226,3327,3063,2890,3022,2947,3111,2734,3320,3342,3175,3262,2902,3253,3310,3043,0.009966519,1.480016984,1.475044812,0.680678427219,4500.0,0.654048621655,0.00652674213052,-0.0266297664493,119.833946228,1.34390354156,6000.0,1.33001732826,0.018219307065,-0.013886150904,77.8342132568,0.349065840244,0.0216827709228,0.00847454369068,0.000640916754492,0.00679910136387,0.00679910136387,-0.00240990053862,-0.0130172874779,0.184765815735,0.184765815735,-2.98324465752,0.952154755592,2035,2030,2545,2039,2039,2922,3422,3420,3241,3362,3089,3051,3154,3145,3238,2851,3402,3409,3239,3363,3126,3351,3386,3193
1508405893185051941,149,1508405893184698145,plot_matl,0.0,0.0,1.40129846432e-45,4.59163467805e-41,2.82502477649e+25,4.57706117402e-41,0.349065840244,0.30498278141,1.32985115051,-0.00354380579665,0.002882985631,0.002882985631,-0.0174581557512,-0.00656390236691,-97.5321121216,-97.5321121216,-134.022216797,-0.257729232311,1982,1984,2222,2028,2028,2905,3369,3385,3228,3327,3063,2890,3022,2947,3111,2734,3320,3342,3175,3262,2902,3256,3311,3044,0.010003061,1.490020751,1.490456089,0.680678427219,4500.0,0.654048621655,0.00633030664176,-0.0266297664493,119.833946228,1.34390354156,6000.0,1.32990169525,-0.0185248162597,-0.014001856558,89.5740890503,0.349065840244,0.0216827709228,0.00847454369068,0.000640916754492,0.00679910136387,0.00679910136387,-0.00240990053862,-0.0130172874779,0.184765815735,0.184765815735,-2.98324465752,0.952154755592,2011,2010,2545,2037,2037,2921,3420,3421,3238,3362,3089,3051,3154,3145,3238,2851,3402,3409,3239,3363,3126,3350,3386,3191
1508405893195106384,150,1508405893194713578,plot_matl,0.0,0.0,1.40129846432e-45,4.59163467805e-41,2.82502477649e+25,4.57706117402e-41,0.349065840244,0.30498278141,1.32980918884,-0.00354488706216,0.00282625551336,0.00282625551336,-0.0166558716446,0.00324707338586,-97.6263961792,-97.6263961792,-134.036102295,0.000820856483188,2062,2074,2222,2028,2028,2905,3369,3385,3228,3328,3065,2889,3021,2948,3115,2732,3318,3344,3174,3262,2902,3256,3311,3044,0.010017483,1.500037242,1.50262245,0.680678427219,4500.0,0.654048621655,0.00565251102671,-0.0266297664493,119.833946228,1.34390354156,6000.0,1.32980918884,-0.0166558716446,-0.0140942912549,89.5968170166,0.349065840244,0.0216827709228,0.00849574711174,0.000667671440169,0.0076571800746,0.0076571800746,-0.00283082062379,0.010965982452,0.504988133907,0.504988133907,-4.57384157181,0.864423573017,2007,2016,2545,2037,2037,2921,3420,3421,3238,3361,3090,3051,3155,3146,3237,2852,3404,3412,3240,3363,3126,3350,3386,3191
1508405893204969681,151,1508405893204700187,plot_matl,0.0,0.0,1.40129846432e-45,4.59163467805e-41,2.82502477649e+25,4.57706117402e-41,0.349065840244,0.30498278141,1.32980918884,-0.00354488706216,0.00282625551336,0.00282625551336,-0.0166558716446,0.00324707338586,-97.6263961792,-97.6263961792,-134.036102295,0.000820856483188,1924,1954,2223,2026,2026,2903,3369,3385,3228,3328,3065,2889,3021,2948,3115,2732,3318,3344,3174,3260,2904,3254,3311,3042,0.009983997,1.510022854,1.507583547,0.680678427219,4500.0,0.654048621655,0.00459768762812,-0.0266297664493,119.833946228,1.34390354156,6000.0,1.32987618446,0.0210956931114,-0.0140273850411,77.5119476318,0.349065840244,0.0216827709228,0.00849574711174,0.000667671440169,0.0076571800746,0.0076571800746,-0.00283082062379,0.010965982452,0.504988133907,0.504988133907,-4.57384157181,0.864423573017,2033,2049,2545,2035,2035,2923,3421,3421,3238,3361,3090,3051,3155,3146,3237,2852,3404,3412,3240,3363,3128,3348,3383,3193
1508405893215178425,152,1508405893214703829,plot_matl,0.0,0.0,1.40129846432e-45,4.59163467805e-41,2.82502477649e+25,4.57706117402e-41,0.349065840244,0.30498278141,1.32980918884,-0.00354488706216,0.00282625551336,0.00282625551336,-0.0166558716446,0.00324707338586,-97.6263961792,-97.6263961792,-134.036102295,0.000820856483188,2129,2142,2223,2026,2026,2903,3369,3383,3228,3329,3064,2887,3021,2946,3112,2735,3318,3344,3174,3260,2904,3254,3311,3042,0.010004043,1.520026997,1.520614536,0.680678427219,4500.0,0.654048621655,0.00519174989313,-0.0266297664493,119.833946228,1.34390354156,6000.0,1.32989501953,0.0207356270403,-0.0140085583553,77.8649139404,0.349065840244,0.0216827709228,0.00849574711174,0.000667671440169,0.0076571800746,0.0076571800746,-0.00283082062379,0.010965982452,0.504988133907,0.504988133907,-4.57384157181,0.864423573017,2040,2042,2545,2035,2035,2923,3421,3422,3238,3361,3089,3051,3155,3145,3235,2851,3402,3412,3240,3363,3128,3348,3383,3193
