%time,field.header.seq,field.header.stamp,field.header.frame_id,field.FFJ4_set_point,field.FFJ4_position_gain,field.FFJ4_process_value,field.FFJ4_process_value_dot,field.FFJ4_error,field.FFJ4_command,field.FFJ1,field.FFJ2,field.FFJ3,field.FFJ4,field.FFJ1_dot,field.FFJ2_dot,field.FFJ3_dot,field.FFJ4_dot,field.FFJ1_tao,field.FFJ2_tao,field.FFJ3_tao,field.FFJ4_tao,field.pac0,field.pac1,field.pdc0,field.tac0,field.tdc0,field.el0,field.el1,field.el2,field.el3,field.el4,field.el5,field.el6,field.el7,field.el8,field.el9,field.el10,field.el11,field.el12,field.el13,field.el14,field.el15,field.el16,field.el17,field.el18,field.dt,field.time,field.test_time2,field.FFJ0_set_point,field.FFJ0_position_gain,field.FFJ0_process_value,field.FFJ0_process_value_dot,field.FFJ0_error,field.FFJ0_command,field.FFJ3_set_point,field.FFJ3_position_gain,field.FFJ3_process_value,field.FFJ3_process_value_dot,field.FFJ3_error,field.FFJ3_command,field.MFJ1,field.MFJ2,field.MFJ3,field.MFJ4,field.MFJ1_dot,field.MFJ2_dot,field.MFJ3_dot,field.MFJ4_dot,field.MFJ1_tao,field.MFJ2_tao,field.MFJ3_tao,field.MFJ4_tao,field.Mpac0,field.Mpac1,field.Mpdc0,field.Mtac0,field.Mtdc0,field.Mel0,field.Mel1,field.Mel2,field.Mel3,field.Mel4,field.Mel5,field.Mel6,field.Mel7,field.Mel8,field.Mel9,field.Mel10,field.Mel11,field.Mel12,field.Mel13,field.Mel14,field.Mel15,field.Mel16,field.Mel17,field.Mel18
1508406118654835632,94,1508406118654329098,plot_matl,0.0,0.0,1.40129846432e-45,4.59163467805e-41,-3.08033907423e-16,4.58154532911e-41,0.349065840244,0.30498278141,1.32979524136,-0.00354894227348,0.00211650342681,0.00211650342681,0.022405249998,0.00338978879154,-96.1870269775,-96.1870269775,-132.450302124,-0.310341864824,1259,1407,2223,1972,1972,2891,3345,3369,3209,3325,3070,2894,3025,2949,3115,2741,3325,3347,3179,3265,2910,3252,3317,3048,0.009941756,0.939942346,0.934525064,0.680678427219,4500.0,0.654048621655,0.0042406655848,-0.0266297664493,119.833946228,1.34390354156,6000.0,1.32984828949,-0.0176708772779,-0.0140551785007,89.2267303467,0.349065840244,0.0216827709228,0.00838158559054,0.0005627295468,0.00622668908909,0.00622668908909,-0.000555596023332,0.0129941962659,0.192060634494,0.192060634494,-1.52816355228,1.04492938519,2039,2038,2546,2038,2038,2918,3424,3423,3238,3362,3088,3050,3155,3143,3235,2848,3405,3412,3239,3363,3127,3349,3385,3192
1508406118664720044,95,1508406118664345224,plot_matl,0.0,0.0,1.40129846432e-45,4.59163467805e-41,-3.08033907423e-16,4.58154532911e-41,0.349065840244,0.30498278141,1.3297342062,-0.00358029268682,0.00183691387065,0.00183691387065,0.0221412461251,0.00359088974074,-96.6341323853,-96.6341323853,-132.290756226,-0.535973370075,1498,1829,2223,1972,1972,2891,3345,3369,3209,3325,3070,2894,3025,2949,3112,2743,3323,3346,3179,3266,2914,3267,3327,3061,0.01001549,0.949958571,0.95147155,0.680678427219,4500.0,0.654048621655,0.00360230566002,-0.0266297664493,119.833946228,1.34390354156,6000.0,1.32971966267,-0.0166015252471,-0.0141838919371,89.4698638916,0.349065840244,0.0216827709228,0.00837265979499,0.000559060019441,0.00407365011051,0.00407365011051,-0.000366932828911,-0.0123333996162,0.336680859327,0.336680859327,-1.67786228657,1.01504933834,2040,2048,2546,2038,2038,2918,3424,3423,3238,3362,3088,3050,3155,3143,3235,2850,3402,3412,3240,3363,3126,3363,3397,3208
1508406118674703104,96,1508406118674332945,plot_matl,0.0,0.0,1.40129846432e-45,4.59163467805e-41,-3.08033907423e-16,4.58154532911e-41,0.349065840244,0.30363330245,1.32976996899,-0.00356918619946,-0.0113666160032,-0.0113666160032,-0.0173460431397,0.00343407597393,-96.5958099365,-96.5958099365,-132.360748291,-0.564757883549,1483,1805,2213,1968,1968,2894,3355,3378,3218,3333,3068,2899,3025,2949,3112,2743,3323,3346,3179,3266,2914,3267,3327,3061,0.009987571,0.959946463,0.958806816,0.680678427219,4500.0,0.652699172497,-0.0222728122026,-0.027979247272,125.906616211,1.34390354156,6000.0,1.32975411415,-0.0169947296381,-0.0141494395211,89.6565628052,0.349065840244,0.0192735753953,0.00836954172701,0.00054882717086,-0.0196731612086,-0.0196731612086,-0.000301027233945,0.0125388167799,0.384428054094,0.384428054094,-1.4530351162,1.22879219055,2035,2041,2546,2037,2037,2926,3429,3430,3242,3366,3090,3054,3155,3143,3235,2850,3402,3412,3240,3363,3126,3363,3397,3208
1508406118684637279,97,1508406118684332012,plot_matl,0.0,0.0,1.40129846432e-45,4.59163467805e-41,-3.08033907423e-16,4.58154532911e-41,0.349065840244,0.30633226037,1.32979869843,-0.00355346174911,0.0151851261035,0.0151851261035,-0.0176378674805,0.00317170680501,-96.6353759766,-96.6353759766,-132.489471436,-0.626960456371,1489,1817,2213,1968,1968,2894,3355,3378,3218,3333,3068,2899,3028,2956,3118,2743,3326,3349,3180,3266,2912,3257,3327,3061,0.009998495,0.969945414,0.969854015,0.680678427219,4500.0,0.654048621655,0.00304800993763,-0.0266297664493,119.833946228,1.34390354156,6000.0,1.32978272438,-0.0172892995179,-0.0141208283603,89.5402984619,0.349065840244,0.0192735753953,0.00836695265025,0.000582748849411,-0.0187864396721,-0.0187864396721,-0.0002463075798,0.0120215043426,0.280609726906,0.280609726906,-1.29793918133,1.23528325558,2030,2028,2546,2037,2037,2926,3429,3430,3242,3366,3090,3054,3157,3147,3238,2849,3405,3415,3242,3366,3128,3352,3397,3208
1508406118694775591,98,1508406118694386890,plot_matl,0.0,0.0,1.40129846432e-45,4.59163467805e-41,-3.08033907423e-16,4.58154532911e-41,0.349065840244,0.30498278141,1.32983243465,-0.00355027243495,0.00222777831368,0.00222777831368,0.0209849309176,-0.00662103341892,-96.6616592407,-96.6616592407,-132.420440674,-0.680444180965,1491,1825,2221,1969,1969,2894,3346,3369,3208,3328,3068,2899,3028,2956,3118,2743,3326,3349,3180,3266,2912,3257,3319,3050,0.010055069,0.980000463,0.985396762,0.680678427219,4500.0,0.654048621655,0.00436463067308,-0.0266297664493,119.833946228,1.34390354156,6000.0,1.32981526852,-0.0177367497236,-0.0140883112326,89.7088088989,0.349065840244,0.0216827709228,0.0083648301661,0.000588878814597,0.00539804343134,0.00539804343134,-0.00020144530572,-0.0124903926626,0.331144541502,0.331144541502,-0.944830596447,1.33574020863,2035,2037,2546,2038,2038,2922,3421,3423,3240,3364,3090,3054,3157,3147,3238,2849,3405,3415,3242,3366,3128,3352,3390,3193
1508406118704738731,99,1508406118704355859,plot_matl,0.0,0.0,1.40129846432e-45,4.59163467805e-41,-3.08033907423e-16,4.58154532911e-41,0.349065840244,0.30498278141,1.32981812954,-0.00353702297434,0.00182544742711,0.00182544742711,-0.0176395811141,0.00291328551248,-96.6816711426,-96.6816711426,-132.39414978,-0.850480556488,1484,1814,2221,1969,1969,2894,3346,3369,3208,3328,3069,2893,3026,2951,3116,2745,3324,3348,3181,3265,2912,3257,3319,3050,0.009968192,0.989969271,0.986851008,0.680678427219,4500.0,0.652699172497,-0.0231489706784,-0.027979247272,125.906616211,1.34390354156,6000.0,1.32980215549,-0.0173010397702,-0.0141013627872,89.3960723877,0.349065840244,0.0216827709228,0.00837607495487,0.000634427880868,0.0056978543289,0.0056978543289,-0.000417161325458,-0.0133137507364,0.451938033104,0.451938033104,-1.34587717056,1.34335172176,2034,2031,2546,2038,2038,2922,3421,3423,3240,3364,3089,3051,3155,3145,3235,2850,3402,3411,3240,3364,3128,3352,3390,3193
1508406118714773992,100,1508406118714362808,plot_matl,0.0,0.0,1.40129846432e-45,4.59163467805e-41,-3.08033907423e-16,4.58154532911e-41,0.349065840244,0.30498278141,1.32988297939,-0.0035350502003,0.00147366418969,0.00147366418969,0.0202790107578,-0.00685967737809,-96.6272506714,-96.6272506714,-132.520248413,-0.966838777065,1480,1800,2224,1970,1970,2880,3346,3373,3208,3328,3069,2893,3026,2951,3116,2745,3324,3348,3181,3265,2916,3252,3315,3048,0.010006197,0.999976145,1.0006197,0.680678427219,4500.0,0.654048621655,0.00289018405601,-0.0266297664493,119.833946228,1.34390354156,6000.0,1.32986557484,-0.0184274446219,-0.0140379536897,89.441696167,0.349065840244,0.0192735753953,0.00834529846907,0.000652424234431,-0.0178378354758,-0.0178378354758,0.000204881915124,-0.0135775282979,0.415522783995,0.415522783995,-0.861413657665,1.45703279972,2030,2035,2547,2038,2038,2919,3421,3421,3240,3364,3089,3051,3155,3145,3235,2850,3402,3411,3240,3364,3126,3350,3388,3194
1508406118724671292,101,1508406118724350168,plot_matl,0.0,0.0,1.40129846432e-45,4.59163467805e-41,-3.08033907423e-16,4.58154532911e-41,0.349065840244,0.30498278141,1.32986032963,-0.00351683562621,0.00122503121383,0.00122503121383,-0.0181497521698,0.00255209580064,-96.5127487183,-96.5127487183,-132.754592896,-0.98987108469,1465,1792,2224,1970,1970,2880,3346,3373,3216,3330,3068,2897,3025,2951,3114,2740,3322,3347,3181,3265,2916,3252,3315,3048,0.009987285,1.009963591,1.008715785,0.680678427219,4500.0,0.654048621655,0.00240409490652,-0.0266297664493,119.833946228,1.34390354156,6000.0,1.32988023758,0.0205162465572,-0.0140233272687,78.1696243286,0.349065840244,0.0192735753953,0.00834712386131,0.000731251144316,-0.0168132577091,-0.0168132577091,0.000167481804965,0.00935657974333,0.301889419556,0.301889419556,-1.27878928185,1.3950407505,2037,2033,2547,2038,2038,2919,3421,3421,3238,3362,3088,3049,3155,3146,3236,2848,3402,3411,3240,3364,3126,3350,3388,3194
1508406118734824177,102,1508406118734354583,plot_matl,0.0,0.0,1.40129846432e-45,4.59163467805e-41,-3.08033907423e-16,4.58154532911e-41,0.349065840244,0.30498278141,1.32990574837,-0.00351234595291,0.0012602256611,0.0012602256611,-0.0189770981669,-0.00729852635413,-96.4198226929,-96.4198226929,-132.893051147,-0.939883470535,1471,1795,2214,1969,1969,2897,3346,3373,3216,3330,3068,2897,3025,2951,3114,2740,3322,3347,3179,3264,2908,3255,3317,3048,0.010004249,1.01996808,1.020433398,0.680678427219,4500.0,0.654048621655,0.00247489754111,-0.0266297664493,119.833946228,1.34390354156,6000.0,1.32988905907,-0.0186341125518,-0.0140144256875,89.0703582764,0.349065840244,0.0192735753953,0.00834860559553,0.000747965823393,-0.0168271772563,-0.0168271772563,0.000137127761263,-0.0154471788555,0.453303873539,0.453303873539,-0.92289942503,1.56561899185,2040,2037,2546,2037,2037,2920,3421,3421,3238,3362,3088,3049,3155,3146,3236,2848,3402,3411,3241,3363,3127,3350,3387,3193
1508406118744815952,103,1508406118744348197,plot_matl,0.0,0.0,1.40129846432e-45,4.59163467805e-41,-3.08033907423e-16,4.58154532911e-41,0.349065840244,0.30498278141,1.32998812199,-0.00350708165206,0.0015123054618,0.0015123054618,0.0184729769826,0.00236585456878,-96.3442611694,-96.3442611694,-132.999649048,-0.790323972702,1479,1803,2214,1969,1969,2897,3347,3369,3211,3327,3064,2893,3026,2954,3116,2745,3322,3347,3179,3264,2908,3255,3317,3048,0.009993229,1.02996182,1.029302587,0.680678427219,4500.0,0.654048621655,0.00296602468006,-0.0266297664493,119.833946228,1.34390354156,6000.0,1.33000612259,0.0181151591241,-0.0138973584399,77.9629440308,0.349065840244,0.0192735753953,0.00834981072694,0.000807369768154,-0.015482602641,-0.015482602641,0.000112448076834,-0.0166054349393,0.480939686298,0.480939686298,-0.651614129543,1.51024270058,2035,2034,2546,2037,2037,2920,3420,3421,3238,3364,3088,3050,3154,3145,3236,2848,3402,3411,3241,3363,3127,3350,3387,3193
1508406118754703476,104,1508406118754389238,plot_matl,0.0,0.0,1.40129846432e-45,4.59163467805e-41,-3.08033907423e-16,4.58154532911e-41,0.349065840244,0.30633226037,1.32991409302,-0.00350185041316,0.0145964669064,0.0145964669064,0.018490428105,0.00267130043358,-96.2604446411,-96.2604446411,-133.133178711,-0.81207293272,1480,1811,2229,1972,1972,2897,3347,3369,3211,3327,3064,2893,3026,2954,3116,2745,3325,3345,3176,3266,2912,3254,3329,3061,0.010040296,1.040002638,1.044190784,0.680678427219,4500.0,0.654048621655,0.00296602468006,-0.0266297664493,119.833946228,1.34390354156,6000.0,1.33000612259,0.0181151591241,-0.0138973584399,77.9629440308,0.349065840244,0.0192735753953,0.00835080351681,0.000857612583786,-0.0126819498837,-0.0126819498837,9.21073078644e-05,0.0069244671613,0.534335672855,0.534335672855,-0.791105628014,1.47331357002,2050,2042,2546,2040,2040,2920,3420,3421,3238,3364,3088,3050,3154,3145,3236,2848,3404,3411,3239,3365,3126,3350,3398,3209
1508406118764447717,105,1508406118764308006,plot_matl,0.0,0.0,1.40129846432e-45,4.59163467805e-41,-3.08033907423e-16,4.58154532911e-41,0.349065840244,0.30498278141,1.32995283604,-0.00348062021658,0.00103243510239,0.00103243510239,0.0180443376303,0.00218887068331,-96.3566970825,-96.3566970825,-133.067977905,-0.643069088459,1449,1756,2229,1972,1972,2889,3351,3373,3214,3335,3076,2899,3030,2955,3116,2745,3325,3345,3176,3266,2912,3254,3329,3061,0.009916531,1.049920122,1.041235755,0.680678427219,4500.0,0.654048621655,0.0022371544037,-0.0266297664493,119.833946228,1.34390354156,6000.0,1.32995188236,-0.0211443416774,-0.0139516089112,89.5597381592,0.349065840244,0.0216827709228,0.00835161563009,0.000854004174471,0.0117313889787,0.0117313889787,7.54729699111e-05,-0.017411319539,0.470674276352,0.470674276352,-0.805965781212,1.34263837337,2037,2037,2546,2040,2040,2925,3428,3429,3242,3367,3092,3052,3156,3146,3236,2848,3404,3411,3239,3365,3126,3350,3398,3209
1508406118774684316,106,1508406118774327046,plot_matl,0.0,0.0,1.40129846432e-45,4.59163467805e-41,-3.08033907423e-16,4.58154532911e-41,0.349065840244,0.30498278141,1.33002531528,-0.00347232515924,0.00110428151675,0.00110428151675,0.0168434530497,0.0019775996916,-96.4376373291,-96.4376373291,-132.954452515,-0.526467859745,1451,1762,2229,1972,1972,2889,3351,3373,3214,3335,3076,2899,3030,2955,3118,2742,3324,3348,3184,3268,2917,3255,3316,3048,0.010031158,1.059950468,1.063302748,0.680678427219,4500.0,0.654048621655,0.00183140905574,-0.0266297664493,119.833946228,1.34390354156,6000.0,1.32995069027,-0.0208328571171,-0.0139528438449,89.5779571533,0.349065840244,0.0216827709228,0.00835228338838,0.000898061902262,0.0109012629837,0.0109012629837,6.1788225139e-05,0.00621595606208,0.419683218002,0.419683218002,-0.906517982483,1.13633298874,2029,2026,2546,2040,2040,2925,3428,3429,3242,3367,3092,3052,3156,3146,3239,2851,3407,3415,3242,3364,3128,3353,3385,3194
1508406118784739049,107,1508406118784350999,plot_matl,0.0,0.0,1.40129846432e-45,4.59163467805e-41,-3.08033907423e-16,4.58154532911e-41,0.349065840244,0.30498278141,1.33000683784,-0.00347357732244,0.00185704033356,0.00185704033356,-0.0216607637703,0.00196931441315,-96.5083236694,-96.5083236694,-133.017379761,-0.392160773277,1453,1766,2216,1971,1971,2887,3349,3373,3213,3329,3065,2894,3030,2955,3118,2742,3324,3348,3184,3268,2917,3255,3316,3048,0.010013428,1.069964331,1.071436796,0.680678427219,4500.0,0.654048621655,0.00347299664281,-0.0266297664493,119.833946228,1.34390354156,6000.0,1.33005201817,0.0164338108152,-0.0138515196741,77.926574707,0.349065840244,0.0192735753953,0.00836635567248,0.000847423449159,-0.0127365309745,-0.0127365309745,-0.000221269307076,0.00726931123063,0.484221696854,0.484221696854,-0.841531693935,0.786287546158,2034,2039,2547,2037,2037,2921,3421,3423,3238,3363,3090,3050,3156,3146,3239,2851,3407,3415,3242,3364,3128,3353,3385,3194
1508406118794750513,108,1508406118794387385,plot_matl,0.0,0.0,1.40129846432e-45,4.59163467805e-41,-3.08033907423e-16,4.58154532911e-41,0.349065840244,0.30498278141,1.33007097244,-0.00349183776416,0.00250260671601,0.00250260671601,0.0163189955056,0.00230781780556,-96.416229248,-96.416229248,-133.051818848,-0.428169041872,1470,1796,2216,1971,1971,2887,3349,3373,3213,3329,3065,2894,3025,2954,3114,2743,3323,3349,3180,3265,2910,3254,3316,3048,0.010036306,1.080000963,1.083921048,0.680678427219,4500.0,0.654048621655,0.00431282212958,-0.0266297664493,119.833946228,1.34390354156,6000.0,1.33004045486,0.0168576445431,-0.013863013126,77.8473358154,0.349065840244,0.0216827709228,0.00836435239762,0.000868505856488,0.0112236849964,0.0112236849964,-0.00018118249136,0.00686568813398,0.565267384052,0.565267384052,-0.650874912739,0.864169239998,2042,2035,2547,2037,2037,2921,3421,3423,3238,3363,3090,3050,3154,3146,3238,2849,3403,3414,3241,3365,3127,3349,3385,3194
1508406118804794442,109,1508406118804355111,plot_matl,0.0,0.0,1.40129846432e-45,4.59163467805e-41,-3.08033907423e-16,4.58154532911e-41,0.349065840244,0.30498278141,1.33005094528,-0.0035059589427,0.00227569323033,0.00227569323033,0.0168820731342,0.00256708008237,-96.3407287598,-96.3407287598,-133.082672119,-0.463807076216,1449,1769,2221,1971,1971,2895,3346,3370,3209,3327,3065,2894,3025,2954,3114,2743,3323,3349,3180,3265,2910,3254,3315,3048,0.009967956,1.089968849,1.086507204,0.680678427219,4500.0,0.654048621655,0.00493104103953,-0.0266297664493,119.833946228,1.34390354156,6000.0,1.33005928993,0.0166611317545,-0.0138442134485,77.8106231689,0.349065840244,0.0192735753953,0.00839035678655,0.000811639183667,-0.0137803480029,-0.0137803480029,-0.000700858654454,-0.0164684318006,0.761994540691,0.761994540691,-0.605093240738,1.18629693985,2029,2030,2546,2035,2035,2919,3421,3423,3240,3361,3090,3050,3154,3146,3238,2849,3403,3414,3241,3365,3127,3349,3385,3191
1508406118814805471,110,1508406118814330073,plot_matl,0.0,0.0,1.40129846432e-45,4.59163467805e-41,-3.08033907423e-16,4.58154532911e-41,0.349065840244,0.30498278141,1.33006024361,-0.00350691890344,0.00236519845203,0.00236519845203,0.0167582090944,0.00258711213246,-96.2390823364,-96.2390823364,-133.208236694,-0.413816928864,1458,1784,2221,1971,1971,2895,3346,3370,3209,3327,3069,2894,3025,2952,3113,2743,3321,3347,3181,3268,2910,3254,3315,3048,0.009973649,1.099943215,1.09710139,0.680678427219,4500.0,0.654048621655,0.00453541614115,-0.0266297664493,119.833946228,1.34390354156,6000.0,1.33007323742,-0.0225872974843,-0.0138303106651,89.3086166382,0.349065840244,0.0216827709228,0.00838273111731,0.000821225345135,0.00994891300797,0.00994891300797,-0.000546149036381,0.00784045644104,0.616008639336,0.616008639336,-1.12092936039,1.28872823715,2031,2031,2546,2035,2035,2919,3421,3423,3240,3361,3088,3049,3153,3144,3237,2848,3404,3412,3241,3363,3127,3349,3385,3191
1508406118824659950,111,1508406118824330976,plot_matl,0.0,0.0,1.40129846432e-45,4.59163467805e-41,-3.08033907423e-16,4.58154532911e-41,0.349065840244,0.30498278141,1.33000266552,-0.00350296194665,0.0026850765571,0.0026850765571,-0.0210547968745,0.00248714652844,-96.3821029663,-96.3821029663,-133.284057617,-0.379859864712,1444,1766,2224,1969,1969,2879,3346,3372,3209,3327,3069,2894,3025,2952,3113,2743,3321,3347,3181,3268,2916,3253,3315,3046,0.009998514,1.109943142,1.109835054,0.680678427219,4500.0,0.652699172497,-0.022016460076,-0.027979247272,125.906616211,1.34390354156,6000.0,1.33004951477,0.0170440878719,-0.0138539671898,77.7409744263,0.349065840244,0.0192735753953,0.00837556552142,0.000825469207484,-0.0148283271119,-0.0148283271119,-0.0157498605549,-0.0167158786207,0.463468015194,0.463468015194,-0.911658883095,0.957708656788,2033,2034,2546,2037,2037,2920,3420,3424,3240,3361,3088,3049,3153,3144,3237,2848,3404,3412,3241,3363,3127,3351,3385,3190
1508406118834540247,112,1508406118834320571,plot_matl,0.0,0.0,1.40129846432e-45,4.59163467805e-41,-3.08033907423e-16,4.58154532911e-41,0.349065840244,0.30363330245,1.32992124557,-0.00349002890289,-0.0101640503854,-0.0101640503854,-0.0193064082414,0.00221841223538,-96.4131240845,-96.4131240845,-133.114364624,-0.349619299173,1440,1753,2224,1969,1969,2879,3346,3372,3217,3330,3069,2895,3028,2951,3114,2740,3324,3348,3181,3268,2916,3253,3315,3046,0.009991441,1.119933667,1.119041392,0.680678427219,4500.0,0.652699172497,-0.0214289873838,-0.027979247272,125.906616211,1.34390354156,6000.0,1.32999801636,0.0181633122265,-0.0139054628089,77.6361846924,0.349065840244,0.0216827709228,0.00837190728635,0.00082655105507,0.00952598638833,0.00952598638833,-0.000339324906236,-0.0167254079133,0.456067681313,0.456067681313,-1.42449748516,0.781623244286,2039,2035,2546,2037,2037,2920,3420,3424,3239,3361,3088,3049,3153,3145,3235,2849,3403,3412,3241,3363,3127,3351,3385,3190
1508406118844501594,113,1508406118844330676,plot_matl,0.0,0.0,1.40129846432e-45,4.59163467805e-41,-3.08033907423e-16,4.58154532911e-41,0.349065840244,0.30363330245,1.32981538773,-0.00349643058144,-0.0100554041564,-0.0100554041564,-0.0171288158745,0.00234190188348,-96.3782196045,-96.3782196045,-133.079238892,-0.201939761639,1421,1739,2213,1968,1968,2894,3346,3372,3217,3330,3069,2895,3028,2951,3114,2740,3324,3348,3181,3267,2911,3255,3313,3050,0.010010449,1.129944179,1.131180737,0.680678427219,4500.0,0.654048621655,0.00715697091073,-0.0266297664493,119.833946228,1.34390354156,6000.0,1.32988464832,-0.0185584146529,-0.0140189221129,89.8586273193,0.349065840244,0.0192735753953,0.00836888235062,0.00087707414059,-0.0152182439342,-0.0152182439342,-0.000277520535747,0.0312529504299,0.373475402594,0.373475402594,-1.27423501015,1.00024092197,2025,2032,2546,2037,2037,2919,3420,3424,3239,3361,3088,3049,3153,3145,3235,2849,3403,3412,3238,3366,3127,3350,3387,3191
1508406118854671173,114,1508406118854326486,plot_matl,0.0,0.0,1.40129846432e-45,4.59163467805e-41,-3.08033907423e-16,4.58154532911e-41,0.349065840244,0.30498278141,1.32984507084,-0.00349376071244,0.0041601927951,0.0041601927951,0.0213892962784,0.0022760857828,-96.3420715332,-96.3420715332,-133.214385986,-0.0921916738153,1434,1755,2213,1968,1968,2894,3347,3370,3210,3327,3063,2894,3025,2953,3115,2745,3324,3348,3181,3267,2911,3255,3313,3050,0.009995211,1.139939795,1.139454054,0.680678427219,4500.0,0.654048621655,0.00788325350732,-0.0266297664493,119.833946228,1.34390354156,6000.0,1.32979559898,0.0223753415048,-0.014107930474,78.3904190063,0.349065840244,0.0216827709228,0.00835368130356,0.000872287200764,0.00924071390182,0.00924071390182,4.52185049653e-05,0.00686492910609,0.376409858465,0.376409858465,-1.13352525234,1.12452840805,2028,2043,2546,2037,2037,2919,3423,3421,3240,3364,3088,3048,3152,3144,3235,2848,3403,3412,3238,3366,3127,3350,3387,3191
1508406118864523731,115,1508406118864332020,plot_matl,0.0,0.0,1.40129846432e-45,4.59163467805e-41,-3.08033907423e-16,4.58154532911e-41,0.349065840244,0.30498278141,1.32990193367,-0.00349196605384,0.00391618115827,0.00391618115827,-0.0187728777528,0.00222126371227,-96.3475189209,-96.3475189209,-133.152053833,-0.116035148501,1443,1770,2228,1969,1969,2894,3347,3370,3210,3327,3063,2894,3025,2953,3115,2745,3320,3346,3175,3268,2913,3252,3318,3049,0.010004022,1.149944791,1.15046253,0.680678427219,4500.0,0.654048621655,0.00792936235666,-0.0266297664493,119.833946228,1.34390354156,6000.0,1.3298573494,0.0211733411998,-0.0140461996198,77.8250045776,0.349065840244,0.0216827709228,0.00835397373885,0.000869068782777,0.00757174706087,0.00757174706087,3.70336165361e-05,-0.0175539124757,0.489284336567,0.489284336567,-0.8832244277,0.915759623051,2032,2034,2546,2038,2038,2919,3423,3421,3240,3364,3088,3048,3152,3144,3235,2848,3403,3411,3240,3363,3126,3350,3386,3193
1508406118874456979,116,1508406118874309485,plot_matl,0.0,0.0,1.40129846432e-45,4.59163467805e-41,-3.08033907423e-16,4.58154532911e-41,0.349065840244,0.30498278141,1.32987582684,-0.00348081509583,0.00396788399667,0.00396788399667,-0.0181949753314,0.0019877885934,-96.4295120239,-96.4295120239,-133.162231445,-0.202027946711,1433,1747,2228,1969,1969,2886,3346,3369,3212,3328,3073,2894,3026,2950,3115,2745,3320,3346,3175,3268,2913,3252,3318,3049,0.009977012,1.15992196,1.157333392,0.680678427219,4500.0,0.654048621655,0.00747578404844,-0.0266297664493,119.833946228,1.34390354156,6000.0,1.32986915112,-0.0180782768875,-0.0140343867242,89.5650863647,0.349065840244,0.0216827709228,0.00836783181876,0.00086806807667,0.00759354652837,0.00759354652837,-0.00024500125437,0.00695172930136,0.442438572645,0.442438572645,-0.578700304031,0.92178350687,2032,2041,2546,2038,2038,2920,3420,3421,3239,3362,3089,3048,3155,3143,3235,2848,3403,3411,3240,3363,3126,3350,3386,3193
1508406118884451745,117,1508406118884315963,plot_matl,0.0,0.0,1.40129846432e-45,4.59163467805e-41,-3.08033907423e-16,4.58154532911e-41,0.349065840244,0.30498278141,1.32982492447,-0.00347246415913,0.00471117440611,0.00471117440611,0.0219511054456,0.00181495503057,-96.3516311646,-96.3516311646,-133.162307739,-0.346713006496,1454,1771,2228,1969,1969,2886,3346,3369,3212,3328,3073,2894,3026,2950,3114,2740,3320,3345,3181,3267,2913,3253,3315,3046,0.010006207,1.169928669,1.170726219,0.680678427219,4500.0,0.654048621655,0.00908244587481,-0.0266297664493,119.833946228,1.34390354156,6000.0,1.32981359959,0.0221677049994,-0.0140899103135,77.8285903931,0.349065840244,0.0216827709228,0.00837835017592,0.000886570021976,0.00753112975508,0.00753112975508,-0.000459617062006,0.00658301915973,0.398312181234,0.398312181234,-0.461282491684,0.97996288538,2043,2041,2546,2038,2038,2920,3420,3421,3239,3362,3089,3048,3155,3143,3234,2848,3403,3409,3239,3362,3126,3350,3385,3191
1508406118894487080,118,1508406118894310670,plot_matl,0.0,0.0,1.40129846432e-45,4.59163467805e-41,-3.08033907423e-16,4.58154532911e-41,0.349065840244,0.30498278141,1.32978010178,-0.00348295969889,0.00432491442189,0.00432491442189,-0.0161910485476,0.00201645004563,-96.287979126,-96.287979126,-132.884719849,-0.136377111077,1434,1748,2215,1970,1970,2886,3347,3371,3212,3326,3064,2892,3026,2950,3114,2740,3320,3345,3181,3267,2913,3253,3315,3046,0.009994745,1.179923519,1.17937991,0.680678427219,4500.0,0.654048621655,0.00936778169125,-0.0266297664493,119.833946228,1.34390354156,6000.0,1.32980525494,0.0223598405719,-0.0140982149169,77.8411178589,0.349065840244,0.0192735753953,0.00837417785078,0.000880999548826,-0.01722529158,-0.01722529158,-0.000376415759092,0.00668320758268,0.252343654633,0.252343654633,-0.522334516048,0.814119160175,2028,2031,2546,2038,2038,2919,3421,3420,3238,3362,3088,3049,3155,3143,3234,2848,3403,3409,3239,3362,3126,3350,3385,3191
1508406118904447724,119,1508406118904311839,plot_matl,0.0,0.0,1.40129846432e-45,4.59163467805e-41,-3.08033907423e-16,4.58154532911e-41,0.349065840244,0.30498278141,1.32977414131,-0.00348295271397,0.0037809102796,0.0037809102796,-0.0160069596022,-0.00775276729837,-96.381187439,-96.381187439,-132.842407227,-0.144839182496,1437,1736,2215,1970,1970,2886,3347,3371,3212,3326,3064,2892,3024,2954,3113,2742,3324,3346,3181,3265,2910,3254,3315,3046,0.010000763,1.189924318,1.190090797,0.680678427219,4500.0,0.654048621655,0.00819505192339,-0.0266297664493,119.833946228,1.34390354156,6000.0,1.32979989052,-0.0165489818901,-0.0141036799178,89.4165344238,0.349065840244,0.0216827709228,0.00837074965239,0.000830677221529,0.00667656073347,0.00667656073347,-0.000308059796225,-0.0167912617326,0.312298387289,0.312298387289,-0.522532641888,0.935959994793,2033,2034,2546,2038,2038,2919,3421,3420,3238,3362,3088,3049,3153,3145,3237,2849,3403,3411,3240,3364,3129,3350,3385,3191
1508406118914831464,120,1508406118914343186,plot_matl,0.0,0.0,1.40129846432e-45,4.59163467805e-41,-3.08033907423e-16,4.58154532911e-41,0.349065840244,0.30363330245,1.32969725132,-0.00348152616061,-0.00991777610034,-0.00991777610034,-0.0145526835695,0.0020100241527,-96.3121871948,-96.3121871948,-132.9815979,-0.188967525959,2175,2622,2221,1970,1970,2894,3344,3368,3209,3325,3069,2892,3024,2954,3113,2742,3324,3346,3181,3265,2910,3254,3317,3050,0.010033394,1.199956894,1.20400728,0.680678427219,4500.0,0.654048621655,0.00751448934898,-0.0266297664493,119.833946228,1.34390354156,6000.0,1.32971966267,-0.0149533776566,-0.0141838686541,93.8861312866,0.349065840244,0.0216827709228,0.00836795289069,0.000857222999912,0.00650705303997,0.00650705303997,-0.000252298690611,-0.0172703098506,0.18021517992,0.18021517992,-1.48300886154,0.952221393585,2031,2012,2546,2038,2038,2920,3422,3422,3238,3361,3089,3049,3153,3145,3237,2849,3403,3411,3240,3364,3129,3350,3388,3193
1508406118924695218,121,1508406118924325550,plot_matl,0.0,0.0,1.40129846432e-45,4.59163467805e-41,-3.08033907423e-16,4.58154532911e-41,0.349065840244,0.30498278141,1.32974267006,-0.00347233144566,0.00327290431596,0.00327290431596,0.0236396249384,0.00182884116657,-96.255241394,-96.255241394,-132.878173828,-0.304385095835,2199,2635,2221,1970,1970,2894,3344,3368,3209,3325,3069,2894,3025,2949,3113,2743,3321,3345,3179,3268,2917,3254,3317,3050,0.009981102,1.209938828,1.207713342,0.680678427219,4500.0,0.654048621655,0.007092572283,-0.0266297664493,119.833946228,1.34390354156,6000.0,1.32972860336,0.023958787322,-0.0141749642789,77.6842422485,0.349065840244,0.0192735753953,0.00837906263769,0.000855192891322,-0.0171887129545,-0.0171887129545,-0.000497631088365,0.00725054554641,0.260259538889,0.260259538889,-1.35862481594,1.06784188747,2023,2009,2546,2038,2038,2920,3422,3422,3238,3361,3089,3050,3154,3144,3235,2848,3402,3411,3240,3363,3126,3350,3388,3193
1508406118934714538,122,1508406118934367138,plot_matl,0.0,0.0,1.40129846432e-45,4.59163467805e-41,-3.08033907423e-16,4.58154532911e-41,0.349065840244,0.30363330245,1.32978010178,-0.00349045544863,-0.0099536087364,-0.0099536087364,-0.016169147566,0.00220563681796,-96.2090148926,-96.2090148926,-132.620925903,-0.292737990618,2082,2554,2225,1970,1970,2879,3343,3370,3217,3325,3069,2894,3025,2949,3113,2743,3321,3345,3179,3268,2917,3252,3314,3047,0.010040874,1.219980014,1.224986628,0.680678427219,4500.0,0.654048621655,0.00680575752631,-0.0266297664493,119.833946228,1.34390354156,6000.0,1.32972669601,-0.0150820035487,-0.0141768604517,89.9267578125,0.349065840244,0.0216827709228,0.00837475806475,0.000858610146679,0.00628969119862,0.00628969119862,-0.000407499785069,0.00720221083611,0.39424186945,0.39424186945,-1.03483915329,0.909851253033,2020,2006,2546,2040,2040,2920,3422,3424,3238,3361,3089,3050,3154,3144,3235,2848,3402,3411,3240,3363,3126,3349,3386,3191
1508406118944544785,123,1508406118944336698,plot_matl,0.0,0.0,1.40129846432e-45,4.59163467805e-41,-3.08033907423e-16,4.58154532911e-41,0.349065840244,0.30498278141,1.32977843285,-0.00348790059797,0.00424535712227,0.00424535712227,-0.0160741433501,0.00214655231684,-96.1962509155,-96.1962509155,-132.459655762,-0.249951422215,2122,2583,2225,1970,1970,2879,3343,3370,3217,3329,3067,2894,3026,2953,3113,2739,3324,3349,3182,3268,2917,3252,3314,3047,0.009969161,1.229949534,1.226206803,0.680678427219,4500.0,0.652699172497,-0.0192063581198,-0.027979247272,125.906616211,1.34390354156,6000.0,1.3297649622,-0.0158263538033,-0.0141385374591,89.3588867188,0.349065840244,0.0216827709228,0.00837121531367,0.000845783797558,0.00554458471015,0.00554458471015,-0.000333298754413,-0.017021490261,0.436745971441,0.436745971441,-1.02849531174,0.927955806255,2015,2008,2546,2040,2040,2920,3422,3424,3238,3363,3088,3049,3153,3145,3235,2849,3403,3409,3239,3363,3126,3349,3386,3191
1508406118954630238,124,1508406118954317278,plot_matl,0.0,0.0,1.40129846432e-45,4.59163467805e-41,-3.08033907423e-16,4.58154532911e-41,0.349065840244,0.30363330245,1.32991683483,-0.00351477880031,-0.00914472620934,-0.00914472620934,0.0202026087791,-0.00709242559969,-96.2267074585,-96.2267074585,-132.564041138,-0.278115361929,2215,2647,2214,1971,1971,2892,3347,3370,3217,3329,3067,2894,3026,2953,3113,2739,3324,3349,3182,3263,2911,3253,3314,3047,0.009980816,1.239930394,1.237621184,0.680678427219,4500.0,0.654048621655,0.00858214683831,-0.0266297664493,119.833946228,1.34390354156,6000.0,1.3298330307,0.0218883324414,-0.0140705406666,77.6820449829,0.349065840244,0.0192735753953,0.00834341626614,0.000755397428293,-0.0184495411813,-0.0184495411813,0.000245891103987,-0.0152286738157,0.417278468609,0.417278468609,-0.957391858101,0.693045020103,2029,2017,2546,2041,2041,2920,3422,3424,3238,3363,3088,3049,3153,3145,3235,2849,3403,3409,3239,3362,3127,3349,3385,3192
1508406118964516078,125,1508406118964343394,plot_matl,0.0,0.0,1.40129846432e-45,4.59163467805e-41,-3.08033907423e-16,4.58154532911e-41,0.349065840244,0.30363330245,1.33009886742,-0.00351733691059,-0.00844075903296,-0.00844075903296,0.0165385287255,0.00272471248172,-96.2253112793,-96.2253112793,-132.486953735,-0.334046185017,2150,2598,2214,1971,1971,2892,3347,3370,3209,3326,3065,2893,3024,2953,3115,2743,3321,3349,3182,3263,2911,3253,3314,3047,0.010024995,1.249956281,1.253124375,0.680678427219,4500.0,0.654048621655,0.00897196214646,-0.0266297664493,119.833946228,1.34390354156,6000.0,1.33003032207,0.0179185178131,-0.0138732064515,77.7323684692,0.349065840244,0.0216827709228,0.00834557134658,0.000795540341642,0.00523654790595,0.00523654790595,0.000201294649742,0.00846225488931,0.381354779005,0.381354779005,-0.910843849182,0.931824445724,2025,2012,2546,2041,2041,2920,3422,3420,3238,3362,3088,3049,3153,3145,3236,2849,3403,3409,3239,3362,3127,3349,3385,3192
1508406118974767701,126,1508406118974385245,plot_matl,0.0,0.0,1.40129846432e-45,4.59163467805e-41,-3.08033907423e-16,4.58154532911e-41,0.349065840244,0.30363330245,1.33014023304,-0.00350294914097,-0.00787560548633,-0.00787560548633,0.0157283637673,0.00242561474442,-96.3081893921,-96.3081893921,-132.467453003,-0.353526860476,2150,2598,2214,1971,1971,2892,3347,3370,3209,3326,3065,2893,3024,2953,3115,2743,3321,3349,3182,3263,2911,3253,3314,3047,0.010043893,1.259998968,1.265530518,0.680678427219,4500.0,0.654048621655,0.0101986099035,-0.0266297664493,119.833946228,1.34390354156,6000.0,1.33015465736,0.0154286567122,-0.0137489149347,77.7405166626,0.349065840244,0.0192735753953,0.00834733620286,0.00079447432654,-0.0195661988109,-0.0195661988109,0.00016477315512,0.00846539624035,0.318373680115,0.318373680115,-0.852524936199,1.02637779713,2025,2012,2546,2041,2041,2920,3422,3420,3238,3362,3088,3049,3153,3145,3236,2849,3403,3409,3239,3362,3127,3349,3385,3192
1508406118984461676,127,1508406118984318937,plot_matl,0.0,0.0,1.40129846432e-45,4.59163467805e-41,-3.08033907423e-16,4.58154532911e-41,0.349065840244,0.30363330245,1.33000552654,-0.00348160997964,-0.00801616255194,-0.00801616255194,-0.0206209346652,0.00198938511312,-96.2915344238,-96.2915344238,-132.682846069,-0.371912330389,2469,2204,2229,1971,1971,2892,3347,3370,3209,3326,3065,2893,3024,2953,3115,2743,3321,3344,3175,3265,2913,3252,3314,3048,0.00993105,1.269931485,1.26124335,0.680678427219,4500.0,0.654048621655,0.0105802975595,-0.0266297664493,119.833946228,1.34390354156,6000.0,1.33004724979,0.0176247078925,-0.0138562899083,77.8744812012,0.349065840244,0.0216827709228,0.00833366904408,0.000793171464466,0.00527188042179,0.00527188042179,0.000433438632172,0.00824702903628,0.460347831249,0.460347831249,-0.613027870655,1.31506288052,2006,2009,2546,2038,2038,2920,3422,3420,3238,3362,3088,3049,3153,3145,3236,2849,3403,3409,3240,3362,3128,3350,3384,3191
1508406118994674123,128,1508406118994327567,plot_matl,0.0,0.0,1.40129846432e-45,4.59163467805e-41,-3.08033907423e-16,4.58154532911e-41,0.349065840244,0.30498278141,1.32999229431,-0.00347293331288,0.00558540318161,0.00558540318161,-0.0203758627176,0.00181487191003,-96.3854827881,-96.3854827881,-132.743515015,-0.303052514791,2260,1952,2229,1971,1971,2889,3351,3375,3217,3329,3066,2895,3027,2956,3117,2743,3321,3344,3175,3265,2913,3252,3314,3048,0.010010615,1.279941175,1.28135872,0.680678427219,4500.0,0.651349663734,-0.0429051890969,-0.0293287280947,131.979278564,1.34390354156,6000.0,1.33003401756,0.0178702995181,-0.0138695500791,77.9712295532,0.349065840244,0.0216827709228,0.00833759270608,0.00073751976015,0.00557971093804,0.00557971093804,0.00035482054227,0.00940702483058,0.535265386105,0.535265386105,-0.589848518372,1.58056819439,2003,2023,2546,2038,2038,2925,3426,3426,3241,3366,3091,3052,3155,3147,3238,2849,3403,3409,3240,3362,3128,3350,3384,3191
1508406119004627741,129,1508406119004323622,plot_matl,0.0,0.0,1.40129846432e-45,4.59163467805e-41,-3.08033907423e-16,4.58154532911e-41,0.349065840244,0.30363330245,1.33001899719,-0.00346520473249,-0.00728333042935,-0.00728333042935,-0.0209081489593,0.00165178673342,-96.4956970215,-96.4956970215,-132.759140015,-0.284163475037,2286,1979,2219,1971,1971,2889,3351,3375,3217,3329,3066,2895,3027,2956,3117,2743,3325,3348,3180,3265,2911,3257,3316,3049,0.009995173,1.289936825,1.289377317,0.680678427219,4500.0,0.652699172497,-0.0151711460203,-0.027979247272,125.906616211,1.34390354156,6000.0,1.33002150059,0.018118204549,-0.0138819925487,77.8410568237,0.349065840244,0.0216827709228,0.00835331808776,0.000823597540148,0.00712601654232,0.00712601654232,3.41580016539e-05,0.00770057318732,0.618698596954,0.618698596954,-0.528560996056,2.00319576263,2009,2032,2547,2038,2038,2925,3426,3426,3241,3366,3091,3052,3155,3147,3238,2850,3403,3415,3241,3364,3127,3350,3388,3191
1508406119014856254,130,1508406119014383367,plot_matl,0.0,0.0,1.40129846432e-45,4.59163467805e-41,-3.08033907423e-16,4.58154532911e-41,0.349065840244,0.30498278141,1.33000850677,-0.00346968416125,0.00619465578347,0.00619465578347,-0.0206906702369,-0.00804481189698,-96.4055633545,-96.4055633545,-132.441833496,-0.297790169716,2236,1905,2219,1967,1967,2895,3346,3367,3208,3326,3072,2894,3025,2956,3117,2743,3325,3348,3180,3265,2911,3257,3316,3049,0.01005942,1.299996839,1.3077246,0.680678427219,4500.0,0.652699172497,-0.0149028440937,-0.027979247272,125.906616211,1.34390354156,6000.0,1.33001327515,0.0183125399053,-0.0138902040198,77.8233413696,0.349065840244,0.0216827709228,0.00836713518947,0.00078097829828,0.00675545819104,0.00675545819104,-0.000239816872636,-0.0159407462925,0.615239620209,0.615239620209,-1.0385863781,1.89561843872,2012,2028,2547,2043,2043,2921,3421,3421,3238,3363,3089,3051,3155,3147,3238,2850,3403,3415,3241,3364,3127,3350,3388,3191
1508406119024829317,131,1508406119024338649,plot_matl,0.0,0.0,1.40129846432e-45,4.59163467805e-41,-3.08033907423e-16,4.58154532911e-41,0.349065840244,0.30498278141,1.33003842831,-0.00345418346114,0.00602651108056,0.00602651108056,0.0178108718246,0.00140749791171,-96.4047775269,-96.4047775269,-132.319534302,-0.206238254905,2223,1892,2219,1967,1967,2895,3346,3367,3208,3326,3072,2894,3025,2951,3114,2744,3321,3345,3179,3268,2916,3255,3314,3049,0.009955603,1.309952518,1.304183993,0.680678427219,4500.0,0.654048621655,0.0119940163568,-0.0266297664493,119.833946228,1.34390354156,6000.0,1.33000218868,-0.0205133184791,-0.0139013854787,89.2768249512,0.349065840244,0.0216827709228,0.00839236471802,0.000816686020698,0.00766016030684,0.00766016030684,-0.000757626723498,0.00784322898835,0.609411358833,0.609411358833,-1.03158175945,1.75270247459,1998,2017,2547,2043,2043,2921,3421,3421,3238,3363,3089,3051,3155,3145,3235,2849,3402,3412,3239,3363,3126,3349,3388,3191
1508406119034728982,132,1508406119034348987,plot_matl,0.0,0.0,1.40129846432e-45,4.59163467805e-41,-3.08033907423e-16,4.58154532911e-41,0.349065840244,0.30363330245,1.3299933672,-0.00345131219365,-0.00748720904812,-0.00748720904812,0.0187370833009,0.00134333269671,-96.4758834839,-96.4758834839,-132.300308228,-0.319275259972,2235,1911,2225,1967,1967,2881,3346,3370,3214,3327,3070,2894,3025,2951,3114,2744,3321,3345,3179,3268,2916,3255,3314,3047,0.010009724,1.319962308,1.321283568,0.680678427219,4500.0,0.655398130417,0.0389572046697,-0.025280283764,113.761283875,1.34390354156,6000.0,1.3299959898,0.0187121555209,-0.0139075508341,77.8111724854,0.349065840244,0.0192735753953,0.00839994382113,0.000758147449233,-0.0179683025926,-0.0179683025926,-0.000898154568858,0.00906654540449,0.537839770317,0.537839770317,-0.61975479126,1.89419341087,2001,2019,2546,2037,2037,2921,3421,3422,3239,3361,3088,3051,3155,3145,3235,2849,3402,3412,3239,3363,3126,3349,3388,3193
1508406119044439625,133,1508406119044310150,plot_matl,0.0,0.0,1.40129846432e-45,4.59163467805e-41,-3.08033907423e-16,4.58154532911e-41,0.349065840244,0.30498278141,1.32998728752,-0.0034488234669,0.00580337410793,0.00580337410793,-0.0201975107193,0.00128231476992,-96.3893585205,-96.3893585205,-132.470550537,-0.366623342037,2286,1965,2225,1967,1967,2881,3346,3370,3214,3327,3070,2895,3027,2951,3113,2739,3322,3348,3183,3267,2910,3255,3314,3047,0.009958269,1.329922254,1.324449777,0.680678427219,4500.0,0.654048621655,0.0115319350734,-0.0266297664493,119.833946228,1.34390354156,6000.0,1.33002710342,-0.0209999848157,-0.0138764372095,89.4245681763,0.349065840244,0.0192735753953,0.00837886147201,0.000773985229898,-0.0173756759614,-0.0173756759614,-0.000470571394544,0.00876204203814,0.479326307774,0.479326307774,-0.995099782944,1.81551980972,2010,2034,2546,2037,2037,2921,3421,3422,3239,3361,3088,3051,3154,3144,3235,2850,3403,3410,3239,3364,3127,3349,3388,3193
1508406119054724476,134,1508406119054329144,plot_matl,0.0,0.0,1.40129846432e-45,4.59163467805e-41,-3.08033907423e-16,4.58154532911e-41,0.349065840244,0.30498278141,1.32998728752,-0.0034488234669,0.00580337410793,0.00580337410793,-0.0201975107193,0.00128231476992,-96.3893585205,-96.3893585205,-132.470550537,-0.366623342037,2297,1973,2214,1964,1964,2893,3346,3371,3210,3327,3070,2895,3027,2951,3113,2739,3322,3348,3183,3267,2910,3254,3316,3046,0.010021544,1.339942607,1.342886896,0.680678427219,4500.0,0.654048621655,0.0115319350734,-0.0266297664493,119.833946228,1.34390354156,6000.0,1.33002710342,-0.0209999848157,-0.0138764372095,89.4245681763,0.349065840244,0.0192735753953,0.00837886147201,0.000773985229898,-0.0173756759614,-0.0173756759614,-0.000470571394544,0.00876204203814,0.479326307774,0.479326307774,-0.995099782944,1.81551980972,2007,2028,2546,2038,2038,2919,3421,3422,3238,3361,3088,3051,3154,3144,3235,2850,3403,3410,3239,3364,3127,3349,3387,3193
1508406119064690958,135,1508406119064353514,plot_matl,0.0,0.0,1.40129846432e-45,4.59163467805e-41,-3.08033907423e-16,4.58154532911e-41,0.349065840244,0.30363330245,1.32991206646,-0.00345539371483,-0.00688025448471,-0.00688025448471,-0.0186692774296,0.00141463568434,-96.3930587769,-96.3930587769,-132.595077515,-0.413326472044,2255,1926,2214,1964,1964,2893,3346,3371,3210,3327,3064,2893,3023,2953,3117,2745,3322,3346,3176,3267,2910,3254,3316,3046,0.010024154,1.349967146,1.35326079,0.680678427219,4500.0,0.654048621655,0.0129320537671,-0.0266297664493,119.833946228,1.34390354156,6000.0,1.32999694347,0.0186954978853,-0.013906612061,77.8341903687,0.349065840244,0.0192735753953,0.00836135167629,0.000689005479217,-0.017288448289,-0.017288448289,-0.000114729184133,-0.0139784077182,0.355545252562,0.355545252562,-1.429921031,1.63660871983,2003,2019,2546,2038,2038,2919,3421,3422,3238,3363,3089,3049,3152,3146,3238,2850,3403,3411,3240,3364,3127,3349,3387,3193
1508406119074570810,136,1508406119074327889,plot_matl,0.0,0.0,1.40129846432e-45,4.59163467805e-41,-3.08033907423e-16,4.58154532911e-41,0.349065840244,0.30363330245,1.33008372784,-0.00345316692255,-0.00733236130327,-0.00733236130327,-0.0221352279186,0.00137799652293,-96.3182601929,-96.3182601929,-132.662597656,-0.416476935148,2268,1949,2229,1966,1966,2886,3345,3371,3210,3327,3064,2893,3023,2953,3117,2745,3322,3346,3176,3265,2912,3252,3314,3048,0.009973545,1.359941281,1.35640212,0.680678427219,4500.0,0.654048621655,0.0125481272116,-0.0266297664493,119.833946228,1.34390354156,6000.0,1.33012831211,0.0160420387983,-0.0137751586735,77.7930908203,0.349065840244,0.0192735753953,0.00835936237127,0.000620320613962,-0.0163583792746,-0.0163583792746,-7.70209007896e-05,-0.0125797037035,0.39064887166,0.39064887166,-2.25262522697,1.56214356422,2001,2028,2546,2039,2039,2921,3422,3422,3238,3363,3089,3049,3152,3146,3238,2850,3403,3411,3240,3361,3127,3351,3386,3192
1508406119084804445,137,1508406119084401278,plot_matl,0.0,0.0,1.40129846432e-45,4.59163467805e-41,-3.08033907423e-16,4.58154532911e-41,0.349065840244,0.30363330245,1.33008372784,-0.00345316692255,-0.00733236130327,-0.00733236130327,-0.0221352279186,0.00137799652293,-96.3182601929,-96.3182601929,-132.662597656,-0.416476935148,2283,1961,2229,1966,1966,2886,3345,3369,3211,3327,3071,2894,3025,2952,3113,2743,3321,3346,3176,3265,2912,3252,3314,3048,0.01007335,1.370014403,1.38004895,0.680678427219,4500.0,0.654048621655,0.0125481272116,-0.0266297664493,119.833946228,1.34390354156,6000.0,1.33006262779,-0.0217185541987,-0.013840874657,89.6056442261,0.349065840244,0.0192735753953,0.00835936237127,0.000620320613962,-0.0163583792746,-0.0163583792746,-7.70209007896e-05,-0.0125797037035,0.39064887166,0.39064887166,-2.25262522697,1.56214356422,2018,2028,2546,2039,2039,2921,3422,3422,3240,3361,3088,3049,3154,3145,3234,2849,3402,3411,3240,3361,3127,3351,3386,3192
1508406119094735972,138,1508406119094326664,plot_matl,0.0,0.0,1.40129846432e-45,4.59163467805e-41,-3.08033907423e-16,4.58154532911e-41,0.349065840244,0.30363330245,1.33008372784,-0.00345316692255,-0.00733236130327,-0.00733236130327,-0.0221352279186,0.00137799652293,-96.3182601929,-96.3182601929,-132.662597656,-0.416476935148,2259,1949,2216,1970,1970,2886,3345,3369,3211,3327,3071,2894,3025,2952,3113,2743,3321,3348,3180,3267,2914,3254,3316,3046,0.009925992,1.379940547,1.369786896,0.680678427219,4500.0,0.654048621655,0.0104813743383,-0.0266297664493,119.833946228,1.34390354156,6000.0,1.33004760742,0.0176867563277,-0.0138559173793,77.8426208496,0.349065840244,0.0192735753953,0.00835936237127,0.000620320613962,-0.0163583792746,-0.0163583792746,-7.70209007896e-05,-0.0125797037035,0.39064887166,0.39064887166,-2.25262522697,1.56214356422,2007,2028,2546,2041,2041,2921,3422,3422,3240,3361,3088,3049,3154,3145,3234,2849,3402,3411,3238,3362,3127,3349,3386,3192
1508406119104632699,139,1508406119104325593,plot_matl,0.0,0.0,1.40129846432e-45,4.59163467805e-41,-3.08033907423e-16,4.58154532911e-41,0.349065840244,0.30363330245,1.33008372784,-0.00345316692255,-0.00733236130327,-0.00733236130327,-0.0221352279186,0.00137799652293,-96.3182601929,-96.3182601929,-132.662597656,-0.416476935148,2250,1933,2216,1970,1970,2885,3348,3370,3213,3327,3063,2894,3027,2952,3115,2743,3321,3348,3180,3267,2914,3254,3316,3046,0.009996952,1.38993872,1.389576328,0.680678427219,4500.0,0.652699172497,-0.0162285491824,-0.027979247272,125.906616211,1.34390354156,6000.0,1.33002507687,-0.0210117530078,-0.013878471218,90.117805481,0.349065840244,0.0192735753953,0.00835936237127,0.000620320613962,-0.0163583792746,-0.0163583792746,-7.70209007896e-05,-0.0125797037035,0.39064887166,0.39064887166,-2.25262522697,1.56214356422,2008,2019,2546,2041,2041,2919,3422,3423,3239,3361,3088,3051,3154,3145,3234,2849,3402,3411,3238,3362,3127,3349,3386,3192
1508406119114792212,140,1508406119114391998,plot_matl,0.0,0.0,1.40129846432e-45,4.59163467805e-41,-3.08033907423e-16,4.58154532911e-41,0.349065840244,0.30363330245,1.33005917072,-0.00349632278085,-0.00806207768619,-0.00806207768619,0.017348498106,0.00223504798487,-96.3740310669,-96.3740310669,-132.5652771,-0.0598246231675,2266,1958,2220,1970,1970,2885,3348,3370,3213,3327,3063,2894,3027,2952,3115,2742,3323,3347,3179,3265,2910,3255,3316,3049,0.010065864,1.40000507,1.40922096,0.680678427219,4500.0,0.652699172497,-0.0156955625862,-0.027979247272,125.906616211,1.34390354156,6000.0,1.33011710644,0.0161798521876,-0.0137864714488,77.5062866211,0.349065840244,0.0216827709228,0.00836962275207,0.000646716915071,0.00691748270765,0.00691748270765,-0.000285580317723,-0.0130877047777,0.310744345188,0.310744345188,-1.91629946232,1.48700475693,2011,2028,2546,2041,2041,2919,3422,3423,3239,3361,3088,3051,3154,3145,3234,2848,3402,3411,3241,3365,3127,3349,3386,3193
1508406119124828413,141,1508406119124375441,plot_matl,0.0,0.0,1.40129846432e-45,4.59163467805e-41,-3.08033907423e-16,4.58154532911e-41,0.349065840244,0.30363330245,1.33005917072,-0.00349632278085,-0.00806207768619,-0.00806207768619,0.017348498106,0.00223504798487,-96.3740310669,-96.3740310669,-132.5652771,-0.0598246231675,2280,1968,2220,1970,1970,2895,3344,3366,3208,3327,3069,2893,3026,2952,3115,2742,3323,3347,3179,3265,2910,3255,3316,3049,0.009983918,1.409989099,1.407732438,0.680678427219,4500.0,0.654048621655,0.0118603613228,-0.0266297664493,119.833946228,1.34390354156,6000.0,1.33016479015,0.01523800008,-0.0137387895957,77.4685440063,0.349065840244,0.0216827709228,0.00836962275207,0.000646716915071,0.00691748270765,0.00691748270765,-0.000285580317723,-0.0130877047777,0.310744345188,0.310744345188,-1.91629946232,1.48700475693,2020,2020,2546,2038,2038,2920,3421,3422,3239,3362,3090,3050,3153,3145,3234,2848,3402,3411,3241,3365,3127,3349,3386,3193
1508406119134831029,142,1508406119134366580,plot_matl,0.0,0.0,1.40129846432e-45,4.59163467805e-41,-3.08033907423e-16,4.58154532911e-41,0.349065840244,0.30363330245,1.33005917072,-0.00349632278085,-0.00806207768619,-0.00806207768619,0.017348498106,0.00223504798487,-96.3740310669,-96.3740310669,-132.5652771,-0.0598246231675,2248,1931,2220,1970,1970,2895,3344,3366,3208,3327,3069,2893,3026,2951,3115,2744,3319,3346,3180,3268,2916,3252,3316,3049,0.009991174,1.419979982,1.418746708,0.680678427219,4500.0,0.652699172497,-0.0160092879087,-0.027979247272,125.906616211,1.34390354156,6000.0,1.33017003536,0.0152013814077,-0.0137334512547,77.854347229,0.349065840244,0.0216827709228,0.00836962275207,0.000646716915071,0.00691748270765,0.00691748270765,-0.000285580317723,-0.0130877047777,0.310744345188,0.310744345188,-1.91629946232,1.48700475693,2005,2022,2546,2038,2038,2920,3421,3422,3239,3362,3090,3050,3153,3144,3237,2848,3403,3411,3237,3363,3128,3349,3388,3193
1508406119144483880,143,1508406119144320632,plot_matl,0.0,0.0,1.40129846432e-45,4.59163467805e-41,-3.08033907423e-16,4.58154532911e-41,0.349065840244,0.30363330245,1.33005917072,-0.00349632278085,-0.00806207768619,-0.00806207768619,0.017348498106,0.00223504798487,-96.3740310669,-96.3740310669,-132.5652771,-0.0598246231675,2231,1904,2225,1966,1966,2880,3346,3370,3213,3330,3069,2893,3026,2951,3115,2744,3319,3346,3180,3268,2916,3252,3316,3046,0.009951957,1.429933242,1.423129851,0.680678427219,4500.0,0.652699172497,-0.0160522926599,-0.027979247272,125.906616211,1.34390354156,6000.0,1.33005797863,0.0173971615732,-0.0138455349952,77.7210388184,0.349065840244,0.0216827709228,0.00836962275207,0.000646716915071,0.00691748270765,0.00691748270765,-0.000285580317723,-0.0130877047777,0.310744345188,0.310744345188,-1.91629946232,1.48700475693,2012,2030,2546,2041,2041,2920,3421,3421,3237,3362,3088,3050,3153,3144,3237,2848,3403,3411,3237,3363,3128,3349,3388,3191
1508406119154654796,144,1508406119154319100,plot_matl,0.0,0.0,1.40129846432e-45,4.59163467805e-41,-3.08033907423e-16,4.58154532911e-41,0.349065840244,0.30498278141,1.33005261421,-0.00349613232538,0.00564075214788,0.00564075214788,-0.021571919322,0.00220253574662,-96.3480377197,-96.3480377197,-132.562866211,-0.0909397602081,2268,1948,2225,1966,1966,2880,3346,3370,3213,3330,3069,2893,3024,2952,3113,2739,3322,3349,3181,3266,2909,3252,3316,3046,0.009999272,1.439932328,1.439895168,0.680678427219,4500.0,0.654048621655,0.0116669200361,-0.0266297664493,119.833946228,1.34390354156,6000.0,1.33005797863,0.0173971615732,-0.0138455349952,77.7210388184,0.349065840244,0.0240919683129,0.00837730243802,0.000630622031167,0.0295525193214,0.0295525193214,-0.000446318212198,0.0116754183546,0.577923536301,0.577923536301,-0.960950911045,1.3162072897,2008,2027,2546,2041,2041,2920,3421,3421,3237,3362,3088,3049,3154,3145,3236,2848,3402,3411,3238,3363,3127,3349,3388,3191
1508406119164508126,145,1508406119164318224,plot_matl,0.0,0.0,1.40129846432e-45,4.59163467805e-41,-3.08033907423e-16,4.58154532911e-41,0.349065840244,0.30498278141,1.33005261421,-0.00349613232538,0.00564075214788,0.00564075214788,-0.021571919322,0.00220253574662,-96.3480377197,-96.3480377197,-132.562866211,-0.0909397602081,2279,1955,2214,1970,1970,2894,3348,3369,3210,3330,3069,2893,3024,2952,3113,2739,3322,3349,3181,3266,2909,3256,3314,3047,0.009997979,1.449931158,1.449706955,0.680678427219,4500.0,0.652699172497,-0.0156866759062,-0.027979247272,125.906616211,1.34390354156,6000.0,1.3300589323,-0.0217017363757,-0.0138446008787,90.0062255859,0.349065840244,0.0240919683129,0.00837730243802,0.000630622031167,0.0295525193214,0.0295525193214,-0.000446318212198,0.0116754183546,0.577923536301,0.577923536301,-0.960950911045,1.3162072897,2010,2027,2546,2035,2035,2920,3422,3424,3237,3362,3088,3049,3154,3145,3236,2848,3402,3411,3238,3363,3127,3349,3386,3192
1508406119174930063,146,1508406119174399781,plot_matl,0.0,0.0,1.40129846432e-45,4.59163467805e-41,-3.08033907423e-16,4.58154532911e-41,0.349065840244,0.30498278141,1.33005261421,-0.00349613232538,0.00564075214788,0.00564075214788,-0.021571919322,0.00220253574662,-96.3480377197,-96.3480377197,-132.562866211,-0.0909397602081,2273,1953,2214,1970,1970,2894,3348,3369,3210,3324,3065,2894,3025,2954,3116,2743,3322,3343,3178,3266,2909,3256,3314,3047,0.010083773,1.460013414,1.472230858,0.680678427219,4500.0,0.652699172497,-0.0148256719112,-0.027979247272,125.906616211,1.34390354156,6000.0,1.33011054993,0.016329890117,-0.0137929208577,77.8452148438,0.349065840244,0.0240919683129,0.00837730243802,0.000630622031167,0.0295525193214,0.0295525193214,-0.000446318212198,0.0116754183546,0.577923536301,0.577923536301,-0.960950911045,1.3162072897,2009,2019,2546,2035,2035,2920,3422,3424,3237,3362,3088,3049,3154,3143,3236,2849,3402,3411,3239,3363,3127,3349,3386,3192
1508406119184645267,147,1508406119184384846,plot_matl,0.0,0.0,1.40129846432e-45,4.59163467805e-41,-3.08033907423e-16,4.58154532911e-41,0.349065840244,0.30498278141,1.33005261421,-0.00349613232538,0.00564075214788,0.00564075214788,-0.021571919322,0.00220253574662,-96.3480377197,-96.3480377197,-132.562866211,-0.0909397602081,2266,1935,2228,1967,1967,2885,3344,3369,3210,3324,3065,2894,3025,2954,3116,2743,3322,3343,3178,3267,2912,3253,3313,3049,0.009983456,1.469998399,1.467568032,0.680678427219,4500.0,0.655398130417,0.0397935286164,-0.025280283764,113.761283875,1.34390354156,6000.0,1.33018577099,0.0148089053109,-0.0137176979333,77.841255188,0.349065840244,0.0240919683129,0.00837730243802,0.000630622031167,0.0295525193214,0.0295525193214,-0.000446318212198,0.0116754183546,0.577923536301,0.577923536301,-0.960950911045,1.3162072897,2013,2027,2546,2037,2037,2919,3423,3424,3237,3362,3088,3049,3154,3143,3236,2849,3402,3411,3239,3363,3128,3351,3385,3191
1508406119194658029,148,1508406119194345912,plot_matl,0.0,0.0,1.40129846432e-45,4.59163467805e-41,-3.08033907423e-16,4.58154532911e-41,0.349065840244,0.30363330245,1.33013880253,-0.00350176496431,-0.00734167685732,-0.00734167685732,-0.0233207605779,-0.00742497947067,-96.4586181641,-96.4586181641,-132.850967407,-0.203240051866,2268,1935,2228,1967,1967,2885,3344,3368,3209,3328,3071,2894,3025,2951,3113,2741,3320,3343,3178,3267,2912,3253,3313,3049,0.009959312,1.479958647,1.473978176,0.680678427219,4500.0,0.652699172497,-0.0150189548731,-0.027979247272,125.906616211,1.34390354156,6000.0,1.33011054993,-0.0226985234767,-0.01379295066,89.5282440186,0.349065840244,0.0216827709228,0.00834132917225,0.00063804135425,0.00636635627598,0.00636635627598,-0.0150669282302,0.0115519864485,0.494908034801,0.494908034801,-0.596319615841,1.06692123413,1998,2020,2546,2037,2037,2919,3423,3422,3239,3361,3086,3049,3152,3145,3236,2849,3402,3411,3239,3363,3128,3351,3385,3191
1508406119204857365,149,1508406119204356856,plot_matl,0.0,0.0,1.40129846432e-45,4.59163467805e-41,-3.08033907423e-16,4.58154532911e-41,0.349065840244,0.30363330245,1.33013880253,-0.00350176496431,-0.00734167685732,-0.00734167685732,-0.0233207605779,-0.00742497947067,-96.4586181641,-96.4586181641,-132.850967407,-0.203240051866,2246,1921,2216,1964,1964,2885,3344,3368,3209,3328,3071,2894,3025,2951,3113,2741,3320,3347,3181,3266,2915,3254,3315,3047,0.010012521,1.489970483,1.491865629,0.680678427219,4500.0,0.654048621655,0.0129294162616,-0.0266297664493,119.833946228,1.34390354156,6000.0,1.33022344112,0.0141313290223,-0.0136800492182,78.2152709961,0.349065840244,0.0216827709228,0.00834132917225,0.00063804135425,0.00636635627598,0.00636635627598,-0.0150669282302,0.0115519864485,0.494908034801,0.494908034801,-0.596319615841,1.06692123413,2000,2027,2546,2036,2036,2919,3423,3422,3239,3361,3086,3049,3152,3145,3236,2849,3402,3413,3238,3363,3128,3350,3385,3192
1508406119214760038,150,1508406119214329748,plot_matl,0.0,0.0,1.40129846432e-45,4.59163467805e-41,-3.08033907423e-16,4.58154532911e-41,0.349065840244,0.30363330245,1.33013880253,-0.00350176496431,-0.00734167685732,-0.00734167685732,-0.0233207605779,-0.00742497947067,-96.4586181641,-96.4586181641,-132.850967407,-0.203240051866,2234,1895,2216,1964,1964,2886,3346,3372,3212,3329,3064,2893,3023,2953,3114,2741,3320,3347,3181,3266,2915,3254,3315,3047,0.009971986,1.49994299,1.4957979,0.680678427219,4500.0,0.654048621655,0.0120377335697,-0.0266297664493,119.833946228,1.34390354156,6000.0,1.33018660545,0.015013740398,-0.0137168718502,77.9891738892,0.349065840244,0.0216827709228,0.00834132917225,0.00063804135425,0.00636635627598,0.00636635627598,-0.0150669282302,0.0115519864485,0.494908034801,0.494908034801,-0.596319615841,1.06692123413,2018,2028,2546,2036,2036,2921,3422,3422,3237,3361,3089,3049,3153,3143,3236,2849,3402,3413,3238,3363,3128,3350,3385,3192
1508406119224712689,151,1508406119224345172,plot_matl,0.0,0.0,1.40129846432e-45,4.59163467805e-41,-3.08033907423e-16,4.58154532911e-41,0.349065840244,0.30363330245,1.33013880253,-0.00350176496431,-0.00734167685732,-0.00734167685732,-0.0233207605779,-0.00742497947067,-96.4586181641,-96.4586181641,-132.850967407,-0.203240051866,2267,1940,2220,1964,1964,2886,3346,3372,3212,3329,3064,2893,3023,2953,3114,2742,3324,3347,3178,3264,2909,3253,3315,3049,0.010014958,1.509958619,1.512258658,0.680678427219,4500.0,0.652699172497,-0.0154167227447,-0.027979247272,125.906616211,1.34390354156,6000.0,1.33024740219,0.013722172007,-0.0136561589316,77.9941558838,0.349065840244,0.0216827709228,0.00834132917225,0.00063804135425,0.00636635627598,0.00636635627598,-0.0150669282302,0.0115519864485,0.494908034801,0.494908034801,-0.596319615841,1.06692123413,2010,2026,2546,2036,2036,2921,3422,3422,3237,3361,3089,3049,3153,3143,3236,2848,3403,3411,3238,3362,3127,3349,3387,3191
1508406119234612857,152,1508406119234335499,plot_matl,0.0,0.0,1.40129846432e-45,4.59163467805e-41,-3.08033907423e-16,4.58154532911e-41,0.349065840244,0.30498278141,1.33023548126,-0.00347680039704,0.00569380586967,0.00569380586967,0.0139406686649,0.00187968090177,-96.5167617798,-96.5167617798,-132.684234619,-0.174748957157,2261,1939,2220,1964,1964,2895,3343,3369,3207,3326,3069,2891,3026,2953,3114,2742,3324,3347,3178,3264,2909,3253,3315,3049,0.009989206,1.519948317,1.518359312,0.680678427219,4500.0,0.655398130417,0.0373555123806,-0.025280283764,113.761283875,1.34390354156,6000.0,1.33012402058,-0.022930894047,-0.0137795591727,89.536857605,0.349065840244,0.0216827709228,0.00833897665143,0.000789633253589,0.00564803928137,0.00564803928137,0.000314342585625,0.00847874209285,0.638009011745,0.638009011745,-1.41052770615,0.833058536053,2003,2024,2546,2036,2036,2920,3422,3420,3238,3360,3088,3049,3154,3143,3236,2848,3403,3411,3238,3362,3127,3349,3387,3191
1508406119244537865,153,1508406119244316121,plot_matl,0.0,0.0,1.40129846432e-45,4.59163467805e-41,-3.08033907423e-16,4.58154532911e-41,0.349065840244,0.30498278141,1.33023548126,-0.00347680039704,0.00569380586967,0.00569380586967,0.0139406686649,0.00187968090177,-96.5167617798,-96.5167617798,-132.684234619,-0.174748957157,2217,1882,2220,1964,1964,2895,3343,3369,3207,3326,3069,2891,3026,2950,3113,2745,3322,3345,3177,3267,2916,3251,3315,3049,0.009979682,1.529928442,1.526891346,0.680678427219,4500.0,0.652699172497,-0.0174760464579,-0.027979247272,125.906616211,1.34390354156,6000.0,1.33008873463,0.0167850125581,-0.0138148320839,77.9203872681,0.349065840244,0.0216827709228,0.00833897665143,0.000789633253589,0.00564803928137,0.00564803928137,0.000314342585625,0.00847874209285,0.638009011745,0.638009011745,-1.41052770615,0.833058536053,2012,2039,2546,2036,2036,2920,3422,3420,3238,3360,3088,3049,3154,3144,3236,2849,3404,3412,3237,3363,3127,3349,3386,3191
1508406119254752266,154,1508406119254328786,plot_matl,0.0,0.0,1.40129846432e-45,4.59163467805e-41,-3.08033907423e-16,4.58154532911e-41,0.349065840244,0.30498278141,1.33023548126,-0.00347680039704,0.00569380586967,0.00569380586967,0.0139406686649,0.00187968090177,-96.5167617798,-96.5167617798,-132.684234619,-0.174748957157,2221,1890,2224,1963,1963,2881,3345,3371,3216,3329,3068,2891,3026,2950,3113,2745,3322,3345,3177,3267,2916,3251,3315,3045,0.010013591,1.539942123,1.542093014,0.680678427219,4500.0,0.652699172497,-0.0174760464579,-0.027979247272,125.906616211,1.34390354156,6000.0,1.33008873463,0.0167850125581,-0.0138148320839,77.9203872681,0.349065840244,0.0216827709228,0.00833897665143,0.000789633253589,0.00564803928137,0.00564803928137,0.000314342585625,0.00847874209285,0.638009011745,0.638009011745,-1.41052770615,0.833058536053,2016,2034,2546,2038,2038,2920,3422,3421,3237,3361,3088,3049,3154,3144,3236,2849,3404,3412,3237,3363,3127,3349,3386,3190
