%time,field.header.seq,field.header.stamp,field.header.frame_id,field.FFJ4_set_point,field.FFJ4_position_gain,field.FFJ4_process_value,field.FFJ4_process_value_dot,field.FFJ4_error,field.FFJ4_command,field.FFJ1,field.FFJ2,field.FFJ3,field.FFJ4,field.FFJ1_dot,field.FFJ2_dot,field.FFJ3_dot,field.FFJ4_dot,field.FFJ1_tao,field.FFJ2_tao,field.FFJ3_tao,field.FFJ4_tao,field.pac0,field.pac1,field.pdc0,field.tac0,field.tdc0,field.el0,field.el1,field.el2,field.el3,field.el4,field.el5,field.el6,field.el7,field.el8,field.el9,field.el10,field.el11,field.el12,field.el13,field.el14,field.el15,field.el16,field.el17,field.el18,field.dt,field.time,field.test_time2,field.FFJ0_set_point,field.FFJ0_position_gain,field.FFJ0_process_value,field.FFJ0_process_value_dot,field.FFJ0_error,field.FFJ0_command,field.FFJ3_set_point,field.FFJ3_position_gain,field.FFJ3_process_value,field.FFJ3_process_value_dot,field.FFJ3_error,field.FFJ3_command,field.MFJ1,field.MFJ2,field.MFJ3,field.MFJ4,field.MFJ1_dot,field.MFJ2_dot,field.MFJ3_dot,field.MFJ4_dot,field.MFJ1_tao,field.MFJ2_tao,field.MFJ3_tao,field.MFJ4_tao,field.Mpac0,field.Mpac1,field.Mpdc0,field.Mtac0,field.Mtdc0,field.Mel0,field.Mel1,field.Mel2,field.Mel3,field.Mel4,field.Mel5,field.Mel6,field.Mel7,field.Mel8,field.Mel9,field.Mel10,field.Mel11,field.Mel12,field.Mel13,field.Mel14,field.Mel15,field.Mel16,field.Mel17,field.Mel18
1508406142797767613,93,1508406142797369409,plot_matl,0.0,0.0,1.40129846432e-45,4.59163467805e-41,-1.63826270466e+17,4.55870416414e-41,0.349065840244,0.30498278141,1.32929742336,-0.00349866854958,-0.00101633381564,-0.00101633381564,0.0328204110265,-0.00745888752863,-96.067489624,-96.067489624,-130.356536865,-0.30667796731,650,2130,2204,2020,2020,2888,3347,3370,3204,3325,3065,2895,3025,2959,3115,2746,3322,3345,3181,3268,2915,3253,3318,3049,0.009974724,0.929982808,0.927649332,0.680678427219,4500.0,0.654048621655,-0.00211629224941,-0.0266297664493,119.833946228,1.34390354156,6000.0,1.32927048206,-0.00571173429489,-0.0146330241114,89.4720687866,0.349065840244,0.0216827709228,0.00841112527996,0.000845886359457,0.0011729093967,0.0011729093967,-0.00113200873602,0.00742002064362,0.849485337734,0.849485337734,-1.83575749397,-1.44473099709,2028,2004,2547,2050,2050,2916,3419,3420,3235,3359,3083,3048,3151,3141,3234,2847,3399,3409,3238,3362,3125,3346,3384,3190
1508406142807790135,94,1508406142807460446,plot_matl,0.0,0.0,1.40129846432e-45,4.59163467805e-41,-1.63826270466e+17,4.55870416414e-41,0.349065840244,0.30363330245,1.32937633991,-0.00350506068207,-0.0142229525372,-0.0142229525372,0.031182648614,-0.00733101554215,-96.1978607178,-96.1978607178,-130.168197632,-0.304849237204,712,2223,2204,2020,2020,2888,3347,3370,3204,3326,3063,2898,3024,2955,3116,2752,3320,3346,3182,3268,2915,3253,3318,3049,0.010093491,0.940075132,0.948788154,0.680678427219,4500.0,0.654048621655,-0.00124250689987,-0.0266297664493,119.833946228,1.34390354156,6000.0,1.32935333252,-0.0074210697785,-0.0145501783118,89.532951355,0.349065840244,0.0216827709228,0.00840102136135,0.000869264418725,0.00138044264168,0.00138044264168,-0.00092712440528,-0.0175235532224,0.909775316715,0.909775316715,-1.72331213951,-1.47436988354,2023,2005,2547,2050,2050,2916,3419,3420,3235,3360,3084,3048,3151,3143,3233,2847,3401,3411,3239,3362,3125,3346,3384,3190
1508406142817810548,95,1508406142817387159,plot_matl,0.0,0.0,1.40129846432e-45,4.59163467805e-41,-1.63826270466e+17,4.55870416414e-41,0.349065840244,0.30498278141,1.32937729359,-0.00350964977406,-0.000948939181399,-0.000948939181399,-0.00794380810112,0.00255084689707,-96.1619873047,-96.1619873047,-130.343460083,-0.305073112249,700,2209,2237,2018,2018,2888,3349,3370,3204,3326,3063,2898,3024,2955,3116,2752,3320,3346,3182,3266,2912,3255,3316,3048,0.009926738,0.950002135,0.94304011,0.680678427219,4500.0,0.654048621655,-0.00197533587925,-0.0266297664493,119.833946228,1.34390354156,6000.0,1.32939326763,-0.0082680163905,-0.0145103158429,89.3773651123,0.349065840244,0.0216827709228,0.00839273072779,0.000886705354787,0.0024895616807,0.0024895616807,-0.000759018352255,0.00664269179106,1.02182507515,1.02182507515,-1.5921612978,-1.53297352791,2031,2007,2547,2046,2046,2917,3420,3420,3235,3360,3084,3048,3151,3143,3233,2847,3401,3411,3239,3363,3125,3347,3386,3191
1508406142827945799,96,1508406142827420112,plot_matl,0.0,0.0,1.40129846432e-45,4.59163467805e-41,-1.63826270466e+17,4.55870416414e-41,0.349065840244,0.30633226037,1.32934260368,-0.00351271266118,0.0123253716156,0.0123253716156,-0.00721989106387,0.00261632888578,-96.1326141357,-96.1326141357,-130.108673096,-0.269040346146,679,2169,2237,2018,2018,2888,3349,3367,3197,3325,3070,2895,3026,2956,3114,2753,3320,3346,3182,3266,2912,3255,3316,3048,0.010032688,0.960034903,0.963138048,0.680678427219,4500.0,0.655398130417,0.0251064933836,-0.025280283764,113.761283875,1.34390354156,6000.0,1.32935714722,-0.00751484138891,-0.0145463598892,89.5056915283,0.349065840244,0.0216827709228,0.00838623289019,0.000849231262691,0.00158612837549,0.00158612837549,-0.000631122500636,0.00740142352879,0.984068930149,0.984068930149,-1.48478376865,-1.41979432106,2028,2017,2547,2046,2046,2917,3420,3420,3235,3360,3085,3048,3152,3141,3232,2848,3401,3411,3239,3363,3125,3347,3386,3191
1508406142837762086,97,1508406142837407958,plot_matl,0.0,0.0,1.40129846432e-45,4.59163467805e-41,-1.63826270466e+17,4.55870416414e-41,0.349065840244,0.30633226037,1.32934260368,-0.00351271266118,0.0123253716156,0.0123253716156,-0.00721989106387,0.00261632888578,-96.1326141357,-96.1326141357,-130.108673096,-0.269040346146,679,2169,2237,2018,2018,2888,3349,3367,3197,3325,3070,2895,3026,2956,3114,2753,3320,3346,3182,3266,2912,3255,3316,3048,0.009985777,0.970022394,0.968620369,0.680678427219,4500.0,0.655398130417,0.0251064933836,-0.025280283764,113.761283875,1.34390354156,6000.0,1.32935714722,-0.00751484138891,-0.0145463598892,89.5056915283,0.349065840244,0.0216827709228,0.00838623289019,0.000849231262691,0.00158612837549,0.00158612837549,-0.000631122500636,0.00740142352879,0.984068930149,0.984068930149,-1.48478376865,-1.41979432106,2028,2017,2547,2046,2046,2917,3420,3420,3235,3360,3085,3048,3152,3141,3232,2848,3401,3411,3239,3363,3125,3347,3386,3191
1508406142847768660,98,1508406142847391616,plot_matl,0.0,0.0,1.40129846432e-45,4.59163467805e-41,-1.63826270466e+17,4.55870416414e-41,0.349065840244,0.30633226037,1.32932913303,-0.0035123792477,0.0134390825406,0.0134390825406,0.0317979343235,0.0123126609251,-96.1669235229,-96.1669235229,-130.329071045,-0.342649668455,2947,1738,2209,2017,2017,2888,3349,3367,3197,3325,3070,2895,3026,2956,3114,2753,3320,3344,3178,3269,2917,3254,3318,3051,0.009984914,0.980006512,0.978521572,0.680678427219,4500.0,0.655398130417,0.0268781650811,-0.025280283764,113.761283875,1.34390354156,6000.0,1.32932913303,0.0317979343235,-0.0145744029433,77.9064025879,0.349065840244,0.0216827709228,0.00841610506177,0.000822671456262,0.000115982948046,0.000115982948046,-0.00121817807667,0.00777366757393,1.08405351639,1.08405351639,-1.23984205723,-1.31796658039,2028,2036,2547,2048,2048,2917,3420,3420,3235,3360,3085,3048,3152,3141,3232,2848,3401,3409,3237,3362,3126,3348,3385,3190
1508406142857720341,99,1508406142857416170,plot_matl,0.0,0.0,1.40129846432e-45,4.59163467805e-41,-1.63826270466e+17,4.55870416414e-41,0.349065840244,0.30633226037,1.32932913303,-0.0035123792477,0.0134390825406,0.0134390825406,0.0317979343235,0.0123126609251,-96.1669235229,-96.1669235229,-130.329071045,-0.342649668455,2962,1773,2209,2017,2017,2896,3353,3371,3200,3330,3073,2899,3027,2956,3118,2753,3320,3344,3178,3269,2917,3254,3318,3051,0.010031824,0.990040362,0.993150576,0.680678427219,4500.0,0.655398130417,0.0268781650811,-0.025280283764,113.761283875,1.34390354156,6000.0,1.32932913303,0.0317979343235,-0.0145744029433,77.9064025879,0.349065840244,0.0216827709228,0.00841610506177,0.000822671456262,0.000115982948046,0.000115982948046,-0.00121817807667,0.00777366757393,1.08405351639,1.08405351639,-1.23984205723,-1.31796658039,2024,2035,2547,2048,2048,2920,3425,3421,3239,3363,3088,3048,3153,3145,3233,2848,3401,3409,3237,3362,3126,3348,3385,3190
1508406142867709048,100,1508406142867415492,plot_matl,0.0,0.0,1.40129846432e-45,4.59163467805e-41,-1.63826270466e+17,4.55870416414e-41,0.349065840244,0.30498278141,1.32924854755,-0.00352444616146,0.00101721857209,0.00101721857209,-0.00555614661425,-0.00696284230798,-96.1901473999,-96.1901473999,-130.430526733,-0.355060338974,2979,1815,2218,2017,2017,2896,3353,3371,3200,3330,3073,2899,3027,2956,3118,2755,3320,3345,3178,3270,2918,3259,3317,3050,0.009999658,1.000039754,0.9999658,0.680678427219,4500.0,0.654048621655,0.00203443714418,-0.0266297664493,119.833946228,1.34390354156,6000.0,1.32924854755,-0.00555614661425,-0.0146550210193,89.5129776001,0.349065840244,0.0216827709228,0.00841949414462,0.000809794000816,0.00214241654612,0.00214241654612,-0.00129253452178,0.00804906431586,1.08559787273,1.08559787273,-1.78744363785,-1.50231122971,2030,2036,2547,2048,2048,2920,3425,3421,3239,3363,3088,3048,3153,3145,3233,2848,3403,3409,3238,3361,3124,3348,3386,3190
1508406142877578525,101,1508406142877368094,plot_matl,0.0,0.0,1.40129846432e-45,4.59163467805e-41,-1.63826270466e+17,4.55870416414e-41,0.349065840244,0.30498278141,1.32927143574,-0.00354180717841,0.000839368789457,0.000839368789457,0.0330647788942,0.00316125829704,-96.1215057373,-96.1215057373,-130.374481201,-0.401409029961,2984,1830,2218,2020,2020,2881,3354,3370,3202,3327,3064,2898,3024,2956,3118,2755,3320,3345,3178,3270,2918,3259,3317,3050,0.00994125,1.009981527,1.00406625,0.680678427219,4500.0,0.654048621655,0.00167873757891,-0.0266297664493,119.833946228,1.34390354156,6000.0,1.32927143574,0.0330647788942,-0.0146321421489,78.219619751,0.349065840244,0.0216827709228,0.00842360500246,0.000768565398175,0.00215286435559,0.00215286435559,-0.00135436165147,-0.0156142273918,1.03025650978,1.03025650978,-1.68968188763,-1.45981144905,2023,2026,2547,2050,2050,2918,3422,3421,3235,3361,3085,3047,3154,3145,3233,2848,3403,3409,3238,3361,3124,3348,3386,3190
1508406142887870816,102,1508406142887431947,plot_matl,0.0,0.0,1.40129846432e-45,4.59163467805e-41,-1.63826270466e+17,4.55870416414e-41,0.349065840244,0.30498278141,1.32946205139,-0.00352929183282,0.00117949931882,0.00117949931882,-0.00981705728918,0.00291502289474,-96.1717605591,-96.1717605591,-130.069168091,-0.421587765217,2993,1864,2218,2020,2020,2881,3354,3370,3202,3327,3064,2898,3024,2957,3114,2746,3324,3347,3182,3267,2913,3252,3317,3050,0.010065407,1.020046533,1.026671514,0.680678427219,4500.0,0.654048621655,0.00235899863765,-0.0266297664493,119.833946228,1.34390354156,6000.0,1.32946205139,-0.00981705728918,-0.014441460371,89.474861145,0.349065840244,0.0216827709228,0.00841117277741,0.000763292249758,0.00219686189666,0.00219686189666,-0.00110785884317,0.00900908093899,0.955223679543,0.955223679543,-2.08559966087,-1.31793987751,2032,2045,2547,2050,2050,2918,3422,3421,3235,3361,3085,3047,3154,3143,3233,2848,3401,3411,3239,3363,3125,3347,3385,3190
1508406142897665955,103,1508406142897378415,plot_matl,0.0,0.0,1.40129846432e-45,4.59163467805e-41,-1.63826270466e+17,4.55870416414e-41,0.349065840244,0.30498278141,1.32948458195,-0.00352998054586,0.000218881861656,0.000218881861656,0.0289029963315,-0.00682282540947,-96.1406784058,-96.1406784058,-129.956787109,-0.48500174284,3003,1893,2211,2019,2019,2890,3346,3369,3203,3329,3067,2898,3024,2957,3114,2746,3324,3347,3182,3267,2913,3252,3317,3051,0.009945405,1.0299926,1.024376715,0.680678427219,4500.0,0.654048621655,0.000437763723312,-0.0266297664493,119.833946228,1.34390354156,6000.0,1.32948458195,0.0289029963315,-0.0144189344719,77.6851654053,0.349065840244,0.0216827709228,0.00840106327087,0.000801527465228,0.000898244325072,0.000898244325072,-0.000907401670702,0.00825335364789,0.795494198799,0.795494198799,-1.85177075863,-1.34234976768,2024,2032,2547,2050,2050,2918,3419,3420,3235,3361,3083,3047,3154,3143,3233,2848,3401,3411,3239,3363,3125,3347,3385,3190
1508406142907854952,104,1508406142907406377,plot_matl,0.0,0.0,1.40129846432e-45,4.59163467805e-41,-1.63826270466e+17,4.55870416414e-41,0.349065840244,0.30498278141,1.32943248749,-0.00354815344326,-0.000338352896506,-0.000338352896506,0.0299752019346,-0.00645507965237,-96.1152038574,-96.1152038574,-129.730682373,-0.433645904064,2956,1769,2211,2019,2019,2890,3346,3369,3203,3329,3067,2897,3023,2954,3118,2755,3321,3347,3182,3268,2914,3252,3317,3051,0.010027456,1.040020637,1.042855424,0.680678427219,4500.0,0.654048621655,-0.000676705793012,-0.0266297664493,119.833946228,1.34390354156,6000.0,1.32943248749,0.0299752019346,-0.0144710475579,77.8600463867,0.349065840244,0.0240919683129,0.0083927763626,0.000806771568023,0.0241592172533,0.0241592172533,-0.000743080745451,-0.0163344778121,0.942559123039,0.942559123039,-1.66219854355,-1.35341572762,2024,2033,2547,2050,2050,2918,3419,3420,3235,3361,3083,3048,3150,3143,3233,2846,3402,3411,3237,3360,3124,3347,3385,3190
1508406142917699781,105,1508406142917383640,plot_matl,0.0,0.0,1.40129846432e-45,4.59163467805e-41,-1.63826270466e+17,4.55870416414e-41,0.349065840244,0.30498278141,1.3294557333,-0.00351828988642,-0.000545348855667,-0.000545348855667,-0.00955019518733,0.00270883599296,-95.9453430176,-95.9453430176,-129.899475098,-0.375699698925,2973,1811,2236,2019,2019,2883,3352,3369,3198,3329,3067,2897,3023,2954,3118,2755,3321,3347,3182,3268,2914,3257,3318,3048,0.009977518,1.04999813,1.04763939,0.680678427219,4500.0,0.654048621655,-0.00109069771133,-0.0266297664493,119.833946228,1.34390354156,6000.0,1.3294557333,-0.00955019518733,-0.0144477747381,89.6594696045,0.349065840244,0.0216827709228,0.00839904230088,0.000816546147689,-0.00102478300687,-0.00102478300687,-0.000882396358065,0.00797789171338,0.947447419167,0.947447419167,-2.21364927292,-1.49879693985,2027,2034,2546,2049,2049,2917,3419,3420,3236,3361,3083,3048,3150,3143,3233,2846,3402,3411,3237,3360,3124,3346,3385,3188
1508406142927724784,106,1508406142927397560,plot_matl,0.0,0.0,1.40129846432e-45,4.59163467805e-41,-1.63826270466e+17,4.55870416414e-41,0.349065840244,0.30498278141,1.32948303223,-0.00350279244594,-0.000454048276879,-0.000454048276879,0.0290101002902,0.00238785101101,-95.7747421265,-95.7747421265,-130.069610596,-0.378524541855,2933,1709,2236,2019,2019,2883,3352,3369,3198,3325,3069,2897,3027,2960,3115,2748,3321,3345,3180,3268,2914,3257,3318,3048,0.010023637,1.060012221,1.062505522,0.680678427219,4500.0,0.654048621655,-0.000908096553758,-0.0266297664493,119.833946228,1.34390354156,6000.0,1.32948303223,0.0290101002902,-0.0144204795361,77.6324539185,0.349065840244,0.0216827709228,0.00839114841074,0.000799288623966,-0.00124542845879,-0.00124542845879,-0.000723155157175,-0.0161717701703,0.852933168411,0.852933168411,-1.81205570698,-1.43925368786,2022,2034,2546,2049,2049,2917,3419,3420,3236,3359,3086,3048,3151,3142,3234,2846,3399,3410,3238,3360,3124,3346,3385,3188
1508406142937654360,107,1508406142937393881,plot_matl,0.0,0.0,1.40129846432e-45,4.59163467805e-41,-1.63826270466e+17,4.55870416414e-41,0.349065840244,0.30498278141,1.32948303223,-0.00350279244594,-0.000454048276879,-0.000454048276879,0.0290101002902,0.00238785101101,-95.7747421265,-95.7747421265,-130.069610596,-0.378524541855,2961,1771,2202,2022,2022,2883,3350,3369,3198,3325,3069,2897,3027,2960,3115,2748,3321,3345,3180,3267,2917,3254,3314,3051,0.009986193,1.070008557,1.068522651,0.680678427219,4500.0,0.654048621655,-0.000908096553758,-0.0266297664493,119.833946228,1.34390354156,6000.0,1.32948303223,0.0290101002902,-0.0144204795361,77.6324539185,0.349065840244,0.0216827709228,0.00839114841074,0.000799288623966,-0.00124542845879,-0.00124542845879,-0.000723155157175,-0.0161717701703,0.852933168411,0.852933168411,-1.81205570698,-1.43925368786,2016,2030,2547,2050,2050,2916,3420,3420,3236,3359,3086,3048,3151,3142,3234,2846,3399,3410,3238,3362,3125,3349,3384,3190
1508406142947946803,108,1508406142947441026,plot_matl,0.0,0.0,1.40129846432e-45,4.59163467805e-41,-1.63826270466e+17,4.55870416414e-41,0.349065840244,0.30498278141,1.32961606979,-0.00351447984576,0.000366599299014,0.000366599299014,0.0263795722276,0.00261415401474,-95.5191726685,-95.5191726685,-130.329742432,-0.396302312613,2983,1825,2202,2022,2022,2883,3350,3369,3201,3326,3061,2897,3022,2955,3116,2750,3321,3345,3180,3267,2917,3254,3314,3051,0.010047441,1.080055993,1.085123628,0.680678427219,4500.0,0.654048621655,0.000733198598027,-0.0266297664493,119.833946228,1.34390354156,6000.0,1.32961606979,0.0263795722276,-0.0142874298617,77.873878479,0.349065840244,0.0216827709228,0.00839146599174,0.000776953820605,-0.00201787333935,-0.00201787333935,-0.00073354342021,0.00877689477056,0.94280654192,0.94280654192,-1.81652498245,-1.82209396362,2021,2036,2547,2050,2050,2916,3420,3421,3237,3360,3084,3048,3150,3141,3235,2845,3402,3410,3238,3362,3125,3349,3384,3190
1508406142957760655,109,1508406142957388556,plot_matl,0.0,0.0,1.40129846432e-45,4.59163467805e-41,-1.63826270466e+17,4.55870416414e-41,0.349065840244,0.30498278141,1.32974541187,-0.00350927468389,7.34435816412e-05,7.34435816412e-05,0.0237676613033,-0.00725456839427,-95.5006103516,-95.5006103516,-130.276184082,-0.396311432123,2985,1845,2233,2022,2022,2883,3350,3369,3201,3326,3061,2897,3022,2955,3116,2750,3321,3347,3181,3268,2910,3255,3315,3047,0.009946678,1.090003082,1.084187902,0.680678427219,4500.0,0.654048621655,0.000146887163282,-0.0266297664493,119.833946228,1.34390354156,6000.0,1.32961606979,0.0263795722276,-0.0142874298617,77.873878479,0.349065840244,0.0216827709228,0.00839798524976,0.000749824859668,-0.00122328207362,-0.00122328207362,-0.000865074165631,0.00933043472469,0.987947702408,0.987947702408,-1.48783397675,-1.94166326523,2035,2043,2547,2048,2048,2916,3420,3421,3237,3360,3084,3048,3150,3141,3235,2845,3402,3408,3239,3361,3127,3347,3385,3189
1508406142967861854,110,1508406142967418954,plot_matl,0.0,0.0,1.40129846432e-45,4.59163467805e-41,-1.63826270466e+17,4.55870416414e-41,0.349065840244,0.30498278141,1.32971906662,-0.00353768048808,8.92774987733e-05,8.92774987733e-05,0.0243407450616,0.00308592268266,-95.4092941284,-95.4092941284,-130.331344604,-0.510626077652,2991,1871,2233,2022,2022,2892,3346,3368,3195,3327,3071,2896,3025,2956,3114,2750,3321,3347,3181,3268,2910,3255,3315,3047,0.010029125,1.100033394,1.10320375,0.680678427219,4500.0,0.654048621655,0.000178554997547,-0.0266297664493,119.833946228,1.34390354156,6000.0,1.32971906662,0.0243407450616,-0.0141844656318,77.4842147827,0.349065840244,0.0216827709228,0.00839019939303,0.000703047262505,-0.000589058327023,-0.000589058327023,-0.00070727407001,0.0102669131011,0.990146160126,0.990146160126,-1.22352421284,-1.627861619,2018,2021,2547,2048,2048,2918,3419,3421,3236,3360,3083,3048,3150,3142,3233,2845,3402,3408,3239,3361,3127,3347,3385,3189
1508406142977793582,111,1508406142977391486,plot_matl,0.0,0.0,1.40129846432e-45,4.59163467805e-41,-1.63826270466e+17,4.55870416414e-41,0.349065840244,0.30498278141,1.32971906662,-0.00353768048808,8.92774987733e-05,8.92774987733e-05,0.0243407450616,0.00308592268266,-95.4092941284,-95.4092941284,-130.331344604,-0.510626077652,2958,1772,2219,2022,2022,2892,3346,3368,3195,3327,3071,2896,3025,2956,3114,2753,3323,3345,3178,3269,2917,3255,3319,3051,0.009973108,1.110006121,1.107014988,0.680678427219,4500.0,0.654048621655,0.000178554997547,-0.0266297664493,119.833946228,1.34390354156,6000.0,1.32971906662,0.0243407450616,-0.0141844656318,77.4842147827,0.349065840244,0.0216827709228,0.00839019939303,0.000703047262505,-0.000589058327023,-0.000589058327023,-0.00070727407001,0.0102669131011,0.990146160126,0.990146160126,-1.22352421284,-1.627861619,2016,2029,2547,2048,2048,2918,3419,3421,3236,3360,3083,3048,3150,3142,3233,2847,3403,3408,3237,3361,3124,3347,3384,3189
1508406142987753906,112,1508406142987394326,plot_matl,0.0,0.0,1.40129846432e-45,4.59163467805e-41,-1.63826270466e+17,4.55870416414e-41,0.349065840244,0.30498278141,1.32971906662,-0.00353768048808,8.92774987733e-05,8.92774987733e-05,0.0243407450616,0.00308592268266,-95.4092941284,-95.4092941284,-130.331344604,-0.510626077652,2821,1469,2219,2023,2023,2895,3363,3382,3211,3336,3071,2905,3031,2956,3114,2753,3323,3345,3178,3269,2917,3255,3319,3051,0.01000295,1.120009082,1.1203304,0.680678427219,4500.0,0.655398130417,0.0247444752604,-0.025280283764,113.761283875,1.34390354156,6000.0,1.32999515533,0.0187691729516,-0.0139083331451,78.3025512695,0.349065840244,0.0216827709228,0.00839019939303,0.000703047262505,-0.000589058327023,-0.000589058327023,-0.00070727407001,0.0102669131011,0.990146160126,0.990146160126,-1.22352421284,-1.627861619,2035,2050,2547,2049,2049,2932,3433,3432,3246,3370,3094,3054,3159,3142,3233,2847,3403,3408,3237,3361,3124,3347,3384,3189
1508406142997812035,113,1508406142997377958,plot_matl,0.0,0.0,1.40129846432e-45,4.59163467805e-41,-1.63826270466e+17,4.55870416414e-41,0.349065840244,0.30498278141,1.32971906662,-0.00353768048808,8.92774987733e-05,8.92774987733e-05,0.0243407450616,0.00308592268266,-95.4092941284,-95.4092941284,-130.331344604,-0.510626077652,2814,1459,2219,2023,2023,2895,3363,3382,3211,3336,3071,2905,3031,2963,3121,2748,3327,3352,3187,3271,2917,3257,3319,3051,0.009982244,1.129992278,1.127993572,0.680678427219,4500.0,0.655398130417,0.0222088210285,-0.025280283764,113.761283875,1.34390354156,6000.0,1.32999205589,0.0188075900078,-0.0139114791527,77.4974365234,0.349065840244,0.0216827709228,0.00839019939303,0.000703047262505,-0.000589058327023,-0.000589058327023,-0.00070727407001,0.0102669131011,0.990146160126,0.990146160126,-1.22352421284,-1.627861619,2021,2030,2547,2049,2049,2932,3433,3432,3246,3370,3094,3054,3159,3151,3240,2850,3407,3412,3242,3365,3126,3351,3388,3189
1508406143007727127,114,1508406143007460734,plot_matl,0.0,0.0,1.40129846432e-45,4.59163467805e-41,-1.63826270466e+17,4.55870416414e-41,0.349065840244,0.30498278141,1.32991588116,-0.00350021850318,-0.00257826433517,-0.00257826433517,-0.0187234915793,0.00232297391631,-95.1688995361,-95.1688995361,-131.337112427,-0.127615645528,2763,1374,2209,2021,2021,2891,3348,3371,3202,3329,3067,2905,3031,2963,3121,2748,3327,3352,3187,3271,2917,3257,3319,3052,0.010083949,1.140075691,1.149570186,0.680678427219,4500.0,0.654048621655,-0.00559059623629,-0.0266297664493,119.833946228,1.34390354156,6000.0,1.32991874218,-0.0188001021743,-0.0139848031104,89.5699920654,0.349065840244,0.0216827709228,0.0083741825074,0.000780508155003,-0.00292772101238,-0.00292772101238,-0.000382687459933,0.00872743595392,1.15878355503,1.15878355503,-1.66774272919,-1.69874572754,2021,2039,2547,2048,2048,2918,3421,3422,3238,3362,3086,3054,3159,3151,3240,2850,3407,3412,3242,3365,3126,3351,3388,3193
1508406143017676763,115,1508406143017390925,plot_matl,0.0,0.0,1.40129846432e-45,4.59163467805e-41,-1.63826270466e+17,4.55870416414e-41,0.349065840244,0.30498278141,1.32991588116,-0.00350021850318,-0.00257826433517,-0.00257826433517,-0.0187234915793,0.00232297391631,-95.1688995361,-95.1688995361,-131.337112427,-0.127615645528,2804,1441,2209,2021,2021,2891,3348,3371,3202,3329,3067,2898,3027,2954,3118,2753,3321,3348,3182,3270,2914,3257,3319,3052,0.009929219,1.150005521,1.141860185,0.680678427219,4500.0,0.654048621655,-0.0055979010649,-0.0266297664493,119.833946228,1.34390354156,6000.0,1.3299601078,0.0194601342082,-0.0139434458688,77.5834274292,0.349065840244,0.0216827709228,0.0083741825074,0.000780508155003,-0.00292772101238,-0.00292772101238,-0.000382687459933,0.00872743595392,1.15878355503,1.15878355503,-1.66774272919,-1.69874572754,2032,2053,2547,2048,2048,2918,3421,3422,3238,3362,3086,3048,3152,3145,3233,2846,3403,3410,3239,3362,3127,3351,3388,3193
1508406143027651327,116,1508406143027417499,plot_matl,0.0,0.0,1.40129846432e-45,4.59163467805e-41,-1.63826270466e+17,4.55870416414e-41,0.349065840244,0.30498278141,1.32991588116,-0.00350021850318,-0.00257826433517,-0.00257826433517,-0.0187234915793,0.00232297391631,-95.1688995361,-95.1688995361,-131.337112427,-0.127615645528,2732,1324,2237,2022,2022,2887,3349,3369,3197,3329,3067,2898,3027,2954,3118,2753,3321,3348,3182,3270,2914,3257,3318,3048,0.010025126,1.16003193,1.162914616,0.680678427219,4500.0,0.654048621655,-0.003632922424,-0.0266297664493,119.833946228,1.34390354156,6000.0,1.33002948761,-0.0210350099951,-0.0138739785179,89.5141677856,0.349065840244,0.0216827709228,0.0083741825074,0.000780508155003,-0.00292772101238,-0.00292772101238,-0.000382687459933,0.00872743595392,1.15878355503,1.15878355503,-1.66774272919,-1.69874572754,2038,2049,2547,2049,2049,2917,3421,3421,3236,3362,3086,3048,3152,3145,3233,2846,3403,3410,3239,3362,3127,3349,3386,3190
1508406143037682394,117,1508406143037417478,plot_matl,0.0,0.0,1.40129846432e-45,4.59163467805e-41,-1.63826270466e+17,4.55870416414e-41,0.349065840244,0.30498278141,1.32991588116,-0.00350021850318,-0.00257826433517,-0.00257826433517,-0.0187234915793,0.00232297391631,-95.1688995361,-95.1688995361,-131.337112427,-0.127615645528,2740,1334,2237,2022,2022,2887,3349,3369,3197,3327,3070,2898,3027,2957,3115,2750,3322,3347,3179,3270,2914,3257,3318,3048,0.010010047,1.170031979,1.171175499,0.680678427219,4500.0,0.655398130417,0.0223368536681,-0.025280283764,113.761283875,1.34390354156,6000.0,1.3300178051,0.0182861480862,-0.0138857187703,77.6958007812,0.349065840244,0.0216827709228,0.0083741825074,0.000780508155003,-0.00292772101238,-0.00292772101238,-0.000382687459933,0.00872743595392,1.15878355503,1.15878355503,-1.66774272919,-1.69874572754,2018,2025,2547,2049,2049,2917,3421,3421,3236,3360,3084,3049,3153,3143,3236,2846,3401,3409,3238,3362,3127,3349,3386,3190
1508406143047717452,118,1508406143047377977,plot_matl,0.0,0.0,1.40129846432e-45,4.59163467805e-41,-1.63826270466e+17,4.55870416414e-41,0.349065840244,0.30498278141,1.32997655869,-0.00350192026235,-0.00252741994336,-0.00252741994336,-0.0199496243149,-0.00740758050233,-95.2832870483,-95.2832870483,-131.489700317,0.0754878595471,2782,1401,2204,2025,2025,2883,3348,3369,3197,3327,3070,2898,3027,2957,3115,2750,3322,3347,3179,3271,2919,3256,3317,3049,0.009950399,1.179993014,1.174147082,0.680678427219,4500.0,0.655398130417,0.0222345609218,-0.025280283764,113.761283875,1.34390354156,6000.0,1.33000791073,0.0184706524014,-0.0138956457376,77.8389053345,0.349065840244,0.0216827709228,0.00838317722082,0.000825569266453,-0.00270435446873,-0.00270435446873,-0.000556128798053,0.00777985714376,1.17730867863,1.17730867863,-1.11041367054,-1.92240190506,2032,2052,2547,2049,2049,2917,3421,3421,3236,3360,3084,3049,3153,3143,3236,2846,3401,3409,3238,3362,3125,3348,3385,3188
1508406143057730656,119,1508406143057386277,plot_matl,0.0,0.0,1.40129846432e-45,4.59163467805e-41,-1.63826270466e+17,4.55870416414e-41,0.349065840244,0.30498278141,1.32997655869,-0.00350192026235,-0.00252741994336,-0.00252741994336,-0.0199496243149,-0.00740758050233,-95.2832870483,-95.2832870483,-131.489700317,0.0754878595471,2815,1452,2204,2025,2025,2883,3348,3370,3202,3326,3062,2899,3024,2955,3115,2749,3320,3347,3179,3271,2919,3256,3317,3049,0.010007518,1.190000688,1.190894642,0.680678427219,4500.0,0.652699172497,-0.0293355416507,-0.027979247272,125.906616211,1.34390354156,6000.0,1.33003211021,0.0179821662605,-0.0138713978231,77.8741226196,0.349065840244,0.0216827709228,0.00838317722082,0.000825569266453,-0.00270435446873,-0.00270435446873,-0.000556128798053,0.00777985714376,1.17730867863,1.17730867863,-1.11041367054,-1.92240190506,2038,2046,2547,2049,2049,2917,3421,3420,3235,3360,3085,3046,3152,3142,3234,2847,3399,3409,3238,3362,3125,3348,3385,3188
1508406143067622024,120,1508406143067382475,plot_matl,0.0,0.0,1.40129846432e-45,4.59163467805e-41,-1.63826270466e+17,4.55870416414e-41,0.349065840244,0.30498278141,1.32997655869,-0.00350192026235,-0.00252741994336,-0.00252741994336,-0.0199496243149,-0.00740758050233,-95.2832870483,-95.2832870483,-131.489700317,0.0754878595471,2807,1450,2229,2024,2024,2883,3348,3370,3202,3326,3062,2899,3024,2955,3115,2749,3320,3346,3183,3268,2912,3255,3314,3048,0.009994528,1.199996209,1.19934336,0.680678427219,4500.0,0.654048621655,-0.00367828411981,-0.0266297664493,119.833946228,1.34390354156,6000.0,1.32995092869,-0.0194448847324,-0.0139525551349,89.6962432861,0.349065840244,0.0216827709228,0.00838317722082,0.000825569266453,-0.00270435446873,-0.00270435446873,-0.000556128798053,0.00777985714376,1.17730867863,1.17730867863,-1.11041367054,-1.92240190506,2019,2038,2548,2048,2048,2917,3421,3420,3235,3360,3085,3046,3152,3142,3234,2847,3399,3408,3238,3360,3124,3348,3383,3189
1508406143077619178,121,1508406143077377197,plot_matl,0.0,0.0,1.40129846432e-45,4.59163467805e-41,-1.63826270466e+17,4.55870416414e-41,0.349065840244,0.30498278141,1.32997655869,-0.00350192026235,-0.00252741994336,-0.00252741994336,-0.0199496243149,-0.00740758050233,-95.2832870483,-95.2832870483,-131.489700317,0.0754878595471,2753,1353,2229,2024,2024,2892,3348,3367,3199,3328,3071,2897,3025,2954,3117,2749,3320,3346,3183,3268,2912,3255,3314,3048,0.009994728,1.209991006,1.209362088,0.680678427219,4500.0,0.654048621655,-0.0039384146221,-0.0266297664493,119.833946228,1.34390354156,6000.0,1.32991266251,-0.0187106542289,-0.0139908082783,89.7791519165,0.349065840244,0.0216827709228,0.00838317722082,0.000825569266453,-0.00270435446873,-0.00270435446873,-0.000556128798053,0.00777985714376,1.17730867863,1.17730867863,-1.11041367054,-1.92240190506,2034,2041,2548,2048,2048,2917,3420,3421,3236,3360,3083,3047,3153,3143,3233,2847,3399,3408,3238,3360,3124,3348,3383,3189
1508406143087737004,122,1508406143087392997,plot_matl,0.0,0.0,1.40129846432e-45,4.59163467805e-41,-1.63826270466e+17,4.55870416414e-41,0.349065840244,0.30498278141,1.32991266251,-0.00349417934194,-0.00181886728387,-0.00181886728387,-0.0187533330172,-0.00754369935021,-95.401473999,-95.401473999,-131.687362671,-0.218296378851,2697,1266,2224,2024,2024,2892,3348,3367,3199,3328,3071,2897,3025,2954,3117,2756,3319,3345,3180,3268,2919,3255,3315,3047,0.010016613,1.220007432,1.222026786,0.680678427219,4500.0,0.655398130417,0.0240801051259,-0.025280283764,113.761283875,1.34390354156,6000.0,1.32995355129,-0.0195277500898,-0.0139499912038,89.157913208,0.349065840244,0.0216827709228,0.0083811301738,0.000886979571078,0.000381720572477,0.000381720572477,-0.000527189171407,0.00653376989067,1.03498268127,1.03498268127,-0.222547262907,-1.59817481041,2039,2052,2547,2048,2048,2917,3420,3421,3236,3360,3083,3047,3153,3143,3233,2847,3402,3409,3239,3363,3125,3348,3386,3190
1508406143097714329,123,1508406143097397716,plot_matl,0.0,0.0,1.40129846432e-45,4.59163467805e-41,-1.63826270466e+17,4.55870416414e-41,0.349065840244,0.30498278141,1.32991266251,-0.00349417934194,-0.00181886728387,-0.00181886728387,-0.0187533330172,-0.00754369935021,-95.401473999,-95.401473999,-131.687362671,-0.218296378851,2702,1277,2224,2024,2024,2879,3350,3371,3200,3327,3063,2897,3025,2954,3117,2756,3319,3345,3180,3268,2919,3255,3315,3047,0.010004819,1.230012518,1.230592737,0.680678427219,4500.0,0.654048621655,-0.00166098994669,-0.0266297664493,119.833946228,1.34390354156,6000.0,1.33002281189,0.0181360803545,-0.0138806551695,78.4172744751,0.349065840244,0.0216827709228,0.0083811301738,0.000886979571078,0.000381720572477,0.000381720572477,-0.000527189171407,0.00653376989067,1.03498268127,1.03498268127,-0.222547262907,-1.59817481041,2026,2038,2547,2049,2049,2917,3420,3419,3236,3361,3084,3047,3152,3143,3233,2847,3402,3409,3239,3363,3125,3348,3386,3190
1508406143107708049,124,1508406143107375981,plot_matl,0.0,0.0,1.40129846432e-45,4.59163467805e-41,-1.63826270466e+17,4.55870416414e-41,0.349065840244,0.30498278141,1.32991266251,-0.00349417934194,-0.00181886728387,-0.00181886728387,-0.0187533330172,-0.00754369935021,-95.401473999,-95.401473999,-131.687362671,-0.218296378851,2799,1438,2224,2024,2024,2879,3350,3371,3200,3327,3063,2897,3025,2956,3116,2746,3323,3347,3179,3267,2914,3254,3316,3047,0.00997663,1.239990106,1.23710212,0.680678427219,4500.0,0.655398130417,0.0248948391527,-0.025280283764,113.761283875,1.34390354156,6000.0,1.32994294167,-0.019240392372,-0.0139605375007,89.7169799805,0.349065840244,0.0216827709228,0.0083811301738,0.000886979571078,0.000381720572477,0.000381720572477,-0.000527189171407,0.00653376989067,1.03498268127,1.03498268127,-0.222547262907,-1.59817481041,2023,2039,2547,2049,2049,2917,3420,3419,3236,3361,3084,3047,3152,3142,3233,2846,3401,3408,3239,3363,3124,3348,3385,3190
1508406143117749852,125,1508406143117385353,plot_matl,0.0,0.0,1.40129846432e-45,4.59163467805e-41,-1.63826270466e+17,4.55870416414e-41,0.349065840244,0.30498278141,1.32991266251,-0.00349417934194,-0.00181886728387,-0.00181886728387,-0.0187533330172,-0.00754369935021,-95.401473999,-95.401473999,-131.687362671,-0.218296378851,2817,1468,2208,2024,2024,2891,3345,3370,3201,3328,3066,2897,3025,2956,3116,2746,3323,3347,3179,3267,2914,3254,3316,3048,0.010008888,1.249999367,1.251111,0.680678427219,4500.0,0.654048621655,-0.00294677214697,-0.0266297664493,119.833946228,1.34390354156,6000.0,1.32993817329,-0.0191779583693,-0.0139653133228,89.9675292969,0.349065840244,0.0216827709228,0.0083811301738,0.000886979571078,0.000381720572477,0.000381720572477,-0.000527189171407,0.00653376989067,1.03498268127,1.03498268127,-0.222547262907,-1.59817481041,2034,2048,2547,2049,2049,2917,3420,3420,3234,3360,3086,3047,3152,3142,3233,2846,3401,3408,3239,3363,3124,3348,3385,3189
1508406143127861976,126,1508406143127426844,plot_matl,0.0,0.0,1.40129846432e-45,4.59163467805e-41,-1.63826270466e+17,4.55870416414e-41,0.349065840244,0.30498278141,1.32993888855,-0.00349746597931,-0.00186975288671,-0.00186975288671,0.019827498123,-0.00746615370736,-95.4215774536,-95.4215774536,-131.327957153,-0.0662971287966,2651,1211,2208,2024,2024,2891,3345,3370,3201,3328,3066,2899,3024,2953,3117,2755,3321,3348,3181,3269,2913,3254,3316,3048,0.010042523,1.260041425,1.265357898,0.680678427219,4500.0,0.654048621655,-0.00481459870934,-0.0266297664493,119.833946228,1.34390354156,6000.0,1.32997977734,-0.0200252123177,-0.0139237837866,89.1239852905,0.349065840244,0.0216827709228,0.00837369263172,0.000791586993728,0.00143741408829,0.00143741408829,-0.000375556264771,-0.0159436855465,1.09621679783,1.09621679783,-0.327652156353,-1.90520775318,2021,2038,2547,2049,2049,2917,3420,3420,3234,3360,3086,3048,3149,3142,3232,2845,3400,3411,3237,3360,3125,3348,3385,3189
1508406143137696229,127,1508406143137391854,plot_matl,0.0,0.0,1.40129846432e-45,4.59163467805e-41,-1.63826270466e+17,4.55870416414e-41,0.349065840244,0.30498278141,1.32993888855,-0.00349746597931,-0.00186975288671,-0.00186975288671,0.019827498123,-0.00746615370736,-95.4215774536,-95.4215774536,-131.327957153,-0.0662971287966,2651,1211,2208,2024,2024,2891,3345,3370,3201,3328,3066,2899,3024,2953,3117,2755,3321,3348,3181,3269,2913,3254,3316,3048,0.009964564,1.27000652,1.265499628,0.680678427219,4500.0,0.654048621655,-0.00481459870934,-0.0266297664493,119.833946228,1.34390354156,6000.0,1.32997977734,-0.0200252123177,-0.0139237837866,89.1239852905,0.349065840244,0.0216827709228,0.00837369263172,0.000791586993728,0.00143741408829,0.00143741408829,-0.000375556264771,-0.0159436855465,1.09621679783,1.09621679783,-0.327652156353,-1.90520775318,2021,2038,2547,2049,2049,2917,3420,3420,3234,3360,3086,3048,3149,3142,3232,2845,3400,3411,3237,3360,3125,3348,3385,3189
1508406143147726659,128,1508406143147384356,plot_matl,0.0,0.0,1.40129846432e-45,4.59163467805e-41,-1.63826270466e+17,4.55870416414e-41,0.349065840244,0.30498278141,1.32993888855,-0.00349746597931,-0.00186975288671,-0.00186975288671,0.019827498123,-0.00746615370736,-95.4215774536,-95.4215774536,-131.327957153,-0.0662971287966,2797,1433,2238,2023,2023,2885,3351,3368,3198,3327,3068,2898,3027,2958,3114,2749,3321,3345,3179,3269,2913,3255,3316,3049,0.009991664,1.279998936,1.278932992,0.680678427219,4500.0,0.655398130417,0.0221286322922,-0.025280283764,113.761283875,1.34390354156,6000.0,1.33003377914,0.0179130062461,-0.0138697270304,77.8909912109,0.349065840244,0.0216827709228,0.00837369263172,0.000791586993728,0.00143741408829,0.00143741408829,-0.000375556264771,-0.0159436855465,1.09621679783,1.09621679783,-0.327652156353,-1.90520775318,2029,2044,2547,2052,2052,2918,3419,3422,3236,3360,3084,3048,3151,3142,3234,2846,3402,3410,3238,3360,3125,3346,3383,3189
1508406143157853739,129,1508406143157408249,plot_matl,0.0,0.0,1.40129846432e-45,4.59163467805e-41,-1.63826270466e+17,4.55870416414e-41,0.349065840244,0.30498278141,1.32993888855,-0.00349746597931,-0.00186975288671,-0.00186975288671,0.019827498123,-0.00746615370736,-95.4215774536,-95.4215774536,-131.327957153,-0.0662971287966,2811,1455,2203,2022,2022,2882,3349,3368,3198,3327,3068,2898,3027,2958,3114,2749,3321,3345,3179,3267,2918,3254,3319,3050,0.010023658,1.290022814,1.293051882,0.680678427219,4500.0,0.654048621655,-0.00413418142125,-0.0266297664493,119.833946228,1.34390354156,6000.0,1.33012592793,0.016056837514,-0.0137775372714,77.7451934814,0.349065840244,0.0216827709228,0.00837369263172,0.000791586993728,0.00143741408829,0.00143741408829,-0.000375556264771,-0.0159436855465,1.09621679783,1.09621679783,-0.327652156353,-1.90520775318,2020,2041,2547,2051,2051,2918,3419,3422,3236,3360,3084,3048,3151,3142,3234,2846,3402,3410,3238,3361,3123,3347,3382,3189
1508406143167871663,130,1508406143167420569,plot_matl,0.0,0.0,1.40129846432e-45,4.59163467805e-41,-1.63826270466e+17,4.55870416414e-41,0.349065840244,0.30633226037,1.33018708229,-0.00349578703754,0.0119589501992,0.0119589501992,0.0148226274177,0.00225859810598,-95.5015029907,-95.5015029907,-131.392364502,-0.124796099961,2811,1455,2203,2022,2022,2882,3349,3368,3198,3327,3068,2898,3027,2958,3114,2749,3321,3345,3179,3267,2918,3254,3319,3050,0.010012321,1.300035016,1.30160173,0.680678427219,4500.0,0.654048621655,-0.00413418142125,-0.0266297664493,119.833946228,1.34390354156,6000.0,1.33012592793,0.016056837514,-0.0137775372714,77.7451934814,0.349065840244,0.0216827709228,0.00837148912251,0.000754914362915,0.00231382367201,0.00231382367201,-0.00031875143759,0.00924141611904,0.985065639019,0.985065639019,-1.48692774773,-1.73302233219,2020,2041,2547,2051,2051,2918,3419,3422,3236,3360,3084,3048,3151,3142,3234,2846,3402,3410,3238,3361,3123,3347,3382,3189
1508406143177842281,131,1508406143177414852,plot_matl,0.0,0.0,1.40129846432e-45,4.59163467805e-41,-1.63826270466e+17,4.55870416414e-41,0.349065840244,0.30633226037,1.33018708229,-0.00349578703754,0.0119589501992,0.0119589501992,0.0148226274177,0.00225859810598,-95.5015029907,-95.5015029907,-131.392364502,-0.124796099961,2248,830,2203,2022,2022,2882,3349,3371,3201,3326,3061,2912,3037,2969,3126,2755,3331,3345,3179,3267,2918,3254,3319,3050,0.009994677,1.310029683,1.309302687,0.680678427219,4500.0,0.654048621655,-0.00196940149181,-0.0266297664493,119.833946228,1.34390354156,6000.0,1.33000326157,0.0186832770705,-0.013900292106,77.8680877686,0.349065840244,0.0216827709228,0.00837148912251,0.000754914362915,0.00231382367201,0.00231382367201,-0.00031875143759,0.00924141611904,0.985065639019,0.985065639019,-1.48692774773,-1.73302233219,2030,2051,2547,2051,2051,2918,3419,3421,3234,3360,3083,3061,3164,3154,3242,2856,3410,3410,3238,3361,3123,3347,3382,3189
1508406143187766773,132,1508406143187383259,plot_matl,0.0,0.0,1.40129846432e-45,4.59163467805e-41,-1.63826270466e+17,4.55870416414e-41,0.349065840244,0.30633226037,1.33018708229,-0.00349578703754,0.0119589501992,0.0119589501992,0.0148226274177,0.00225859810598,-95.5015029907,-95.5015029907,-131.392364502,-0.124796099961,2147,773,2222,2024,2024,2882,3349,3371,3201,3326,3061,2912,3037,2969,3126,2755,3331,3357,3191,3273,2918,3262,3324,3053,0.009967981,1.31999806,1.315773492,0.680678427219,4500.0,0.654048621655,-0.00255785323679,-0.0266297664493,119.833946228,1.34390354156,6000.0,1.32988882065,-0.0181731302291,-0.0140146566555,89.2190551758,0.349065840244,0.0216827709228,0.00837148912251,0.000754914362915,0.00231382367201,0.00231382367201,-0.00031875143759,0.00924141611904,0.985065639019,0.985065639019,-1.48692774773,-1.73302233219,2047,2066,2547,2051,2051,2918,3419,3421,3234,3360,3083,3061,3164,3154,3242,2856,3410,3418,3243,3367,3130,3354,3388,3197
1508406143197808351,133,1508406143197389316,plot_matl,0.0,0.0,1.40129846432e-45,4.59163467805e-41,-1.63826270466e+17,4.55870416414e-41,0.349065840244,0.30633226037,1.33018708229,-0.00349578703754,0.0119589501992,0.0119589501992,0.0148226274177,0.00225859810598,-95.5015029907,-95.5015029907,-131.392364502,-0.124796099961,2282,848,2222,2024,2024,2895,3351,3372,3203,3331,3073,2900,3025,2956,3117,2755,3331,3357,3191,3273,2918,3262,3324,3053,0.010004559,1.330003667,1.330606347,0.680678427219,4500.0,0.655398130417,0.0251696873456,-0.025280283764,113.761283875,1.34390354156,6000.0,1.32990419865,0.0206512100995,-0.0139993559569,77.7523880005,0.349065840244,0.0216827709228,0.00837148912251,0.000754914362915,0.00231382367201,0.00231382367201,-0.00031875143759,0.00924141611904,0.985065639019,0.985065639019,-1.48692774773,-1.73302233219,2023,2042,2547,2051,2051,2920,3424,3422,3240,3361,3086,3048,3154,3145,3237,2856,3410,3418,3243,3367,3130,3354,3388,3197
1508406143207960620,134,1508406143207464846,plot_matl,0.0,0.0,1.40129846432e-45,4.59163467805e-41,-1.63826270466e+17,4.55870416414e-41,0.349065840244,0.30498278141,1.32989025116,-0.00354143767618,-0.00115208199713,-0.00115208199713,0.0209117755294,-0.0065732751973,-95.3011779785,-95.3011779785,-131.511047363,-0.071785390377,2299,863,2230,2024,2024,2895,3351,3372,3203,3331,3073,2900,3025,2956,3117,2757,3321,3345,3181,3269,2918,3258,3318,3047,0.010076262,1.340079302,1.350219108,0.680678427219,4500.0,0.655398130417,0.0245379842818,-0.025280283764,113.761283875,1.34390354156,6000.0,1.32987606525,-0.0178563948721,-0.014027508907,89.6642532349,0.349065840244,0.0216827709228,0.00834320019931,0.000661465746816,-0.000127030376461,-0.000127030376461,0.00025454844581,-0.0132980151102,1.19034767151,1.19034767151,-1.57965672016,-1.41405832767,2023,2040,2547,2051,2051,2920,3424,3422,3240,3361,3086,3048,3154,3145,3237,2847,3402,3412,3238,3365,3127,3349,3385,3190
1508406143217583201,135,1508406143217382061,plot_matl,0.0,0.0,1.40129846432e-45,4.59163467805e-41,-1.63826270466e+17,4.55870416414e-41,0.349065840244,0.30498278141,1.32989025116,-0.00354143767618,-0.00115208199713,-0.00115208199713,0.0209117755294,-0.0065732751973,-95.3011779785,-95.3011779785,-131.511047363,-0.071785390377,2255,850,2230,2021,2021,2882,3351,3372,3201,3326,3065,2897,3026,2956,3117,2757,3321,3345,3181,3269,2918,3258,3318,3047,0.009914832,1.349996044,1.33850232,0.680678427219,4500.0,0.654048621655,-0.00223037647083,-0.0266297664493,119.833946228,1.34390354156,6000.0,1.32991969585,0.0203297752887,-0.0139838093892,77.6814727783,0.349065840244,0.0216827709228,0.00834320019931,0.000661465746816,-0.000127030376461,-0.000127030376461,0.00025454844581,-0.0132980151102,1.19034767151,1.19034767151,-1.57965672016,-1.41405832767,2035,2066,2547,2044,2044,2917,3421,3422,3235,3361,3086,3047,3151,3145,3237,2847,3402,3412,3238,3365,3127,3349,3385,3190
1508406143227543551,136,1508406143227363118,plot_matl,0.0,0.0,1.40129846432e-45,4.59163467805e-41,-1.63826270466e+17,4.55870416414e-41,0.349065840244,0.30498278141,1.32989025116,-0.00354143767618,-0.00115208199713,-0.00115208199713,0.0209117755294,-0.0065732751973,-95.3011779785,-95.3011779785,-131.511047363,-0.071785390377,2139,758,2230,2021,2021,2882,3351,3372,3201,3326,3065,2897,3026,2958,3118,2744,3325,3349,3183,3268,2915,3255,3317,3047,0.00998014,1.35997681,1.35729904,0.680678427219,4500.0,0.654048621655,-0.00178396387491,-0.0266297664493,119.833946228,1.34390354156,6000.0,1.32992267609,-0.0188398677856,-0.0139808598906,89.3517684937,0.349065840244,0.0216827709228,0.00834320019931,0.000661465746816,-0.000127030376461,-0.000127030376461,0.00025454844581,-0.0132980151102,1.19034767151,1.19034767151,-1.57965672016,-1.41405832767,2043,2058,2547,2044,2044,2917,3421,3422,3235,3361,3086,3047,3151,3142,3235,2848,3401,3411,3238,3363,3126,3348,3385,3190
1508406143237571069,137,1508406143237375184,plot_matl,0.0,0.0,1.40129846432e-45,4.59163467805e-41,-1.63826270466e+17,4.55870416414e-41,0.349065840244,0.30498278141,1.32989025116,-0.00354143767618,-0.00115208199713,-0.00115208199713,0.0209117755294,-0.0065732751973,-95.3011779785,-95.3011779785,-131.511047363,-0.071785390377,2293,860,2204,2021,2021,2886,3347,3370,3200,3326,3063,2897,3026,2958,3118,2744,3325,3349,3183,3268,2915,3255,3317,3051,0.010011931,1.369988574,1.371634547,0.680678427219,4500.0,0.654048621655,-0.00245851813816,-0.0266297664493,119.833946228,1.34390354156,6000.0,1.32988512516,-0.0181757360697,-0.0140183586627,89.748588562,0.349065840244,0.0216827709228,0.00834320019931,0.000661465746816,-0.000127030376461,-0.000127030376461,0.00025454844581,-0.0132980151102,1.19034767151,1.19034767151,-1.57965672016,-1.41405832767,2012,2040,2547,2045,2045,2917,3420,3420,3235,3361,3086,3047,3151,3142,3235,2848,3401,3411,3238,3363,3126,3348,3385,3189
1508406143247558646,138,1508406143247367338,plot_matl,0.0,0.0,1.40129846432e-45,4.59163467805e-41,-1.63826270466e+17,4.55870416414e-41,0.349065840244,0.30633226037,1.32987272739,-0.00349206547253,0.012039870955,0.012039870955,-0.0179273039103,0.00217664218508,-95.7939376831,-95.7939376831,-131.926864624,-0.254556834698,2177,776,2204,2021,2021,2886,3347,3370,3200,3326,3063,2897,3023,2954,3118,2753,3320,3346,3181,3268,2912,3255,3317,3051,0.009992655,1.379981194,1.37898639,0.680678427219,4500.0,0.654048621655,-0.00299475691281,-0.0266297664493,119.833946228,1.34390354156,6000.0,1.32985913754,-0.0176438670605,-0.0140443537384,89.5287094116,0.349065840244,0.0216827709228,0.00835894141346,0.000730627740268,0.000544675101992,0.000544675101992,-6.99705560692e-05,0.00969770178199,1.14082813263,1.14082813263,-1.43274343014,-1.2872313261,2028,2050,2547,2045,2045,2917,3420,3420,3235,3361,3086,3048,3151,3143,3232,2846,3402,3408,3238,3362,3126,3348,3385,3189
1508406143257802997,139,1508406143257392798,plot_matl,0.0,0.0,1.40129846432e-45,4.59163467805e-41,-1.63826270466e+17,4.55870416414e-41,0.349065840244,0.30633226037,1.32987272739,-0.00349206547253,0.012039870955,0.012039870955,-0.0179273039103,0.00217664218508,-95.7939376831,-95.7939376831,-131.926864624,-0.254556834698,2226,823,2238,2020,2020,2889,3349,3369,3199,3326,3063,2897,3023,2954,3118,2753,3320,3346,3181,3268,2912,3255,3316,3047,0.010026599,1.390007413,1.393697261,0.680678427219,4500.0,0.655398130417,0.024759799242,-0.025280283764,113.761283875,1.34390354156,6000.0,1.32984292507,0.0217785425484,-0.0140605829656,77.8492279053,0.349065840244,0.0216827709228,0.00835894141346,0.000730627740268,0.000544675101992,0.000544675101992,-6.99705560692e-05,0.00969770178199,1.14082813263,1.14082813263,-1.43274343014,-1.2872313261,2030,2053,2547,2044,2044,2918,3421,3421,3237,3361,3086,3048,3151,3143,3232,2846,3402,3408,3238,3362,3126,3347,3383,3191
1508406143267672735,140,1508406143267388945,plot_matl,0.0,0.0,1.40129846432e-45,4.59163467805e-41,-1.63826270466e+17,4.55870416414e-41,0.349065840244,0.30633226037,1.32987272739,-0.00349206547253,0.012039870955,0.012039870955,-0.0179273039103,0.00217664218508,-95.7939376831,-95.7939376831,-131.926864624,-0.254556834698,2256,838,2238,2020,2020,2889,3349,3369,3199,3328,3069,2897,3026,2958,3116,2751,3321,3345,3179,3268,2912,3255,3316,3047,0.009994877,1.400002939,1.39928278,0.680678427219,4500.0,0.654048621655,-0.00249180127867,-0.0266297664493,119.833946228,1.34390354156,6000.0,1.32990634441,0.0204945523292,-0.0139971207827,77.8326721191,0.349065840244,0.0216827709228,0.00835894141346,0.000730627740268,0.000544675101992,0.000544675101992,-6.99705560692e-05,0.00969770178199,1.14082813263,1.14082813263,-1.43274343014,-1.2872313261,2027,2047,2547,2044,2044,2918,3421,3421,3237,3360,3085,3048,3150,3142,3234,2846,3400,3410,3238,3362,3126,3347,3383,3191
1508406143277543011,141,1508406143277367986,plot_matl,0.0,0.0,1.40129846432e-45,4.59163467805e-41,-1.63826270466e+17,4.55870416414e-41,0.349065840244,0.30633226037,1.32987272739,-0.00349206547253,0.012039870955,0.012039870955,-0.0179273039103,0.00217664218508,-95.7939376831,-95.7939376831,-131.926864624,-0.254556834698,2277,855,2208,2022,2022,2881,3348,3369,3199,3328,3069,2897,3026,2958,3116,2751,3321,3345,3179,3269,2919,3254,3318,3049,0.009978313,1.409981491,1.406942133,0.680678427219,4500.0,0.654048621655,-0.00162351736799,-0.0266297664493,119.833946228,1.34390354156,6000.0,1.3298766613,-0.0180586688221,-0.0140268430114,89.604598999,0.349065840244,0.0216827709228,0.00835894141346,0.000730627740268,0.000544675101992,0.000544675101992,-6.99705560692e-05,0.00969770178199,1.14082813263,1.14082813263,-1.43274343014,-1.2872313261,2032,2049,2547,2045,2045,2917,3421,3421,3237,3360,3085,3048,3150,3142,3234,2846,3400,3410,3238,3361,3126,3349,3384,3189
1508406143287795585,142,1508406143287381744,plot_matl,0.0,0.0,1.40129846432e-45,4.59163467805e-41,-1.63826270466e+17,4.55870416414e-41,0.349065840244,0.30498278141,1.32983505726,-0.00351505470462,-0.000715616159141,-0.000715616159141,-0.0171873476356,0.00261709932238,-96.0420913696,-96.0420913696,-131.965255737,-0.206910923123,2306,874,2208,2022,2022,2881,3348,3373,3200,3326,3062,2898,3023,2956,3115,2747,3323,3345,3179,3269,2919,3254,3318,3049,0.010014401,1.419995994,1.422044942,0.680678427219,4500.0,0.654048621655,-0.000318025849992,-0.0266297664493,119.833946228,1.34390354156,6000.0,1.32985699177,-0.0176620334387,-0.0140465097502,89.97996521,0.349065840244,0.0216827709228,0.00836944300681,0.000674562645145,0.001579281874,0.001579281874,-0.000280788488453,0.0108152460307,0.964542269707,0.964542269707,-1.54071879387,-0.884514331818,2039,2048,2547,2045,2045,2917,3421,3418,3236,3358,3085,3047,3152,3142,3235,2845,3401,3410,3238,3361,3126,3349,3384,3189
1508406143297570057,143,1508406143297364728,plot_matl,0.0,0.0,1.40129846432e-45,4.59163467805e-41,-1.63826270466e+17,4.55870416414e-41,0.349065840244,0.30498278141,1.32983505726,-0.00351505470462,-0.000715616159141,-0.000715616159141,-0.0171873476356,0.00261709932238,-96.0420913696,-96.0420913696,-131.965255737,-0.206910923123,2320,887,2221,2017,2017,2881,3348,3373,3200,3326,3062,2898,3023,2956,3115,2747,3323,3348,3182,3268,2912,3254,3316,3049,0.00998146,1.429978205,1.42734878,0.680678427219,4500.0,0.654048621655,-0.000340555096045,-0.0266297664493,119.833946228,1.34390354156,6000.0,1.32989871502,-0.0186205152422,-0.0140048451722,89.5112915039,0.349065840244,0.0216827709228,0.00836944300681,0.000674562645145,0.001579281874,0.001579281874,-0.000280788488453,0.0108152460307,0.964542269707,0.964542269707,-1.54071879387,-0.884514331818,2034,2046,2547,2047,2047,2917,3421,3418,3236,3358,3085,3047,3152,3142,3235,2845,3401,3409,3236,3363,3125,3348,3383,3189
1508406143307779168,144,1508406143307405566,plot_matl,0.0,0.0,1.40129846432e-45,4.59163467805e-41,-1.63826270466e+17,4.55870416414e-41,0.349065840244,0.30498278141,1.32983505726,-0.00351505470462,-0.000715616159141,-0.000715616159141,-0.0171873476356,0.00261709932238,-96.0420913696,-96.0420913696,-131.965255737,-0.206910923123,2233,827,2221,2017,2017,2892,3348,3368,3200,3329,3069,2899,3024,2954,3116,2747,3323,3348,3182,3268,2912,3254,3316,3049,0.010042337,1.440020127,1.446096528,0.680678427219,4500.0,0.654048621655,0.000654583855066,-0.0266297664493,119.833946228,1.34390354156,6000.0,1.32983970642,-0.0174118932337,-0.0140638519078,89.5218887329,0.349065840244,0.0216827709228,0.00836944300681,0.000674562645145,0.001579281874,0.001579281874,-0.000280788488453,0.0108152460307,0.964542269707,0.964542269707,-1.54071879387,-0.884514331818,2032,2052,2547,2047,2047,2917,3420,3421,3237,3360,3086,3045,3152,3142,3234,2845,3401,3409,3236,3363,3125,3348,3383,3189
1508406143317697679,145,1508406143317428732,plot_matl,0.0,0.0,1.40129846432e-45,4.59163467805e-41,-1.63826270466e+17,4.55870416414e-41,0.349065840244,0.30498278141,1.32983505726,-0.00351505470462,-0.000715616159141,-0.000715616159141,-0.0171873476356,0.00261709932238,-96.0420913696,-96.0420913696,-131.965255737,-0.206910923123,2263,854,2230,2017,2017,2892,3348,3368,3200,3329,3069,2899,3024,2954,3116,2755,3318,3344,3179,3268,2917,3258,3319,3048,0.010023418,1.450043689,1.45339561,0.680678427219,4500.0,0.655398130417,0.0272664595395,-0.025280283764,113.761283875,1.34390354156,6000.0,1.32985985279,-0.0177517142147,-0.014043697156,89.4688415527,0.349065840244,0.0216827709228,0.00836944300681,0.000674562645145,0.001579281874,0.001579281874,-0.000280788488453,0.0108152460307,0.964542269707,0.964542269707,-1.54071879387,-0.884514331818,2041,2055,2547,2047,2047,2917,3420,3421,3237,3360,3086,3045,3152,3142,3234,2847,3400,3410,3237,3360,3125,3349,3385,3189
1508406143327886484,146,1508406143327441711,plot_matl,0.0,0.0,1.40129846432e-45,4.59163467805e-41,-1.63826270466e+17,4.55870416414e-41,0.349065840244,0.30363330245,1.32988357544,-0.00349678331986,-0.013092905283,-0.013092905283,-0.0182864367962,0.0022684247233,-96.1967697144,-96.1967697144,-132.098205566,-0.0918769687414,2271,851,2230,2018,2018,2881,3353,3372,3197,3326,3064,2897,3026,2954,3116,2755,3318,3344,3179,3268,2917,3258,3319,3048,0.010013159,1.460056853,1.461921214,0.680678427219,4500.0,0.654048621655,0.00102331070229,-0.0266297664493,119.833946228,1.34390354156,6000.0,1.32983267307,-0.0172494519502,-0.0140708573163,89.3353500366,0.349065840244,0.0216827709228,0.00837572105229,0.000671123329084,0.00144092738628,0.00144092738628,-0.000422841781983,0.0108952810988,0.90623742342,0.90623742342,-1.54895544052,-1.2465171814,2035,2050,2547,2044,2044,2917,3420,3420,3237,3360,3086,3049,3151,3142,3234,2847,3400,3410,3237,3360,3125,3349,3385,3189
1508406143337792037,147,1508406143337430434,plot_matl,0.0,0.0,1.40129846432e-45,4.59163467805e-41,-1.63826270466e+17,4.55870416414e-41,0.349065840244,0.30363330245,1.32988357544,-0.00349678331986,-0.013092905283,-0.013092905283,-0.0182864367962,0.0022684247233,-96.1967697144,-96.1967697144,-132.098205566,-0.0918769687414,2309,882,2230,2018,2018,2881,3353,3372,3197,3326,3064,2897,3026,2958,3116,2745,3324,3346,3178,3266,2917,3254,3317,3048,0.009986267,1.470044067,1.467981249,0.680678427219,4500.0,0.652699172497,-0.0254519749433,-0.027979247272,125.906616211,1.34390354156,6000.0,1.32992577553,0.0200201179832,-0.0139777893201,77.4196090698,0.349065840244,0.0216827709228,0.00837572105229,0.000671123329084,0.00144092738628,0.00144092738628,-0.000422841781983,0.0108952810988,0.90623742342,0.90623742342,-1.54895544052,-1.2465171814,2029,2043,2547,2044,2044,2917,3420,3420,3237,3360,3086,3049,3151,3142,3233,2845,3401,3409,3237,3361,3125,3348,3384,3189
1508406143347622697,148,1508406143347402610,plot_matl,0.0,0.0,1.40129846432e-45,4.59163467805e-41,-1.63826270466e+17,4.55870416414e-41,0.349065840244,0.30363330245,1.32988357544,-0.00349678331986,-0.013092905283,-0.013092905283,-0.0182864367962,0.0022684247233,-96.1967697144,-96.1967697144,-132.098205566,-0.0918769687414,2211,816,2203,2018,2018,2887,3347,3370,3202,3328,3064,2897,3026,2958,3116,2745,3324,3346,3178,3266,2917,3254,3317,3050,0.009971627,1.480016401,1.475800796,0.680678427219,4500.0,0.654048621655,0.00246510724537,-0.0266297664493,119.833946228,1.34390354156,6000.0,1.32999551296,0.0186092294753,-0.0139079745859,77.9691314697,0.349065840244,0.0216827709228,0.00837572105229,0.000671123329084,0.00144092738628,0.00144092738628,-0.000422841781983,0.0108952810988,0.90623742342,0.90623742342,-1.54895544052,-1.2465171814,2031,2054,2547,2044,2044,2917,3420,3421,3234,3362,3085,3049,3151,3142,3233,2845,3401,3409,3237,3361,3125,3348,3384,3189
1508406143357706172,149,1508406143357393376,plot_matl,0.0,0.0,1.40129846432e-45,4.59163467805e-41,-1.63826270466e+17,4.55870416414e-41,0.349065840244,0.30363330245,1.32988357544,-0.00349678331986,-0.013092905283,-0.013092905283,-0.0182864367962,0.0022684247233,-96.1967697144,-96.1967697144,-132.098205566,-0.0918769687414,2267,851,2203,2018,2018,2887,3347,3370,3202,3328,3064,2898,3024,2953,3118,2753,3319,3345,3182,3267,2912,3254,3317,3050,0.009991811,1.490008192,1.488779839,0.680678427219,4500.0,0.654048621655,0.00205681635998,-0.0266297664493,119.833946228,1.34390354156,6000.0,1.32999277115,0.0186764597893,-0.0139107881114,77.8501663208,0.349065840244,0.0216827709228,0.00837572105229,0.000671123329084,0.00144092738628,0.00144092738628,-0.000422841781983,0.0108952810988,0.90623742342,0.90623742342,-1.54895544052,-1.2465171814,2039,2053,2547,2044,2044,2917,3420,3421,3234,3362,3085,3048,3151,3141,3233,2847,3401,3411,3237,3360,3126,3348,3384,3189
1508406143367834457,150,1508406143367430862,plot_matl,0.0,0.0,1.40129846432e-45,4.59163467805e-41,-1.63826270466e+17,4.55870416414e-41,0.349065840244,0.30498278141,1.33000361919,-0.00347400596365,0.000892536831088,0.000892536831088,-0.0206083562225,0.00180531607475,-96.3386001587,-96.3386001587,-131.620117188,-0.352108985186,2278,854,2239,2017,2017,2888,3350,3368,3199,3328,3064,2898,3024,2953,3118,2753,3319,3345,3182,3267,2912,3255,3317,3048,0.010036976,1.500045407,1.5055464,0.680678427219,4500.0,0.652699172497,-0.0250399559736,-0.027979247272,125.906616211,1.34390354156,6000.0,1.33002030849,0.0181385595351,-0.0138832544908,77.8291473389,0.349065840244,0.0192735753953,0.00836792401969,0.000723927572835,-0.0237812846899,-0.0237812846899,0.015097046271,0.00985046848655,0.822875320911,0.822875320911,-1.11900031567,-1.19558608532,2027,2050,2547,2049,2049,2916,3420,3418,3235,3362,3085,3048,3151,3141,3233,2847,3401,3411,3237,3360,3126,3348,3385,3191
1508406143377676461,151,1508406143377390015,plot_matl,0.0,0.0,1.40129846432e-45,4.59163467805e-41,-1.63826270466e+17,4.55870416414e-41,0.349065840244,0.30498278141,1.33000361919,-0.00347400596365,0.000892536831088,0.000892536831088,-0.0206083562225,0.00180531607475,-96.3386001587,-96.3386001587,-131.620117188,-0.352108985186,2306,871,2239,2017,2017,2888,3350,3368,3199,3328,3073,2895,3026,2956,3116,2751,3322,3346,3179,3267,2912,3255,3317,3048,0.009958782,1.510004287,1.503776082,0.680678427219,4500.0,0.654048621655,0.0022640042007,-0.0266297664493,119.833946228,1.34390354156,6000.0,1.3300447464,0.0176578443497,-0.0138588324189,77.8846511841,0.349065840244,0.0192735753953,0.00836792401969,0.000723927572835,-0.0237812846899,-0.0237812846899,0.015097046271,0.00985046848655,0.822875320911,0.822875320911,-1.11900031567,-1.19558608532,2027,2050,2547,2049,2049,2916,3420,3418,3235,3361,3086,3046,3151,3142,3235,2846,3402,3410,3237,3360,3126,3348,3385,3191
1508406143387664218,152,1508406143387372664,plot_matl,0.0,0.0,1.40129846432e-45,4.59163467805e-41,-1.63826270466e+17,4.55870416414e-41,0.349065840244,0.30498278141,1.33000361919,-0.00347400596365,0.000892536831088,0.000892536831088,-0.0206083562225,0.00180531607475,-96.3386001587,-96.3386001587,-131.620117188,-0.352108985186,2341,903,2209,2015,2015,2880,3348,3368,3199,3328,3073,2895,3026,2956,3116,2751,3322,3346,3179,3270,2918,3255,3321,3050,0.00998152,1.519986481,1.51719104,0.680678427219,4500.0,0.655398130417,0.0285982582718,-0.025280283764,113.761283875,1.34390354156,6000.0,1.33017098904,0.0151025298983,-0.0137325096875,77.8587799072,0.349065840244,0.0192735753953,0.00836792401969,0.000723927572835,-0.0237812846899,-0.0237812846899,0.015097046271,0.00985046848655,0.822875320911,0.822875320911,-1.11900031567,-1.19558608532,2038,2060,2547,2043,2043,2916,3418,3418,3235,3361,3086,3046,3151,3142,3235,2846,3402,3410,3237,3363,3123,3349,3385,3188
