%time,field.header.seq,field.header.stamp,field.header.frame_id,field.FFJ4_set_point,field.FFJ4_position_gain,field.FFJ4_process_value,field.FFJ4_process_value_dot,field.FFJ4_error,field.FFJ4_command,field.FFJ1,field.FFJ2,field.FFJ3,field.FFJ4,field.FFJ1_dot,field.FFJ2_dot,field.FFJ3_dot,field.FFJ4_dot,field.FFJ1_tao,field.FFJ2_tao,field.FFJ3_tao,field.FFJ4_tao,field.pac0,field.pac1,field.pdc0,field.tac0,field.tdc0,field.el0,field.el1,field.el2,field.el3,field.el4,field.el5,field.el6,field.el7,field.el8,field.el9,field.el10,field.el11,field.el12,field.el13,field.el14,field.el15,field.el16,field.el17,field.el18,field.dt,field.time,field.test_time2,field.FFJ0_set_point,field.FFJ0_position_gain,field.FFJ0_process_value,field.FFJ0_process_value_dot,field.FFJ0_error,field.FFJ0_command,field.FFJ3_set_point,field.FFJ3_position_gain,field.FFJ3_process_value,field.FFJ3_process_value_dot,field.FFJ3_error,field.FFJ3_command,field.MFJ1,field.MFJ2,field.MFJ3,field.MFJ4,field.MFJ1_dot,field.MFJ2_dot,field.MFJ3_dot,field.MFJ4_dot,field.MFJ1_tao,field.MFJ2_tao,field.MFJ3_tao,field.MFJ4_tao,field.Mpac0,field.Mpac1,field.Mpdc0,field.Mtac0,field.Mtdc0,field.Mel0,field.Mel1,field.Mel2,field.Mel3,field.Mel4,field.Mel5,field.Mel6,field.Mel7,field.Mel8,field.Mel9,field.Mel10,field.Mel11,field.Mel12,field.Mel13,field.Mel14,field.Mel15,field.Mel16,field.Mel17,field.Mel18
1508406200612139308,73,1508406200611615179,plot_matl,0.0,0.0,1.40129846432e-45,4.59163467805e-41,8.20537463009e+24,4.5603857223e-41,0.349065840244,0.30363330245,1.33035969734,-0.00343793863431,-0.0107292868197,-0.0107292868197,0.011342712678,0.00109379156493,-96.2942657471,-96.2942657471,-127.764221191,-0.460360854864,1843,1602,2214,2046,2046,2893,3365,3382,3222,3331,3064,2899,3029,2960,3122,2745,3334,3358,3198,3277,2928,3265,3323,3053,0.01003848,0.730033195,0.73280904,0.680678427219,4500.0,0.654048621655,0.00513707892969,-0.0266297664493,119.833946228,1.34390354156,6000.0,1.33023715019,-0.0252634901553,-0.0136663308367,90.0918960571,0.349065840244,0.0216827709228,0.00847337301821,0.000953446316998,-0.0090002361685,-0.0090002361685,-0.00238447054289,0.00519870826975,0.861752331257,0.861752331257,-0.112374298275,-1.34058916569,2025,1967,2551,2033,2033,2905,3410,3413,3230,3350,3075,3037,3141,3133,3225,2841,3396,3403,3233,3356,3118,3339,3374,3180
1508406200622231835,74,1508406200621645582,plot_matl,0.0,0.0,1.40129846432e-45,4.59163467805e-41,8.20537463009e+24,4.5603857223e-41,0.349065840244,0.30363330245,1.33017551899,-0.00342857115902,-0.0107162911445,-0.0107162911445,-0.0240375827998,0.000902698549908,-96.2008209229,-96.2008209229,-127.949142456,-0.427033722401,1789,1650,2214,2046,2046,2893,3365,3382,3221,3331,3063,2897,3027,2960,3121,2745,3332,3355,3198,3277,2928,3265,3323,3053,0.010030664,0.740063844,0.742269136,0.680678427219,4500.0,0.654048621655,0.00576749444008,-0.0266297664493,119.833946228,1.34390354156,6000.0,1.33011484146,-0.0227860920131,-0.0137886945158,89.4871902466,0.349065840244,0.0216827709228,0.0084519200027,0.000971541274339,-0.00736494269222,-0.00736494269222,-0.00195122533478,-0.0196683015674,0.889600634575,0.889600634575,-0.164878249168,-1.33180713654,2006,1975,2551,2033,2033,2905,3410,3413,3228,3350,3074,3036,3139,3132,3224,2840,3393,3402,3233,3356,3118,3339,3374,3180
1508406200631916024,75,1508406200631639768,plot_matl,0.0,0.0,1.40129846432e-45,4.59163467805e-41,8.20537463009e+24,4.5603857223e-41,0.349065840244,0.30498278141,1.33013761044,-0.00343687622808,0.00266661052592,0.00266661052592,0.0157907325774,0.00108018517494,-96.239151001,-96.239151001,-127.885948181,-0.453444212675,1822,1663,2213,2045,2045,2893,3365,3382,3221,3331,3063,2897,3027,2960,3121,2745,3332,3355,3195,3277,2928,3265,3321,3051,0.009994306,0.7500584,0.74957295,0.680678427219,4500.0,0.652699172497,-0.0209489837289,-0.027979247272,125.906616211,1.34390354156,6000.0,1.33011579514,0.0162176918238,-0.0137877259403,77.8455352783,0.349065840244,0.0240919683129,0.00843449216336,0.000931593473069,0.0169622190297,0.0169622190297,-0.00159928144421,0.00565523281693,0.833337366581,0.833337366581,-0.172745004296,-1.33950984478,2016,1973,2551,2038,2038,2905,3410,3413,3228,3350,3074,3036,3139,3132,3224,2840,3393,3402,3230,3354,3117,3339,3374,3179
1508406200641745617,76,1508406200641576404,plot_matl,0.0,0.0,1.40129846432e-45,4.59163467805e-41,8.20537463009e+24,4.5603857223e-41,0.349065840244,0.30498278141,1.33014273643,-0.00345389870927,0.00290971342474,0.00290971342474,0.0156789161265,0.00143236469012,-96.2761001587,-96.2761001587,-127.847969055,-0.38841766119,1829,1650,2213,2045,2045,2893,3362,3382,3222,3331,3061,2896,3027,2960,3121,2745,3332,3355,3195,3277,2928,3265,3321,3051,0.009934085,0.759993884,0.75499046,0.680678427219,4500.0,0.654048621655,0.00512720970437,-0.0266297664493,119.833946228,1.34390354156,6000.0,1.33015227318,-0.0236669555306,-0.0137512376532,89.6942672729,0.349065840244,0.0240919683129,0.00843395013362,0.000914754578844,0.0161133892834,0.0161133892834,-0.00158383965027,-0.0185126867145,1.01212525368,1.01212525368,-0.104725524783,-1.30978727341,2023,1973,2551,2038,2038,2905,3412,3410,3228,3350,3075,3036,3141,3133,3222,2840,3393,3402,3230,3354,3117,3339,3374,3179
1508406200651925909,77,1508406200651591632,plot_matl,0.0,0.0,1.40129846432e-45,4.59163467805e-41,8.20537463009e+24,4.5603857223e-41,0.349065840244,0.30498278141,1.33017671108,-0.00344959995709,0.00211227079853,0.00211227079853,0.0149528840557,0.0013305953471,-96.3021316528,-96.3021316528,-127.772567749,-0.311532795429,1829,1634,2213,2045,2045,2893,3362,3382,3222,3331,3061,2896,3027,2960,3121,2745,3332,3358,3194,3278,2928,3262,3324,3053,0.010016935,0.770009823,0.771303995,0.680678427219,4500.0,0.652699172497,-0.0229789521545,-0.027979247272,125.906616211,1.34390354156,6000.0,1.3301166296,-0.0228556953371,-0.0137868681923,89.467376709,0.349065840244,0.0216827709228,0.00845985580236,0.000947113439906,-0.00981569848955,-0.00981569848955,-0.00209595402703,0.00535947317258,0.644126594067,0.644126594067,-0.734195649624,-1.09004044533,2018,1970,2551,2043,2043,2905,3412,3410,3228,3350,3075,3036,3141,3133,3222,2840,3394,3401,3232,3352,3117,3336,3374,3181
1508406200661946365,78,1508406200661595369,plot_matl,0.0,0.0,1.40129846432e-45,4.59163467805e-41,8.20537463009e+24,4.5603857223e-41,0.349065840244,0.30498278141,1.33010482788,-0.00344566581771,0.00222759251483,0.00222759251483,-0.0226096119732,0.00125648465473,-96.247253418,-96.247253418,-127.784164429,-0.302225768566,1847,1612,2213,2045,2045,2893,3366,3382,3222,3329,3061,2898,3027,2959,3121,2745,3332,3358,3194,3278,2928,3262,3324,3053,0.010002971,0.780013676,0.780231738,0.680678427219,4500.0,0.654048621655,0.00346768065356,-0.0266297664493,119.833946228,1.34390354156,6000.0,1.33016216755,0.0153196267784,-0.0137413227931,77.8494949341,0.349065840244,0.0216827709228,0.00846948288381,0.000951629539486,-0.00976771395653,-0.00976771395653,-0.00229743658565,0.00528548797593,0.48944362998,0.48944362998,-0.635506153107,-0.897159039974,2020,1973,2551,2043,2043,2905,3413,3410,3226,3351,3075,3034,3138,3130,3222,2840,3394,3401,3232,3352,3117,3336,3374,3181
1508406200671957619,79,1508406200671592411,plot_matl,0.0,0.0,1.40129846432e-45,4.59163467805e-41,8.20537463009e+24,4.5603857223e-41,0.349065840244,0.30498278141,1.33011007309,-0.00346049992368,0.00185507070273,0.00185507070273,0.0163705591112,0.00155548914336,-96.2025756836,-96.2025756836,-127.764167786,-0.338298052549,1805,1659,2213,2045,2045,2893,3366,3382,3222,3329,3061,2898,3027,2959,3121,2743,3332,3357,3193,3277,2928,3261,3323,3052,0.009996135,0.790010452,0.789694665,0.680678427219,4500.0,0.654048621655,0.00378210167401,-0.0266297664493,119.833946228,1.34390354156,6000.0,1.33005356789,-0.0215680170804,-0.0138498973101,89.0445632935,0.349065840244,0.0240919683129,0.00847607012838,0.000864759495016,0.0153953926638,0.0153953926638,-0.0024262315128,-0.0174440294504,0.64919501543,0.64919501543,-0.525526881218,-0.862430393696,2020,1974,2551,2043,2043,2905,3413,3410,3226,3351,3075,3034,3138,3130,3221,2840,3392,3403,3232,3354,3119,3338,3374,3178
1508406200681872846,80,1508406200681594119,plot_matl,0.0,0.0,1.40129846432e-45,4.59163467805e-41,8.20537463009e+24,4.5603857223e-41,0.349065840244,0.30498278141,1.33000636101,-0.00346614629962,0.0017410563305,0.0017410563305,-0.0206581540406,-0.00811560638249,-96.3795471191,-96.3795471191,-127.639389038,-0.19286313653,1822,1656,2214,2041,2041,2893,3364,3380,3221,3330,3061,2899,3027,2959,3121,2743,3332,3357,3193,3277,2928,3261,3323,3052,0.010001272,0.80001205,0.80010176,0.680678427219,4500.0,0.655398130417,0.0308078210801,-0.025280283764,113.761283875,1.34390354156,6000.0,1.33004033566,0.0177536271513,-0.0138631593436,77.6750564575,0.349065840244,0.0216827709228,0.00848136097193,0.000835883256514,-0.0077218268998,-0.0077218268998,-0.0025677382946,-0.0168852154166,0.42099326849,0.42099326849,-0.429250746965,-0.796698868275,2018,1973,2551,2037,2037,2905,3410,3410,3228,3349,3076,3035,3138,3130,3221,2840,3392,3403,3232,3354,3119,3338,3374,3178
1508406200692068117,81,1508406200691616338,plot_matl,0.0,0.0,1.40129846432e-45,4.59163467805e-41,8.20537463009e+24,4.5603857223e-41,0.349065840244,0.30498278141,1.33006834984,-0.00346013298258,0.00164311600383,0.00164311600383,0.0171699374914,0.00152234488633,-96.381439209,-96.381439209,-127.533668518,-0.0852702334523,1827,1632,2214,2041,2041,2893,3364,3380,3221,3330,3061,2899,3028,2958,3120,2745,3329,3357,3194,3277,2928,3261,3323,3052,0.010022586,0.810034645,0.811829466,0.680678427219,4500.0,0.654048621655,0.00446395529434,-0.0266297664493,119.833946228,1.34390354156,6000.0,1.33009326458,0.0166320689023,-0.013810264878,77.8550262451,0.349065840244,0.0216827709228,0.00848764088005,0.000795188127086,-0.00674368441105,-0.00674368441105,-0.00268688146025,-0.0160768181086,0.590085208416,0.590085208416,-0.352207511663,-0.843572556973,2020,1974,2551,2037,2037,2905,3410,3410,3228,3349,3076,3035,3141,3132,3222,2840,3396,3403,3230,3352,3117,3337,3374,3178
1508406200701902263,82,1508406200701587386,plot_matl,0.0,0.0,1.40129846432e-45,4.59163467805e-41,8.20537463009e+24,4.5603857223e-41,0.349065840244,0.30498278141,1.33015656471,-0.00344640575349,0.00232193246484,0.00232193246484,0.0153609653935,0.00124678912107,-96.3124008179,-96.3124008179,-127.620109558,-0.114175051451,1836,1620,2214,2040,2040,2892,3363,3381,3220,3330,3061,2899,3028,2958,3120,2745,3329,3357,3194,3277,2928,3261,3322,3052,0.009969944,0.82000529,0.817535408,0.680678427219,4500.0,0.654048621655,0.00411535846069,-0.0266297664493,119.833946228,1.34390354156,6000.0,1.33006310463,0.0172674302012,-0.0138403698802,77.6381454468,0.349065840244,0.0216827709228,0.00847703125328,0.000825825962238,-0.00674811098725,-0.00674811098725,-0.0024726043921,0.0322878099978,0.696413218975,0.696413218975,-0.252633363008,-1.00538504124,2020,1969,2550,2039,2039,2907,3412,3411,3226,3349,3076,3035,3141,3132,3222,2840,3396,3403,3230,3352,3117,3337,3374,3179
1508406200712015373,83,1508406200711598120,plot_matl,0.0,0.0,1.40129846432e-45,4.59163467805e-41,8.20537463009e+24,4.5603857223e-41,0.349065840244,0.30363330245,1.33009231091,-0.00345160928555,-0.0114581175148,-0.0114581175148,0.0166868567467,0.00136226473842,-96.3289413452,-96.3289413452,-127.637641907,-0.146464839578,1862,1617,2214,2040,2040,2892,3363,3381,3220,3330,3063,2897,3026,2958,3118,2745,3331,3357,3192,3277,2928,3261,3322,3052,0.010010472,0.830016035,0.830869176,0.680678427219,4500.0,0.654048621655,0.00433753244579,-0.0266297664493,119.833946228,1.34390354156,6000.0,1.33007586002,0.0170144308358,-0.0138277225196,77.5073394775,0.349065840244,0.0216827709228,0.00846763141453,0.000851558113936,-0.0059837452136,-0.0059837452136,-0.00228725862689,0.00727686379105,0.743495881557,0.743495881557,-0.274221241474,-1.23202490807,2021,1969,2550,2039,2039,2907,3412,3411,3226,3349,3075,3035,3138,3132,3222,2840,3393,3402,3232,3352,3117,3337,3374,3179
1508406200722099460,84,1508406200721621401,plot_matl,0.0,0.0,1.40129846432e-45,4.59163467805e-41,8.20537463009e+24,4.5603857223e-41,0.349065840244,0.30498278141,1.33006620407,-0.00345774670132,0.0022613464389,0.0022613464389,0.017239805311,-0.00829428154975,-96.4917144775,-96.4917144775,-127.811698914,-0.265656381845,1830,1656,2213,2044,2044,2892,3365,3382,3220,3330,3063,2897,3026,2958,3118,2745,3331,3357,3192,3277,2926,3263,3321,3051,0.010023924,0.840039924,0.842009616,0.680678427219,4500.0,0.652699172497,-0.022239279002,-0.027979247272,125.906616211,1.34390354156,6000.0,1.3299806118,-0.0200933944434,-0.0139228673652,89.1120452881,0.349065840244,0.0240919683129,0.00847689155489,0.000848582596518,0.0181169416755,0.0181169416755,0.012874613516,-0.0171704459935,0.567950606346,0.567950606346,-0.186586007476,-1.26726555824,2020,1971,2552,2040,2040,2905,3411,3410,3226,3349,3075,3035,3138,3132,3222,2840,3393,3402,3232,3352,3117,3338,3373,3178
1508406200732032768,85,1508406200731611207,plot_matl,0.0,0.0,1.40129846432e-45,4.59163467805e-41,8.20537463009e+24,4.5603857223e-41,0.349065840244,0.30498278141,1.32997918129,-0.00345294573344,0.00231617805548,0.00231617805548,0.0190120115876,0.00137560162693,-96.4716567993,-96.4716567993,-127.928359985,-0.163931429386,1779,1691,2213,2044,2044,2892,3365,3382,3220,3330,3062,2897,3025,2960,3119,2744,3331,3357,3192,3277,2926,3263,3321,3051,0.009990477,0.850029754,0.849190545,0.680678427219,4500.0,0.654048621655,0.00415872363374,-0.0266297664493,119.833946228,1.34390354156,6000.0,1.33001434803,-0.0207347013056,-0.0138891590759,89.1542510986,0.349065840244,0.0216827709228,0.00846958812326,0.000867576629389,-0.00595831684768,-0.00595831684768,-0.00230811000802,-0.0175767410547,0.533635318279,0.533635318279,-0.152757167816,-1.23057615757,2019,1974,2552,2040,2040,2905,3411,3410,3227,3349,3076,3035,3139,3132,3223,2838,3392,3401,3232,3352,3117,3338,3373,3178
1508406200742069565,86,1508406200741628891,plot_matl,0.0,0.0,1.40129846432e-45,4.59163467805e-41,8.20537463009e+24,4.5603857223e-41,0.349065840244,0.30363330245,1.32997262478,-0.00346736633219,-0.0119784306735,-0.0119784306735,-0.0198923181742,-0.00811093952507,-96.5345916748,-96.5345916748,-127.88924408,-0.207509443164,1769,1667,2214,2046,2046,2893,3365,3382,3220,3330,3062,2897,3025,2960,3119,2744,3331,3357,3194,3277,2925,3263,3321,3051,0.01001588,0.860047173,0.86136568,0.680678427219,4500.0,0.652699172497,-0.0232517700642,-0.027979247272,125.906616211,1.34390354156,6000.0,1.32997536659,-0.0198685713112,-0.0139281116426,89.71849823,0.349065840244,0.0216827709228,0.00844877585769,0.000906782806851,-0.00485473824665,-0.00485473824665,-0.00188779365271,0.00608594808728,0.543685138226,0.543685138226,-0.161550313234,-1.30737650394,2014,1966,2552,2041,2041,2905,3411,3410,3227,3349,3076,3035,3139,3132,3223,2838,3392,3401,3231,3352,3118,3336,3373,3178
1508406200752066702,87,1508406200751621598,plot_matl,0.0,0.0,1.40129846432e-45,4.59163467805e-41,8.20537463009e+24,4.5603857223e-41,0.349065840244,0.30498278141,1.32993280888,-0.00345124327578,0.00158216862474,0.00158216862474,-0.0190666355193,0.00133026170079,-96.5444030762,-96.5444030762,-127.97114563,-0.217990830541,1849,1614,2214,2046,2046,2893,3364,3380,3221,3329,3060,2898,3027,2959,3120,2745,3331,3357,3194,3277,2925,3263,3321,3051,0.009992868,0.870040156,0.869379516,0.680678427219,4500.0,0.654048621655,0.00279906764627,-0.0266297664493,119.833946228,1.34390354156,6000.0,1.32997381687,0.0191263481975,-0.0139296911657,77.4439620972,0.349065840244,0.0216827709228,0.00844427198172,0.000890445837285,-0.0056593674235,-0.0056593674235,-0.00181761092972,-0.0181105099618,0.523103296757,0.523103296757,-0.132324263453,-1.27212142944,2015,1967,2552,2041,2041,2905,3412,3411,3226,3350,3073,3035,3138,3131,3220,2839,3392,3401,3231,3352,3118,3336,3373,3178
1508406200762011050,88,1508406200761627205,plot_matl,0.0,0.0,1.40129846432e-45,4.59163467805e-41,8.20537463009e+24,4.5603857223e-41,0.349065840244,0.30363330245,1.32997095585,-0.00342151848599,-0.0120660401881,-0.0120660401881,0.0191949270666,0.000737684720661,-96.5185089111,-96.5185089111,-127.773208618,-0.109075628221,1811,1665,2214,2044,2044,2893,3364,3380,3221,3329,3060,2898,3027,2959,3120,2745,3332,3359,3194,3276,2926,3262,3322,3054,0.010004379,0.880045396,0.880385352,0.680678427219,4500.0,0.652699172497,-0.0244429651648,-0.027979247272,125.906616211,1.34390354156,6000.0,1.33000147343,-0.0205115117133,-0.0139020355418,89.5123596191,0.349065840244,0.0216827709228,0.00845384132117,0.000860250322148,-0.00634462991729,-0.00634462991729,-0.00203704368323,-0.0174660868943,0.613163232803,0.613163232803,-0.61502379179,-1.35021913052,2022,1972,2550,2039,2039,2905,3412,3411,3226,3350,3073,3035,3138,3131,3220,2839,3393,3403,3230,3354,3118,3337,3375,3180
1508406200771985381,89,1508406200771595627,plot_matl,0.0,0.0,1.40129846432e-45,4.59163467805e-41,8.20537463009e+24,4.5603857223e-41,0.349065840244,0.30498278141,1.32999539375,-0.00341480411589,0.00129741313867,0.00129741313867,-0.0204222369939,0.000604619388469,-96.4936599731,-96.4936599731,-127.935173035,0.154094740748,1824,1659,2214,2044,2044,2893,3365,3384,3221,3330,3062,2896,3027,2959,3120,2745,3332,3359,3194,3276,2926,3262,3322,3054,0.009968772,0.890014004,0.887220708,0.680678427219,4500.0,0.652699172497,-0.0244083814323,-0.027979247272,125.906616211,1.34390354156,6000.0,1.3299498558,-0.0195092763752,-0.013953667134,89.4780883789,0.349065840244,0.0216827709228,0.00845003966242,0.000878896098584,-0.0060800309293,-0.0060800309293,-0.00194715778343,0.00665671098977,0.67848867178,0.67848867178,-0.467545568943,-1.41137290001,2024,1974,2550,2039,2039,2905,3411,3409,3227,3348,3075,3034,3140,3129,3220,2839,3393,3403,3230,3354,3118,3337,3375,3180
1508406200782075725,90,1508406200781649338,plot_matl,0.0,0.0,1.40129846432e-45,4.59163467805e-41,8.20537463009e+24,4.5603857223e-41,0.349065840244,0.30633226037,1.32998681068,-0.0034185689874,0.0146775403991,0.0146775403991,0.0188189856708,-0.00908135529608,-96.3692092896,-96.3692092896,-128.051559448,0.199231639504,1752,1683,2214,2044,2044,2893,3365,3384,3221,3330,3062,2896,3027,2959,3121,2745,3331,3357,3195,3274,2927,3260,3321,3053,0.01005345,0.900068001,0.9048105,0.680678427219,4500.0,0.654048621655,0.00339527078904,-0.0266297664493,119.833946228,1.34390354156,6000.0,1.32994377613,0.019643381238,-0.0139597067609,78.4447402954,0.349065840244,0.0216827709228,0.0084474356845,0.000938148587011,-0.00537149840966,-0.00537149840966,0.0134518044069,-0.0190182216465,0.481166154146,0.481166154146,-0.275990068913,-1.32248795033,2004,1972,2550,2039,2039,2905,3411,3409,3227,3348,3075,3034,3140,3129,3222,2840,3394,3401,3233,3352,3117,3338,3374,3179
1508406200791956097,91,1508406200791594232,plot_matl,0.0,0.0,1.40129846432e-45,4.59163467805e-41,8.20537463009e+24,4.5603857223e-41,0.349065840244,0.30498278141,1.33002078533,-0.00341233261861,0.00209143804386,0.00209143804386,0.0180972963572,0.000560682325158,-96.3697814941,-96.3697814941,-128.153442383,0.17950463295,1757,1664,2213,2044,2044,2893,3364,3382,3222,3330,3061,2898,3027,2959,3121,2745,3331,3357,3195,3274,2927,3260,3321,3053,0.009943566,0.910012278,0.904864506,0.680678427219,4500.0,0.654048621655,0.00472049647942,-0.0266297664493,119.833946228,1.34390354156,6000.0,1.33001625538,0.0181936398149,-0.0138873010874,78.0783233643,0.349065840244,0.0240919683129,0.0084699774161,0.0009223233792,0.0184982344508,0.0184982344508,-0.00234032887965,-0.0186735559255,0.677729904652,0.677729904652,-0.230853930116,-1.31545686722,2010,1976,2551,2041,2041,2905,3410,3412,3227,3351,3075,3036,3140,3129,3222,2840,3394,3401,3233,3352,3117,3338,3374,3179
1508406200801961807,92,1508406200801592181,plot_matl,0.0,0.0,1.40129846432e-45,4.59163467805e-41,8.20537463009e+24,4.5603857223e-41,0.349065840244,0.30498278141,1.33001410961,-0.00342358881608,0.00272101117298,0.00272101117298,-0.0207661408931,0.000787245866377,-96.5217056274,-96.5217056274,-128.194747925,0.24258300662,1843,1633,2213,2044,2044,2893,3364,3382,3222,3330,3061,2898,3028,2958,3121,2746,3330,3355,3195,3275,2927,3259,3321,3053,0.009997193,0.92001011,0.919741756,0.680678427219,4500.0,0.652699172497,-0.0208607744426,-0.027979247272,125.906616211,1.34390354156,6000.0,1.32997715473,0.0191567372531,-0.0139263644814,77.6179122925,0.349065840244,0.0216827709228,0.00849216990173,0.000888827256858,-0.00700514391065,-0.00700514391065,-0.00277230516076,0.00651407288387,0.661662518978,0.661662518978,-0.681078672409,-1.33467364311,2027,1969,2551,2041,2041,2905,3410,3412,3227,3351,3075,3036,3138,3132,3222,2839,3393,3402,3232,3354,3118,3339,3374,3179
1508406200812218655,93,1508406200811643622,plot_matl,0.0,0.0,1.40129846432e-45,4.59163467805e-41,8.20537463009e+24,4.5603857223e-41,0.349065840244,0.30498278141,1.33001458645,-0.00343422056176,0.00295089697465,0.00295089697465,0.0184130910784,0.000999551964924,-96.6462936401,-96.6462936401,-128.198226929,0.323964595795,1814,1667,2213,2042,2042,2892,3365,3380,3222,3330,3061,2898,3028,2958,3121,2746,3330,3355,3195,3275,2927,3259,3322,3052,0.010052958,0.930061918,0.934925094,0.680678427219,4500.0,0.654048621655,0.00527228973806,-0.0266297664493,119.833946228,1.34390354156,6000.0,1.33000719547,0.0185155011714,-0.013896279037,78.1187820435,0.349065840244,0.0240919683129,0.00848063547164,0.000884159293491,0.0177031755447,0.0177031755447,-0.0025480708573,0.00663787126541,0.538591206074,0.538591206074,-0.558287978172,-0.982453167439,2022,1974,2551,2042,2042,2905,3411,3410,3225,3349,3075,3036,3138,3132,3222,2839,3393,3402,3232,3354,3118,3339,3374,3179
1508406200821969620,94,1508406200821598899,plot_matl,0.0,0.0,1.40129846432e-45,4.59163467805e-41,8.20537463009e+24,4.5603857223e-41,0.349065840244,0.30498278141,1.33007860184,-0.00343430531211,0.00295704719611,0.00295704719611,0.0170698259026,0.00100506865419,-96.6681594849,-96.6681594849,-128.214324951,0.360495626926,1824,1653,2213,2042,2042,2892,3365,3380,3222,3330,3060,2896,3027,2957,3120,2745,3329,3355,3193,3275,2927,3259,3322,3052,0.009953865,0.940017015,0.93566331,0.680678427219,4500.0,0.655398130417,0.0324274785817,-0.025280283764,113.761283875,1.34390354156,6000.0,1.3301397562,0.0158204063773,-0.0137638170272,77.6028594971,0.349065840244,0.0216827709228,0.00848403200507,0.000809536257293,-0.00630371691659,-0.00630371691659,-0.00262131006457,0.00813538301736,0.462385594845,0.462385594845,-0.380805969238,-0.930480539799,2015,1969,2551,2042,2042,2905,3411,3410,3225,3349,3074,3036,3139,3130,3222,2840,3392,3402,3231,3352,3118,3339,3374,3179
1508406200832025305,95,1508406200831600622,plot_matl,0.0,0.0,1.40129846432e-45,4.59163467805e-41,8.20537463009e+24,4.5603857223e-41,0.349065840244,0.30363330245,1.33015680313,-0.00341683859006,-0.0110030751675,-0.0110030751675,0.0153951831162,0.000646506436169,-96.6847076416,-96.6847076416,-128.210098267,0.509051024914,1878,1597,2214,2048,2048,2894,3362,3383,3222,3330,3060,2896,3027,2957,3120,2745,3329,3355,3193,3275,2926,3264,3320,3051,0.010001367,0.950018989,0.950129865,0.680678427219,4500.0,0.654048621655,0.00522894458845,-0.0266297664493,119.833946228,1.34390354156,6000.0,1.33020997047,0.0143439685926,-0.0136935496703,77.4472732544,0.349065840244,0.0216827709228,0.00848799291998,0.000790225865785,-0.00692131230608,-0.00692131230608,-0.00268469098955,0.00848479848355,0.462191432714,0.462191432714,-0.238256901503,-1.04080462456,2026,1966,2551,2038,2038,2904,3412,3411,3225,3349,3074,3036,3139,3130,3222,2840,3392,3402,3231,3352,3116,3339,3374,3180
1508406200842040799,96,1508406200841598000,plot_matl,0.0,0.0,1.40129846432e-45,4.59163467805e-41,8.20537463009e+24,4.5603857223e-41,0.349065840244,0.30498278141,1.33019447327,-0.00343805924058,0.00215346249752,0.00215346249752,0.0147275645286,0.00106847961433,-96.6406936646,-96.6406936646,-128.012908936,0.431972384453,1784,1670,2214,2048,2048,2894,3362,3383,3222,3327,3062,2898,3025,2958,3119,2744,3329,3359,3193,3275,2926,3264,3320,3051,0.009997969,0.960016557,0.959805024,0.680678427219,4500.0,0.652699172497,-0.021870477125,-0.027979247272,125.906616211,1.34390354156,6000.0,1.33016002178,-0.0237591266632,-0.0137434834614,89.5088577271,0.349065840244,0.0216827709228,0.00846373755485,0.00079921662109,-0.00614474480972,-0.00614474480972,-0.00219395570457,0.00828798208386,0.411925405264,0.411925405264,-0.194705873728,-1.16772353649,2013,1969,2551,2038,2038,2904,3412,3411,3227,3349,3074,3035,3138,3130,3221,2840,3392,3403,3231,3352,3116,3339,3374,3180
1508406200851767235,97,1508406200851586775,plot_matl,0.0,0.0,1.40129846432e-45,4.59163467805e-41,8.20537463009e+24,4.5603857223e-41,0.349065840244,0.30498278141,1.33017730713,-0.00345231685787,0.00273802364245,0.00273802364245,0.0148977069184,0.00136876490433,-96.6714935303,-96.6714935303,-127.938713074,0.37184497714,1810,1665,2213,2042,2042,2893,3362,3383,3222,3327,3062,2898,3025,2958,3119,2744,3329,3359,3194,3276,2928,3263,3322,3053,0.009985661,0.970003726,0.968609117,0.680678427219,4500.0,0.652699172497,-0.0213781110942,-0.027979247272,125.906616211,1.34390354156,6000.0,1.33011472225,-0.0229272153229,-0.0137888099998,89.3769226074,0.349065840244,0.0216827709228,0.00845801085234,0.000781427603215,-0.00550725823268,-0.00550725823268,-0.00207234011032,-0.0158991683275,0.523371398449,0.523371398449,-0.231760844588,-1.10038173199,2014,1981,2550,2039,2039,2906,3412,3411,3227,3349,3074,3035,3138,3130,3221,2840,3392,3403,3232,3353,3118,3336,3375,3179
1508406200861937126,98,1508406200861572878,plot_matl,0.0,0.0,1.40129846432e-45,4.59163467805e-41,8.20537463009e+24,4.5603857223e-41,0.349065840244,0.30498278141,1.33009970188,-0.00344752660021,0.00323060480878,0.00323060480878,0.016381919384,0.00128885044251,-96.6930160522,-96.6930160522,-127.912117004,0.415000766516,1810,1665,2213,2042,2042,2893,3362,3383,3222,3327,3062,2898,3025,2958,3119,2744,3329,3359,3194,3276,2928,3263,3322,3053,0.009985987,0.979989947,0.978626726,0.680678427219,4500.0,0.652699172497,-0.0213781110942,-0.027979247272,125.906616211,1.34390354156,6000.0,1.33011472225,-0.0229272153229,-0.0137888099998,89.3769226074,0.349065840244,0.0240919683129,0.00846714526415,0.000792068836745,0.0193657893687,0.0193657893687,0.0130982017145,0.00834548659623,0.580708920956,0.580708920956,-0.189700916409,-1.08658146858,2014,1981,2550,2039,2039,2906,3412,3411,3227,3349,3074,3035,3138,3130,3221,2840,3392,3403,3232,3353,3118,3336,3375,3179
1508406200872039988,99,1508406200871599660,plot_matl,0.0,0.0,1.40129846432e-45,4.59163467805e-41,8.20537463009e+24,4.5603857223e-41,0.349065840244,0.30363330245,1.33015787601,-0.00343556678854,-0.0106944525614,-0.0106944525614,0.017038397491,0.00104507652577,-96.8194961548,-96.8194961548,-127.928741455,0.491768836975,2414,1900,2213,2042,2042,2893,3365,3380,3219,3330,3061,2896,3026,2959,3133,2754,3329,3359,3194,3276,2928,3263,3322,3053,0.010028901,0.990018303,0.992861199,0.680678427219,4500.0,0.654048621655,0.00575675349683,-0.0266297664493,119.833946228,1.34390354156,6000.0,1.3301346302,-0.0216040313244,-0.0137688759714,89.5991821289,0.349065840244,0.0216827709228,0.00844599027187,0.000871501339134,-0.00402834685519,-0.00402834685519,-0.00182097416837,0.00676701683551,0.524222195148,0.524222195148,-0.127146333456,-1.44848644733,2087,2027,2550,2039,2039,2906,3410,3410,3227,3350,3075,3036,3140,3130,3233,2849,3392,3403,3232,3353,3118,3336,3375,3179
1508406200881959916,100,1508406200881597594,plot_matl,0.0,0.0,1.40129846432e-45,4.59163467805e-41,8.20537463009e+24,4.5603857223e-41,0.349065840244,0.30633226037,1.33018016815,-0.00343543104827,0.0162959396839,0.0162959396839,-0.0227101333439,0.00103872723412,-96.7581329346,-96.7581329346,-127.906341553,0.524255394936,2408,1917,2219,2043,2043,2893,3365,3380,3219,3330,3061,2896,3026,2959,3133,2754,3343,3366,3202,3284,2931,3269,3328,3059,0.009996677,1.000015661,0.9996677,0.680678427219,4500.0,0.654048621655,0.00512217683718,-0.0266297664493,119.833946228,1.34390354156,6000.0,1.33020913601,0.0157289784402,-0.0136943440884,77.8782806396,0.349065840244,0.0265011657029,0.00845950469375,0.000861905806232,0.0447780452669,0.0447780452669,-0.00207879417576,0.00697697233409,0.546893119812,0.546893119812,-0.0892349034548,-1.48881292343,2088,2032,2552,2039,2039,2906,3410,3410,3227,3350,3075,3036,3140,3130,3233,2849,3404,3410,3240,3360,3123,3343,3380,3182
1508406200891962210,101,1508406200891588813,plot_matl,0.0,0.0,1.40129846432e-45,4.59163467805e-41,8.20537463009e+24,4.5603857223e-41,0.349065840244,0.30498278141,1.33023941517,-0.00342617859133,0.0034267611336,0.0034267611336,0.0148712592199,0.000850778829772,-96.7582168579,-96.7582168579,-127.961753845,0.665162503719,2423,1930,2219,2043,2043,2895,3369,3385,3224,3331,3064,2899,3026,2960,3133,2754,3343,3366,3202,3284,2931,3269,3328,3059,0.009990644,1.010006478,1.009055044,0.680678427219,4500.0,0.654048621655,0.00658044777811,-0.0266297664493,119.833946228,1.34390354156,6000.0,1.33022916317,0.0150493718684,-0.0136743718758,77.695930481,0.349065840244,0.0216827709228,0.00846831593663,0.000837476400193,-0.00454339338467,-0.00454339338467,-0.00225847144611,0.00748427305371,0.409785836935,0.409785836935,-0.224997147918,-1.65437293053,2089,2029,2552,2039,2039,2907,3415,3414,3232,3351,3076,3037,3140,3133,3233,2849,3404,3410,3240,3360,3123,3343,3380,3182
1508406200901903489,102,1508406200901594721,plot_matl,0.0,0.0,1.40129846432e-45,4.59163467805e-41,8.20537463009e+24,4.5603857223e-41,0.349065840244,0.30498278141,1.33025670052,-0.00341671402566,0.00380509719253,0.00380509719253,0.0143087776378,0.000692402885761,-96.6959075928,-96.6959075928,-128.009368896,0.77587813139,2409,1890,2219,2043,2043,2895,3369,3385,3224,3331,3064,2899,3026,2960,3123,2745,3332,3357,3194,3279,2926,3263,3321,3054,0.010006455,1.020012967,1.02065841,0.680678427219,4500.0,0.654048621655,0.00655866460875,-0.0266297664493,119.833946228,1.34390354156,6000.0,1.33031594753,0.0149550596252,-0.0135875558481,56.4536590576,0.349065840244,0.0216827709228,0.00847670435905,0.000822417088784,-0.00589126860723,-0.00589126860723,0.0128994220868,0.00785082764924,0.596809446812,0.596809446812,-0.146169647574,-1.7111313343,2083,2024,2552,2039,2039,2907,3415,3414,3232,3351,3076,3037,3140,3133,3225,2842,3396,3403,3232,3354,3117,3338,3373,3181
1508406200912019227,103,1508406200911614014,plot_matl,0.0,0.0,1.40129846432e-45,4.59163467805e-41,8.20537463009e+24,4.5603857223e-41,0.349065840244,0.30363330245,1.33029043674,-0.00341864768416,-0.0102394325659,-0.0102394325659,0.0151652628556,0.00119280000217,-96.5712203979,-96.5712203979,-128.039718628,0.636864125729,2435,2001,2219,2047,2047,2901,3376,3393,3228,3337,3068,2903,3026,2960,3123,2745,3332,3357,3194,3279,2926,3263,3321,3054,0.010017808,1.030031763,1.031834224,0.680678427219,4500.0,0.652699172497,-0.0199600849301,-0.027979247272,125.906616211,1.34390354156,6000.0,1.330275774,-0.0239579807967,-0.0136277917773,89.8558273315,0.349065840244,0.0216827709228,0.00845495145768,0.000838801555801,-0.0048357299529,-0.0048357299529,-0.00200261315331,0.00858709029853,0.526342332363,0.526342332363,-0.119980439544,-1.94205784798,2076,2038,2551,2044,2044,2913,3420,3421,3237,3357,3081,3041,3140,3133,3225,2842,3396,3403,3232,3354,3117,3338,3373,3181
1508406200922006431,104,1508406200921625239,plot_matl,0.0,0.0,1.40129846432e-45,4.59163467805e-41,8.20537463009e+24,4.5603857223e-41,0.349065840244,0.30363330245,1.33026576042,-0.00341242388822,-0.00985936820507,-0.00985936820507,0.015242937021,0.000976698589511,-96.4294509888,-96.4294509888,-128.143737793,0.484925448895,2457,2022,2219,2047,2047,2901,3376,3393,3228,3337,3068,2903,3032,2960,3123,2748,3335,3361,3197,3280,2929,3267,3321,3054,0.010011257,1.040043088,1.041170728,0.680678427219,4500.0,0.654048621655,0.0074445665814,-0.0266297664493,119.833946228,1.34390354156,6000.0,1.33028721809,0.0144473277032,-0.0136162694544,77.7829818726,0.349065840244,0.0216827709228,0.00845056772232,0.00081820221385,-0.0039378060028,-0.0039378060028,-0.00191745487973,0.00881338398904,0.577206671238,0.577206671238,-0.139002874494,-2.1161031723,2084,2046,2551,2044,2044,2913,3420,3421,3237,3357,3081,3041,3145,3135,3225,2843,3396,3406,3234,3354,3121,3341,3373,3181
1508406200932047124,105,1508406200931627913,plot_matl,0.0,0.0,1.40129846432e-45,4.59163467805e-41,8.20537463009e+24,4.5603857223e-41,0.349065840244,0.30363330245,1.33027553558,-0.00341584603302,-0.00978230964392,-0.00978230964392,0.0146319177002,0.000978782307357,-96.4278945923,-96.4278945923,-128.227645874,0.432675242424,2431,1981,2220,2046,2046,2893,3368,3382,3221,3332,3068,2903,3032,2960,3123,2748,3335,3361,3197,3280,2929,3267,3324,3054,0.010002876,1.050046149,1.05030198,0.680678427219,4500.0,0.654048621655,0.00709022535011,-0.0266297664493,119.833946228,1.34390354156,6000.0,1.33026218414,-0.0244209729135,-0.0136413266882,89.3215179443,0.349065840244,0.0216827709228,0.0084333140403,0.000801321177278,-0.00538544170558,-0.00538544170558,-0.00157019402832,0.00900706090033,0.591902375221,0.591902375221,-0.150176405907,-2.11446285248,2089,2037,2552,2037,2037,2907,3411,3412,3231,3352,3081,3041,3145,3135,3225,2843,3396,3406,3234,3354,3121,3341,3377,3182
1508406200941853428,106,1508406200941589535,plot_matl,0.0,0.0,1.40129846432e-45,4.59163467805e-41,8.20537463009e+24,4.5603857223e-41,0.349065840244,0.30498278141,1.33028829098,-0.00341830239631,0.00340473628603,0.00340473628603,0.014074312523,0.000963119673543,-96.4218521118,-96.4218521118,-128.186157227,0.479375004768,2428,1980,2220,2046,2046,2893,3368,3382,3221,3332,3062,2898,3028,2960,3121,2745,3332,3357,3194,3274,2929,3267,3324,3054,0.00996077,1.060007315,1.05584162,0.680678427219,4500.0,0.654048621655,0.00633237930015,-0.0266297664493,119.833946228,1.34390354156,6000.0,1.33027529716,0.0141970161349,-0.0136281903833,78.0775985718,0.349065840244,0.0216827709228,0.00841909833252,0.00078514701454,-0.0052390168421,-0.0052390168421,-0.00128407147713,-0.0153072392568,0.711822807789,0.711822807789,-0.122811086476,-2.16396355629,2076,2024,2552,2037,2037,2907,3411,3412,3231,3352,3075,3037,3140,3132,3223,2840,3395,3405,3231,3353,3121,3341,3377,3182
1508406200951895210,107,1508406200951588426,plot_matl,0.0,0.0,1.40129846432e-45,4.59163467805e-41,8.20537463009e+24,4.5603857223e-41,0.349065840244,0.30498278141,1.33026504517,-0.00341185415164,0.003038686933,0.003038686933,0.0144039755687,0.00077467574738,-96.3106765747,-96.3106765747,-128.152297974,0.46370434761,2439,2006,2220,2051,2051,2892,3364,3384,3221,3332,3062,2898,3028,2960,3121,2745,3332,3357,3194,3274,2927,3264,3322,3053,0.00999817,1.070005962,1.06980419,0.680678427219,4500.0,0.654048621655,0.00617344165221,-0.0266297664493,119.833946228,1.34390354156,6000.0,1.33022475243,0.0150561621413,-0.0136788114905,78.0533370972,0.349065840244,0.0240919683129,0.00840749125928,0.000819568522274,0.0178761407733,0.0178761407733,-0.00105046725366,0.00838299933821,0.802235543728,0.802235543728,-0.100468717515,-2.22984266281,2082,2035,2552,2045,2045,2906,3412,3410,3231,3352,3075,3037,3140,3132,3223,2840,3395,3405,3231,3353,3120,3338,3376,3180
1508406200962013654,108,1508406200961617867,plot_matl,0.0,0.0,1.40129846432e-45,4.59163467805e-41,8.20537463009e+24,4.5603857223e-41,0.349065840244,0.30633226037,1.33021402359,-0.00339735997841,0.0160609204322,0.0160609204322,-0.023843312636,0.010209010914,-96.3902587891,-96.3902587891,-128.199279785,0.415298849344,2456,2053,2220,2051,2051,2892,3364,3384,3221,3330,3063,2898,3028,2960,3120,2743,3329,3358,3194,3274,2927,3264,3322,3053,0.010029895,1.080036133,1.08322866,0.680678427219,4500.0,0.654048621655,0.00410389294848,-0.0266297664493,119.833946228,1.34390354156,6000.0,1.33024990559,0.0143617196009,-0.0136536154896,77.8831558228,0.349065840244,0.0216827709228,0.00842395890504,0.000786582415458,-0.00655902456492,-0.00655902456492,-0.00139519630466,0.00902253761888,0.62738764286,0.62738764286,-0.047148488462,-1.89353168011,2082,2044,2552,2045,2045,2906,3412,3410,3227,3349,3074,3034,3140,3132,3221,2841,3395,3402,3231,3353,3120,3338,3376,3180
1508406200972040294,109,1508406200971632462,plot_matl,0.0,0.0,1.40129846432e-45,4.59163467805e-41,8.20537463009e+24,4.5603857223e-41,0.349065840244,0.30633226037,1.33027648926,-0.0034048773814,0.0150595484301,0.0150595484301,0.0137925762683,-0.00920840818435,-96.3910675049,-96.3910675049,-128.163040161,0.541705489159,2441,2031,2220,2050,2050,2892,3364,3384,3221,3330,3063,2898,3028,2960,3120,2743,3329,3358,3193,3277,2926,3261,3323,3053,0.010013996,1.090050447,1.091525564,0.680678427219,4500.0,0.655398130417,0.030668117106,-0.025280283764,113.761283875,1.34390354156,6000.0,1.33037114143,0.0117675820366,-0.0135323926806,77.8547973633,0.349065840244,0.0265011657029,0.00844052340835,0.0007786747301,0.040516089648,0.040516089648,0.013617226854,0.00910072773695,0.523391902447,0.523391902447,-0.117831751704,-1.48073148727,2078,2030,2553,2044,2044,2904,3412,3410,3227,3349,3074,3034,3140,3132,3221,2841,3395,3402,3233,3352,3116,3338,3375,3181
1508406200981993115,110,1508406200981661390,plot_matl,0.0,0.0,1.40129846432e-45,4.59163467805e-41,8.20537463009e+24,4.5603857223e-41,0.349065840244,0.30498278141,1.33031630516,-0.00341058592312,0.00163523247465,0.00163523247465,-0.0262308716774,0.00065247877501,-96.3204269409,-96.3204269409,-128.299957275,0.767618834972,2425,1980,2220,2050,2050,2892,3365,3383,3220,3329,3061,2896,3026,2958,3119,2742,3329,3358,3193,3277,2926,3261,3323,3053,0.010029161,1.100079568,1.10320771,0.680678427219,4500.0,0.654048621655,0.00375908752903,-0.0266297664493,119.833946228,1.34390354156,6000.0,1.33029913902,-0.0259864274412,-0.0136043475941,89.0273208618,0.349065840244,0.0216827709228,0.00843993853778,0.000682732090354,-0.00930077489465,-0.00930077489465,-0.00172151904553,-0.013500649482,0.755400180817,0.755400180817,-0.136007755995,-1.57837510109,2071,2033,2553,2044,2044,2904,3411,3412,3226,3351,3075,3036,3139,3130,3222,2839,3395,3402,3233,3352,3116,3338,3375,3181
1508406200991946781,111,1508406200991630423,plot_matl,0.0,0.0,1.40129846432e-45,4.59163467805e-41,8.20537463009e+24,4.5603857223e-41,0.349065840244,0.30498278141,1.33028209209,-0.00341367535293,0.00180234969594,0.00180234969594,-0.0257132798433,0.00070120813325,-96.334236145,-96.334236145,-128.267837524,0.654359161854,2445,2020,2221,2050,2050,2892,3365,3383,3220,3329,3061,2896,3026,2958,3119,2742,3331,3359,3197,3277,2927,3263,3319,3052,0.00996793,1.110048127,1.10644023,0.680678427219,4500.0,0.652699172497,-0.0226096659899,-0.027979247272,125.906616211,1.34390354156,6000.0,1.33015632629,-0.0233549494296,-0.0137472497299,89.4934768677,0.349065840244,0.0216827709228,0.00843846518546,0.000735655485187,-0.00807692110538,-0.00807692110538,-0.00168072152883,0.00987416412681,0.859810352325,0.859810352325,-0.152204215527,-1.52781295776,2080,2043,2552,2042,2042,2904,3411,3412,3226,3351,3075,3036,3139,3130,3222,2839,3394,3401,3234,3354,3117,3336,3375,3178
1508406201001991000,112,1508406201001580648,plot_matl,0.0,0.0,1.40129846432e-45,4.59163467805e-41,8.20537463009e+24,4.5603857223e-41,0.349065840244,0.30498278141,1.33018517494,-0.00341751333326,0.0022311869543,0.0022311869543,0.015110890381,0.000755527580623,-96.2742462158,-96.2742462158,-128.250061035,0.640331685543,2437,1975,2221,2050,2050,2892,3363,3380,3220,3330,3061,2898,3027,2956,3119,2742,3331,3359,3197,3277,2927,3263,3319,3052,0.009952412,1.119999391,1.114670144,0.680678427219,4500.0,0.654048621655,0.00432881200686,-0.0266297664493,119.833946228,1.34390354156,6000.0,1.33004403114,0.0178783740848,-0.0138595066965,77.9754867554,0.349065840244,0.0216827709228,0.00842353794724,0.000705189653672,-0.00836501922458,-0.00836501922458,-0.00137906055897,-0.0141242695972,0.838116765022,0.838116765022,-0.114572882652,-1.55679166317,2084,2037,2552,2042,2042,2904,3412,3412,3227,3351,3076,3036,3140,3132,3222,2839,3394,3401,3234,3354,3117,3336,3375,3178
1508406201012040394,113,1508406201011635360,plot_matl,0.0,0.0,1.40129846432e-45,4.59163467805e-41,8.20537463009e+24,4.5603857223e-41,0.349065840244,0.30363330245,1.33003938198,-0.00341148907319,-0.01127952151,-0.01127952151,-0.0211101844907,0.000618511810899,-96.3696517944,-96.3696517944,-128.295333862,0.745423018932,2437,1975,2221,2050,2050,2892,3363,3380,3220,3330,3061,2898,3027,2956,3119,2742,3331,3359,3197,3277,2927,3263,3319,3052,0.010051293,1.130052863,1.135796109,0.680678427219,4500.0,0.654048621655,0.00432881200686,-0.0266297664493,119.833946228,1.34390354156,6000.0,1.33004403114,0.0178783740848,-0.0138595066965,77.9754867554,0.349065840244,0.0216827709228,0.00842527393252,0.000752224121243,-0.00732115423307,-0.00732115423307,-0.00140993436798,0.00939740799367,0.584551036358,0.584551036358,-0.0937949642539,-1.14569854736,2084,2037,2552,2042,2042,2904,3412,3412,3227,3351,3076,3036,3140,3132,3222,2839,3394,3401,3234,3354,3117,3336,3375,3178
1508406201021981276,114,1508406201021600385,plot_matl,0.0,0.0,1.40129846432e-45,4.59163467805e-41,8.20537463009e+24,4.5603857223e-41,0.349065840244,0.30498278141,1.33011376858,-0.00341449445114,0.00414983043447,0.00414983043447,0.0178656745702,0.000666588661261,-96.5635681152,-96.5635681152,-127.53377533,0.705363452435,1674,2328,2221,2050,2050,2892,3363,3380,3220,3330,3061,2898,3027,2956,3120,2743,3330,3358,3195,3276,2939,3274,3333,3065,0.009976957,1.140018672,1.137373098,0.680678427219,4500.0,0.655398130417,0.0356279909611,-0.025280283764,113.761283875,1.34390354156,6000.0,1.33008718491,-0.0207347404212,-0.0138162951916,89.2306900024,0.349065840244,0.0240919683129,0.00841248873621,0.000795851054136,0.0159026160836,0.0159026160836,-0.00115232751705,0.00951037462801,0.548394978046,0.548394978046,-0.0766578391194,-1.0461742878,1976,2047,2552,2042,2042,2904,3412,3412,3227,3351,3076,3036,3140,3132,3222,2840,3394,3400,3232,3352,3129,3349,3383,3192
1508406201032042111,115,1508406201031599868,plot_matl,0.0,0.0,1.40129846432e-45,4.59163467805e-41,8.20537463009e+24,4.5603857223e-41,0.349065840244,0.30633226037,1.33008682728,-0.00340902176686,0.0175602007657,0.0175602007657,-0.020938353613,0.000545787974261,-96.4930648804,-96.4930648804,-127.689170837,0.615953981876,1578,2222,2219,2047,2047,2899,3371,3388,3223,3333,3065,2901,3027,2956,3120,2743,3330,3358,3195,3276,2939,3274,3333,3065,0.009989644,1.15001821,1.14880906,0.680678427219,4500.0,0.654048621655,0.00738659407943,-0.0266297664493,119.833946228,1.34390354156,6000.0,1.33006072044,0.018601058051,-0.0138427885249,77.7102890015,0.349065840244,0.0240919683129,0.0084021249786,0.000783158175182,0.0152077721432,0.0152077721432,-0.000943500141148,0.00956132821739,0.661023139954,0.661023139954,-0.069198012352,-0.894304513931,1969,2027,2552,2041,2041,2911,3414,3414,3229,3355,3079,3039,3140,3132,3222,2840,3394,3400,3232,3352,3129,3349,3383,3192
1508406201041994947,116,1508406201041621185,plot_matl,0.0,0.0,1.40129846432e-45,4.59163467805e-41,8.20537463009e+24,4.5603857223e-41,0.349065840244,0.30498278141,1.33013880253,-0.00342200906016,0.00368877267465,0.00368877267465,0.0169096533209,0.00080580584472,-96.4730606079,-96.4730606079,-127.604301453,0.684741854668,1661,2315,2219,2047,2047,2899,3371,3388,3223,3333,3065,2901,3029,2960,3123,2746,3331,3361,3195,3277,2928,3263,3333,3065,0.010019393,1.160039332,1.162249588,0.680678427219,4500.0,0.654048621655,0.00747447181493,-0.0266297664493,119.833946228,1.34390354156,6000.0,1.33010959625,-0.0216345917434,-0.0137938726693,89.4036941528,0.349065840244,0.0216827709228,0.00843360088766,0.000748664722778,-0.00831033755094,-0.00831033755094,-0.00157987535931,0.0100917620584,0.608606815338,0.608606815338,0.0129395993426,-0.918968498707,1970,2043,2552,2041,2041,2911,3414,3414,3229,3355,3079,3039,3142,3133,3223,2842,3394,3405,3232,3355,3120,3339,3383,3192
1508406201051950937,117,1508406201051598433,plot_matl,0.0,0.0,1.40129846432e-45,4.59163467805e-41,8.20537463009e+24,4.5603857223e-41,0.349065840244,0.30498278141,1.33010065556,-0.00340651953593,0.00324841006659,0.00324841006659,-0.0216685906053,0.000479085370898,-96.4644165039,-96.4644165039,-127.60308075,0.743482410908,1587,2209,2219,2047,2047,2893,3366,3385,3220,3329,3065,2901,3029,2960,3123,2746,3331,3361,3195,3277,2928,3263,3322,3051,0.009978159,1.170016865,1.167444603,0.680678427219,4500.0,0.652699172497,-0.0195625964552,-0.027979247272,125.906616211,1.34390354156,6000.0,1.33010828495,0.0171522758901,-0.0137952947989,78.0098953247,0.349065840244,0.0216827709228,0.00843267329037,0.000745853118133,-0.00896623823792,-0.00896623823792,-0.00155302311759,-0.0144865410402,0.513700902462,0.513700902462,-0.0515233688056,-1.4086689949,1973,2032,2551,2038,2038,2907,3413,3412,3227,3349,3079,3039,3142,3133,3223,2842,3394,3405,3232,3355,3120,3339,3377,3178
1508406201061872234,118,1508406201061593843,plot_matl,0.0,0.0,1.40129846432e-45,4.59163467805e-41,8.20537463009e+24,4.5603857223e-41,0.349065840244,0.30363330245,1.33006584644,-0.00341241317801,-0.00977209862322,-0.00977209862322,-0.0211901329458,-0.00917740724981,-96.4194946289,-96.4194946289,-127.567131042,0.684335887432,1637,2294,2219,2047,2047,2893,3366,3385,3220,3329,3064,2899,3027,2960,3121,2746,3329,3359,3194,3279,2928,3263,3322,3051,0.009993248,1.180011617,1.179203264,0.680678427219,4500.0,0.655398130417,0.0345084629953,-0.025280283764,113.761283875,1.34390354156,6000.0,1.33007693291,0.0176056344062,-0.0138266365975,77.9108963013,0.349065840244,0.0216827709228,0.00844746734947,0.000783460040111,-0.00865225307643,-0.00865225307643,0.0134920282289,0.00911467708647,0.552808403969,0.552808403969,-0.00688261445612,-1.33122730255,1979,2045,2551,2038,2038,2907,3413,3412,3227,3349,3077,3037,3140,3130,3223,2841,3395,3403,3232,3354,3120,3339,3377,3178
1508406201071898528,119,1508406201071588178,plot_matl,0.0,0.0,1.40129846432e-45,4.59163467805e-41,8.20537463009e+24,4.5603857223e-41,0.349065840244,0.30498278141,1.33015120029,-0.0034073011484,0.00367070105858,0.00367070105858,0.0160322748125,0.000480436807266,-96.4212799072,-96.4212799072,-127.572563171,0.55404484272,1612,2262,2220,2046,2046,2893,3363,3384,3220,3329,3064,2899,3027,2960,3121,2746,3329,3359,3194,3279,2926,3263,3321,3054,0.009994113,1.190005959,1.189299447,0.680678427219,4500.0,0.654048621655,0.00690902443603,-0.0266297664493,119.833946228,1.34390354156,6000.0,1.33015787601,-0.0232141260058,-0.013745627366,89.6302185059,0.349065840244,0.0240919683129,0.00844390131533,0.000777352426667,0.0163007453084,0.0163007453084,-0.00177372724283,0.00915486551821,0.255396962166,0.255396962166,-0.0743238851428,-1.2708132267,1961,2028,2551,2038,2038,2907,3410,3412,3227,3349,3077,3037,3140,3130,3223,2841,3395,3403,3232,3354,3119,3337,3375,3179
1508406201081939295,120,1508406201081601816,plot_matl,0.0,0.0,1.40129846432e-45,4.59163467805e-41,8.20537463009e+24,4.5603857223e-41,0.349065840244,0.30363330245,1.33022522926,-0.00341363577172,-0.0103432741016,-0.0103432741016,0.0144483158365,0.000583564105909,-96.3454437256,-96.3454437256,-127.656326294,0.496912747622,1651,2314,2220,2046,2046,2893,3363,3384,3221,3331,3064,2898,3027,2958,3122,2746,3333,3359,3194,3279,2926,3263,3321,3054,0.010013245,1.200019572,1.2015894,0.680678427219,4500.0,0.654048621655,0.00620377343148,-0.0266297664493,119.833946228,1.34390354156,6000.0,1.33026599884,0.0136011969298,-0.0136375473812,78.2682723999,0.349065840244,0.0216827709228,0.00846786145121,0.000767645018641,-0.00840098597109,-0.00840098597109,-0.00228466489352,-0.0152296954766,0.346913427114,0.346913427114,-0.13698412478,-1.00979673862,1966,2036,2551,2038,2038,2907,3410,3412,3229,3349,3077,3035,3139,3131,3220,2840,3393,3402,3232,3354,3119,3337,3375,3179
1508406201091965473,121,1508406201091645981,plot_matl,0.0,0.0,1.40129846432e-45,4.59163467805e-41,8.20537463009e+24,4.5603857223e-41,0.349065840244,0.30498278141,1.3302090168,-0.00340894050896,0.00320760486647,0.00320760486647,0.0147382179275,0.000490040518343,-96.4359817505,-96.4359817505,-127.768676758,0.508823096752,1594,2222,2219,2047,2047,2892,3363,3384,3221,3331,3064,2898,3027,2958,3122,2746,3333,3359,3194,3276,2927,3263,3319,3054,0.010045192,1.210064438,1.215468232,0.680678427219,4500.0,0.654048621655,0.00656043784693,-0.0266297664493,119.833946228,1.34390354156,6000.0,1.33021056652,-0.0244169551879,-0.0136929275468,90.016746521,0.349065840244,0.0216827709228,0.0084591479972,0.000779184803832,-0.00814363732934,-0.00814363732934,-0.00211995770223,-0.0155015829951,0.271098583937,0.271098583937,-0.0257877930999,-1.22384953499,1967,2035,2551,2042,2042,2905,3410,3412,3229,3349,3077,3035,3139,3131,3220,2840,3393,3402,3230,3352,3116,3336,3374,3178
1508406201101894684,122,1508406201101592055,plot_matl,0.0,0.0,1.40129846432e-45,4.59163467805e-41,8.20537463009e+24,4.5603857223e-41,0.349065840244,0.30498278141,1.33026516438,-0.0034407498315,0.00336943077855,0.00336943077855,0.0134989619255,0.0011223674519,-96.4642105103,-96.4642105103,-127.925300598,0.596781075001,1583,2202,2219,2047,2047,2892,3366,3385,3219,3330,3061,2898,3027,2958,3119,2745,3333,3359,3194,3276,2927,3263,3319,3054,0.009943379,1.220009265,1.213092238,0.680678427219,4500.0,0.654048621655,0.00736521882936,-0.0266297664493,119.833946228,1.34390354156,6000.0,1.33031070232,-0.026717312634,-0.0135928522795,93.3924331665,0.349065840244,0.0216827709228,0.00844027101994,0.000747953599785,-0.00710580451414,-0.00710580451414,-0.00173459923826,0.00958205293864,0.163396254182,0.163396254182,-0.0127872107551,-0.95371735096,1973,2025,2551,2042,2042,2905,3412,3411,3226,3349,3077,3034,3139,3132,3222,2840,3393,3402,3230,3352,3116,3336,3374,3178
1508406201112013927,123,1508406201111637478,plot_matl,0.0,0.0,1.40129846432e-45,4.59163467805e-41,8.20537463009e+24,4.5603857223e-41,0.349065840244,0.30363330245,1.33029615879,-0.00344363227487,-0.00982071645558,-0.00982071645558,-0.0264342483133,0.00113783136476,-96.4086532593,-96.4086532593,-127.818283081,0.848062574863,1993,1554,2214,2048,2048,2892,3366,3385,3219,3330,3061,2898,3027,2958,3119,2745,3345,3370,3203,3285,2933,3269,3326,3061,0.01004633,1.230055366,1.23569859,0.680678427219,4500.0,0.652699172497,-0.0177606493235,-0.027979247272,125.906616211,1.34390354156,6000.0,1.33021616936,0.0142781632021,-0.0136873712763,77.6324768066,0.349065840244,0.0216827709228,0.00843926798552,0.000754589855205,-0.00633760169148,-0.00633760169148,0.0136320423335,-0.0151831572875,0.41244956851,0.41244956851,-0.527325391769,-0.989341497421,2035,1975,2551,2039,2039,2905,3412,3411,3226,3349,3077,3034,3139,3132,3222,2840,3409,3412,3242,3360,3125,3345,3381,3187
1508406201122063877,124,1508406201121610002,plot_matl,0.0,0.0,1.40129846432e-45,4.59163467805e-41,8.20537463009e+24,4.5603857223e-41,0.349065840244,0.30633226037,1.33020496368,-0.00342335668392,0.0179236847907,0.0179236847907,-0.0245748534799,0.010505720973,-96.4007034302,-96.4007034302,-127.812599182,0.85690677166,2037,1581,2214,2048,2048,2894,3367,3387,3224,3332,3063,2899,3029,2960,3119,2745,3345,3370,3203,3285,2933,3269,3326,3061,0.009972508,1.240027983,1.236590992,0.680678427219,4500.0,0.655398130417,0.0355017855763,-0.025280283764,113.761283875,1.34390354156,6000.0,1.33020424843,0.0144931478426,-0.0136993341148,77.8520126343,0.349065840244,0.0216827709228,0.00842408463359,0.000794561405201,-0.00565604353324,-0.00565604353324,-0.00139905768447,0.00849425233901,0.486101031303,0.486101031303,-0.502872467041,-0.940827429295,2041,1979,2551,2039,2039,2909,3415,3414,3230,3353,3079,3038,3141,3133,3222,2840,3409,3412,3242,3360,3125,3345,3381,3187
1508406201131922814,125,1508406201131590230,plot_matl,0.0,0.0,1.40129846432e-45,4.59163467805e-41,8.20537463009e+24,4.5603857223e-41,0.349065840244,0.30363330245,1.33023262024,-0.00340829766355,-0.00940790399909,-0.00940790399909,0.0139178670943,0.00043753234786,-96.477722168,-96.477722168,-127.986076355,0.937601625919,2004,1601,2214,2048,2048,2894,3367,3387,3224,3332,3063,2899,3029,2960,3121,2745,3333,3360,3194,3279,2928,3264,3323,3054,0.009979788,1.250008126,1.2474735,0.680678427219,4500.0,0.652699172497,-0.0190393421799,-0.027979247272,125.906616211,1.34390354156,6000.0,1.33025979996,0.0133468545973,-0.01364377141,77.9730453491,0.349065840244,0.0240919683129,0.0084115928039,0.000872249947861,0.0188055317849,0.0188055317849,-0.00113633263391,0.00690364837646,0.405721157789,0.405721157789,-0.378649681807,-1.02141225338,2044,1979,2551,2039,2039,2909,3415,3414,3230,3353,3079,3038,3141,3133,3224,2841,3396,3403,3233,3354,3119,3339,3374,3180
1508406201142056952,126,1508406201141619235,plot_matl,0.0,0.0,1.40129846432e-45,4.59163467805e-41,8.20537463009e+24,4.5603857223e-41,0.349065840244,0.30498278141,1.33024919033,-0.00340373022482,0.0039478847757,0.0039478847757,0.0135756842792,0.000343933148542,-96.6102142334,-96.6102142334,-128.064346313,0.970141232014,2011,1574,2213,2046,2046,2894,3366,3384,3222,3330,3062,2899,3029,2960,3121,2745,3333,3360,3194,3279,2928,3264,3323,3054,0.010029225,1.260037492,1.26368235,0.680678427219,4500.0,0.652699172497,-0.0199541207403,-0.027979247272,125.906616211,1.34390354156,6000.0,1.33024084568,0.0137409400195,-0.0136627331376,77.6247558594,0.349065840244,0.0216827709228,0.00845620129257,0.000891796604265,-0.00541919562966,-0.00541919562966,-0.00205249106511,0.0064907935448,0.260779112577,0.260779112577,-0.27444434166,-1.05088925362,2033,1970,2551,2039,2039,2905,3413,3413,3229,3349,3077,3034,3141,3133,3224,2841,3396,3403,3233,3354,3119,3339,3374,3180
1508406201151883561,127,1508406201151621125,plot_matl,0.0,0.0,1.40129846432e-45,4.59163467805e-41,8.20537463009e+24,4.5603857223e-41,0.349065840244,0.30498278141,1.33026695251,-0.00341721763834,0.0035036788322,0.0035036788322,0.0132127059624,0.000629237794783,-96.499382019,-96.499382019,-128.166809082,1.00051736832,1925,1570,2213,2046,2046,2894,3366,3384,3222,3330,3062,2899,3027,2959,3120,2743,3330,3359,3195,3276,2925,3264,3323,3054,0.010001135,1.270039046,1.270144145,0.680678427219,4500.0,0.654048621655,0.00744288088754,-0.0266297664493,119.833946228,1.34390354156,6000.0,1.33018827438,0.0148616870865,-0.013715274632,78.2816162109,0.349065840244,0.0192735753953,0.00846680533141,0.000842004665174,-0.0291117243469,-0.0291117243469,-0.00226099928841,0.00749080302194,0.214934945107,0.214934945107,-0.224596440792,-1.09013867378,2018,1967,2551,2039,2039,2905,3413,3413,3229,3349,3077,3034,3140,3130,3221,2840,3394,3402,3231,3353,3117,3338,3374,3180
1508406201162025443,128,1508406201161606689,plot_matl,0.0,0.0,1.40129846432e-45,4.59163467805e-41,8.20537463009e+24,4.5603857223e-41,0.349065840244,0.30498278141,1.33017897606,-0.00341958971694,0.00357573572546,0.00357573572546,-0.0240292754024,0.000693186419085,-96.4091339111,-96.4091339111,-128.116638184,1.16180312634,2026,1579,2214,2045,2045,2893,3364,3385,3222,3331,3062,2899,3027,2959,3120,2743,3330,3359,3195,3276,2925,3264,3323,3053,0.009985802,1.280024916,1.278182656,0.680678427219,4500.0,0.652699172497,-0.0196339152753,-0.027979247272,125.906616211,1.34390354156,6000.0,1.33018767834,0.014944607392,-0.0137158967555,77.8499450684,0.349065840244,0.0216827709228,0.00845972727984,0.000819762935862,-0.00388618535362,-0.00388618535362,-0.00213150936179,0.00789812486619,0.246506661177,0.246506661177,-0.184005975723,-1.13122320175,2039,1977,2551,2040,2040,2905,3410,3411,3226,3352,3077,3034,3140,3130,3221,2840,3394,3402,3231,3353,3117,3338,3375,3180
1508406201171898314,129,1508406201171590316,plot_matl,0.0,0.0,1.40129846432e-45,4.59163467805e-41,8.20537463009e+24,4.5603857223e-41,0.349065840244,0.30498278141,1.33017802238,-0.00343074952252,0.00392983015627,0.00392983015627,-0.0239477455616,0.000921006896533,-96.301864624,-96.301864624,-128.225204468,1.11168348789,2041,1585,2214,2045,2045,2893,3364,3385,3222,3331,3063,2897,3028,2957,3121,2745,3331,3356,3194,3277,2925,3264,3323,3053,0.009982634,1.290008257,1.287759786,0.680678427219,4500.0,0.654048621655,0.00622005853802,-0.0266297664493,119.833946228,1.34390354156,6000.0,1.33018028736,0.0150857977569,-0.0137232877314,77.8224639893,0.349065840244,0.0240919683129,0.00845586322248,0.000784462084994,0.0202599000186,0.0202599000186,0.0132953850552,0.00861320737749,0.307178705931,0.307178705931,-0.115280501544,-1.27296769619,2043,1968,2551,2040,2040,2905,3410,3411,3226,3352,3075,3035,3141,3131,3221,2840,3392,3403,3231,3352,3117,3338,3375,3180
1508406201181832947,130,1508406201181589106,plot_matl,0.0,0.0,1.40129846432e-45,4.59163467805e-41,8.20537463009e+24,4.5603857223e-41,0.349065840244,0.30498278141,1.33017289639,-0.00343047408387,0.00299161346629,0.00299161346629,0.0152478227392,0.000911596405786,-96.3601379395,-96.3601379395,-128.149307251,1.18922877312,2058,1574,2213,2045,2045,2891,3365,3382,3222,3331,3063,2897,3028,2957,3121,2745,3331,3356,3194,3277,2926,3262,3322,3053,0.009997812,1.300006847,1.29971556,0.680678427219,4500.0,0.652699172497,-0.0211038496345,-0.027979247272,125.906616211,1.34390354156,6000.0,1.33018028736,0.0150857977569,-0.0137232877314,77.8224639893,0.349065840244,0.0216827709228,0.00846413243562,0.000774493732024,-0.00420746160671,-0.00420746160671,-0.00222021364607,0.00881130620837,0.335150331259,0.335150331259,-0.0562987588346,-0.893226623535,2044,1978,2550,2038,2038,2904,3410,3411,3226,3352,3075,3035,3141,3131,3221,2840,3392,3403,3231,3352,3117,3336,3375,3178
1508406201192029364,131,1508406201191616679,plot_matl,0.0,0.0,1.40129846432e-45,4.59163467805e-41,8.20537463009e+24,4.5603857223e-41,0.349065840244,0.30498278141,1.33013045788,-0.00342968851328,0.00296071404591,0.00296071404591,0.0160964019597,0.0106634180993,-96.2948455811,-96.2948455811,-127.945030212,1.18914747238,2030,1557,2213,2045,2045,2891,3365,3382,3223,3328,3061,2897,3027,2960,3121,2745,3330,3353,3194,3277,2926,3262,3322,3053,0.010029188,1.31003503,1.313823628,0.680678427219,4500.0,0.654048621655,0.00557946646586,-0.0266297664493,119.833946228,1.34390354156,6000.0,1.33006620407,-0.0216948464513,-0.0138373384252,89.6721801758,0.349065840244,0.0240919683129,0.00847144331783,0.000763790565543,0.0195712223649,0.0195712223649,-0.00236505502835,0.00900825299323,0.154738411307,0.154738411307,-0.0460917763412,-0.966660261154,2025,1972,2550,2038,2038,2904,3410,3411,3228,3349,3075,3036,3138,3132,3222,2840,3392,3401,3231,3352,3117,3336,3375,3178
1508406201201714997,132,1508406201201576007,plot_matl,0.0,0.0,1.40129846432e-45,4.59163467805e-41,8.20537463009e+24,4.5603857223e-41,0.349065840244,0.30498278141,1.33009982109,-0.0034551396966,0.00268013682216,0.00268013682216,0.0166989844292,0.00142441620119,-96.241394043,-96.241394043,-127.887321472,1.07636404037,2004,1560,2213,2047,2047,2893,3365,3382,3223,3328,3061,2897,3027,2960,3121,2745,3330,3353,3194,3278,2926,3261,3321,3053,0.009955466,1.319992819,1.314121512,0.680678427219,4500.0,0.654048621655,0.00456507690251,-0.0266297664493,119.833946228,1.34390354156,6000.0,1.33007788658,0.0170867405832,-0.0138256670907,77.7262802124,0.349065840244,0.0216827709228,0.00846504047513,0.000740302784834,-0.00429676286876,-0.00429676286876,-0.00223468407057,0.00948042143136,0.318401873112,0.318401873112,-0.0377360396087,-0.872473120689,2031,1966,2551,2039,2039,2905,3410,3411,3228,3349,3075,3036,3138,3132,3222,2840,3392,3401,3231,3354,3118,3336,3373,3180
1508406201211889259,133,1508406201211582033,plot_matl,0.0,0.0,1.40129846432e-45,4.59163467805e-41,8.20537463009e+24,4.5603857223e-41,0.349065840244,0.30363330245,1.3301101923,-0.00344231259078,-0.0111666880548,-0.0111666880548,0.0164305139333,0.00116651388817,-96.1976852417,-96.1976852417,-127.980888367,1.15974497795,2044,1580,2213,2047,2047,2893,3362,3382,3221,3331,3061,2895,3028,2959,3117,2743,3330,3353,3194,3278,2926,3261,3321,3053,0.010007859,1.329999964,1.331045247,0.680678427219,4500.0,0.654048621655,0.00456507690251,-0.0266297664493,119.833946228,1.34390354156,6000.0,1.33007788658,0.0170867405832,-0.0138256670907,77.7262802124,0.349065840244,0.0216827709228,0.00845939200372,0.000779421825428,-0.00480168545619,-0.00480168545619,-0.00212175701745,0.0086923353374,0.485525488853,0.485525488853,-0.0309036187828,-0.876869142056,2039,1968,2551,2039,2039,2905,3410,3411,3228,3349,3076,3035,3139,3130,3221,2840,3392,3401,3231,3354,3118,3336,3373,3180
