%time,field.header.seq,field.header.stamp,field.header.frame_id,field.FFJ4_set_point,field.FFJ4_position_gain,field.FFJ4_process_value,field.FFJ4_process_value_dot,field.FFJ4_error,field.FFJ4_command,field.FFJ1,field.FFJ2,field.FFJ3,field.FFJ4,field.FFJ1_dot,field.FFJ2_dot,field.FFJ3_dot,field.FFJ4_dot,field.FFJ1_tao,field.FFJ2_tao,field.FFJ3_tao,field.FFJ4_tao,field.pac0,field.pac1,field.pdc0,field.tac0,field.tdc0,field.el0,field.el1,field.el2,field.el3,field.el4,field.el5,field.el6,field.el7,field.el8,field.el9,field.el10,field.el11,field.el12,field.el13,field.el14,field.el15,field.el16,field.el17,field.el18,field.dt,field.time,field.test_time2,field.FFJ0_set_point,field.FFJ0_position_gain,field.FFJ0_process_value,field.FFJ0_process_value_dot,field.FFJ0_error,field.FFJ0_command,field.FFJ3_set_point,field.FFJ3_position_gain,field.FFJ3_process_value,field.FFJ3_process_value_dot,field.FFJ3_error,field.FFJ3_command,field.MFJ1,field.MFJ2,field.MFJ3,field.MFJ4,field.MFJ1_dot,field.MFJ2_dot,field.MFJ3_dot,field.MFJ4_dot,field.MFJ1_tao,field.MFJ2_tao,field.MFJ3_tao,field.MFJ4_tao,field.Mpac0,field.Mpac1,field.Mpdc0,field.Mtac0,field.Mtdc0,field.Mel0,field.Mel1,field.Mel2,field.Mel3,field.Mel4,field.Mel5,field.Mel6,field.Mel7,field.Mel8,field.Mel9,field.Mel10,field.Mel11,field.Mel12,field.Mel13,field.Mel14,field.Mel15,field.Mel16,field.Mel17,field.Mel18
1508403703504929482,113,1508403703504709659,plot_matl,-0.300000011921,-4000.0,-0.297956764698,-0.00461766775697,0.0,0.0,0.349065840244,0.0701730325818,-0.00940749794245,-0.297945052385,0.0131572820246,0.0131572820246,0.002104281215,0.00111877045128,15.86622715,15.86622715,0.591179788113,-123.578491211,1968,2002,2112,2030,2030,2802,3346,3359,3176,3302,3025,2970,3063,3073,3165,2858,3363,3362,3185,3266,2906,3279,3308,3027,0.009996329,1.12993355,1.129585177,0.401425719261,4500.0,0.417889386415,0.000679306744132,0.0164636727422,-74.0865249634,0.0,6000.0,-0.00942785106599,-0.0109074246138,-0.00942785106599,59.8310699463,0.349065840244,0.0289103612304,-0.0329960770905,0.304869621992,0.0104772113264,0.0104772113264,-0.00860387459397,0.0267219059169,156.008743286,156.008743286,-258.063446045,-63.1792945862,1974,1977,2634,2043,2043,3062,3445,3442,3294,3378,3126,3009,3150,3098,3225,2731,3384,3402,3233,3361,3127,3347,3388,3195
1508403703514860198,114,1508403703514710222,plot_matl,-0.300000011921,-4000.0,-0.297949880362,0.00122047227342,0.0,0.0,0.349065840244,0.0701730325818,-0.00940749794245,-0.297945052385,0.0131572820246,0.0131572820246,0.002104281215,0.00111877045128,15.86622715,15.86622715,0.591179788113,-123.578491211,1949,1995,2114,2030,2030,2802,3346,3359,3176,3302,3025,2970,3063,3073,3165,2859,3362,3362,3184,3267,2907,3279,3305,3027,0.010000452,1.139934104,1.140051528,0.401425719261,4500.0,0.416539907455,-0.0286314170808,0.0151141919196,-68.0138626099,0.0,6000.0,-0.00944232940674,-0.0106100058183,-0.00944232940674,59.9038047791,0.349065840244,0.0289103612304,-0.0329960770905,0.304869621992,0.0104772113264,0.0104772113264,-0.00860387459397,0.0267219059169,156.008743286,156.008743286,-258.063446045,-63.1792945862,1963,1963,2636,2043,2043,3062,3445,3442,3294,3378,3126,3009,3150,3098,3225,2730,3385,3403,3233,3360,3129,3347,3387,3196
1508403703525084883,115,1508403703524725864,plot_matl,-0.300000011921,-4000.0,-0.297949314117,0.00120907276869,0.0,0.0,0.349065840244,0.0701730325818,-0.00940749794245,-0.297945052385,0.0131572820246,0.0131572820246,0.002104281215,0.00111877045128,15.86622715,15.86622715,0.591179788113,-123.578491211,1955,1989,2114,2029,2029,2801,3345,3359,3177,3303,3028,2969,3061,3073,3165,2859,3362,3362,3184,3267,2907,3279,3305,3027,0.010018517,1.149951287,1.152129455,0.401425719261,4500.0,0.419238895178,0.0256051011384,0.0178131535649,-80.1591949463,0.0,6000.0,-0.00943981576711,0.0027653852012,-0.00943981576711,55.808467865,0.349065840244,0.0289103612304,-0.0329960770905,0.304869621992,0.0104772113264,0.0104772113264,-0.00860387459397,0.0267219059169,156.008743286,156.008743286,-258.063446045,-63.1792945862,1967,1963,2636,2041,2041,3062,3445,3444,3294,3378,3126,3009,3147,3098,3225,2730,3385,3403,3233,3360,3129,3347,3387,3196
1508403703535225546,116,1508403703534764982,plot_matl,-0.300000011921,-4000.0,-0.297944158316,0.00110589968972,0.0,0.0,0.349065840244,0.0688235536218,-0.00944258458912,-0.29795050621,-0.000569733267184,-0.000569733267184,0.00282113812864,0.00123344885651,15.7929267883,15.7929267883,0.00924302171916,-123.315689087,1938,1979,2114,2029,2029,2801,3345,3359,3177,3303,3028,2969,3061,3072,3165,2858,3364,3363,3186,3265,2905,3280,3306,3027,0.010038576,1.159990235,1.164474816,0.401425719261,4500.0,0.417889386415,-0.0013621939579,0.0164636727422,-74.0865249634,0.0,6000.0,-0.00943991634995,-0.0106470510364,-0.00943991634995,59.8304176331,0.349065840244,0.0289103612304,-0.0330040678382,0.305084586143,0.0111601399258,0.0111601399258,-0.00843967311084,0.0224106740206,155.697509766,155.697509766,-258.387268066,-63.1482925415,1952,1964,2636,2041,2041,3062,3445,3444,3294,3378,3126,3009,3147,3096,3224,2728,3383,3403,3233,3359,3128,3347,3388,3196
1508403703545166471,117,1508403703544752557,plot_matl,-0.300000011921,-4000.0,-0.297961264849,-0.00452420208603,0.0,0.0,0.349065840244,0.0688235536218,-0.00944258458912,-0.29795050621,-0.000569733267184,-0.000569733267184,0.00282113812864,0.00123344885651,15.7929267883,15.7929267883,0.00924302171916,-123.315689087,1960,2002,2115,2029,2029,2803,3344,3360,3177,3304,3029,2969,3061,3072,3165,2858,3364,3363,3186,3265,2905,3280,3306,3029,0.009987581,1.169977986,1.168546977,0.401425719261,4500.0,0.417889386415,-0.000683319580276,0.0164636727422,-74.0865249634,0.0,6000.0,-0.00944945029914,0.00296924379654,-0.00944945029914,55.8294410706,0.349065840244,0.0289103612304,-0.0330040678382,0.305084586143,0.0111601399258,0.0111601399258,-0.00843967311084,0.0224106740206,155.697509766,155.697509766,-258.387268066,-63.1482925415,1971,1987,2637,2043,2043,3062,3445,3441,3296,3380,3126,3009,3147,3096,3224,2728,3383,3403,3233,3359,3128,3347,3388,3197
1508403703555018324,118,1508403703554757511,plot_matl,-0.300000011921,-4000.0,-0.297970056534,-0.0043475930579,0.0,0.0,0.349065840244,0.0688235536218,-0.00944258458912,-0.29795050621,-0.000569733267184,-0.000569733267184,0.00282113812864,0.00123344885651,15.7929267883,15.7929267883,0.00924302171916,-123.315689087,1978,2005,2115,2029,2029,2803,3344,3360,3177,3304,3029,2970,3063,3072,3165,2859,3363,3362,3190,3267,2908,3280,3306,3029,0.010002969,1.179982233,1.180350342,0.401425719261,4500.0,0.417889386415,-0.000683319580276,0.0164636727422,-74.0865249634,0.0,6000.0,-0.00944945029914,0.00296924379654,-0.00944945029914,55.8294410706,0.349065840244,0.0289103612304,-0.0330040678382,0.305084586143,0.0111601399258,0.0111601399258,-0.00843967311084,0.0224106740206,155.697509766,155.697509766,-258.387268066,-63.1482925415,1988,1981,2637,2043,2043,3062,3445,3441,3296,3380,3126,3007,3150,3095,3224,2729,3383,3403,3232,3362,3129,3347,3388,3197
1508403703565050576,119,1508403703564769143,plot_matl,-0.300000011921,-4000.0,-0.297970056534,-0.0043475930579,0.0,0.0,0.349065840244,0.0688235536218,-0.00944258458912,-0.29795050621,-0.000569733267184,-0.000569733267184,0.00282113812864,0.00123344885651,15.7929267883,15.7929267883,0.00924302171916,-123.315689087,1980,2020,2117,2027,2027,2806,3346,3362,3178,3304,3029,2970,3063,3072,3165,2859,3363,3362,3190,3267,2908,3279,3306,3028,0.010012962,1.189994451,1.191542478,0.401425719261,4500.0,0.419238895178,0.0266146343201,0.0178131535649,-80.1591949463,0.0,6000.0,-0.00944607518613,0.00288931420073,-0.00944607518613,55.761631012,0.349065840244,0.0289103612304,-0.0330040678382,0.305084586143,0.0111601399258,0.0111601399258,-0.00843967311084,0.0224106740206,155.697509766,155.697509766,-258.387268066,-63.1482925415,1995,1996,2638,2045,2045,3064,3445,3443,3298,3380,3126,3007,3150,3095,3224,2729,3383,3403,3232,3362,3129,3345,3388,3198
1508403703575403795,120,1508403703574760662,plot_matl,-0.300000011921,-4000.0,-0.29797104001,-0.00431738886982,0.0,0.0,0.349065840244,0.0701730325818,-0.00954427942634,-0.297963261604,0.0142873879522,0.0142873879522,-0.00850050896406,0.00151012896094,15.4520759583,15.4520759583,0.882676124573,-123.460708618,2037,2057,2117,2027,2027,2806,3346,3362,3178,3305,3028,2981,3075,3084,3175,2868,3372,3368,3195,3267,2908,3279,3306,3028,0.009990783,1.199985865,1.19889396,0.401425719261,4500.0,0.419238895178,0.0287818051875,0.0178131535649,-80.1591949463,0.0,6000.0,-0.00952811446041,0.00461727520451,-0.00952811446041,55.8913955688,0.349065840244,0.0289103612304,-0.0331947915256,0.304914265871,0.0130025250837,0.0130025250837,-0.00456621823832,0.0264220517129,155.692123413,155.692123413,-258.384185791,-62.9476394653,2033,2031,2638,2045,2045,3064,3445,3443,3298,3379,3127,3021,3161,3106,3236,2735,3393,3411,3237,3362,3129,3345,3388,3198
1508403703585245470,121,1508403703584845764,plot_matl,-0.300000011921,-4000.0,-0.29797360301,-0.00425756117329,0.0,0.0,0.349065840244,0.0701730325818,-0.00954427942634,-0.297963261604,0.0142873879522,0.0142873879522,-0.00850050896406,0.00151012896094,15.4520759583,15.4520759583,0.882676124573,-123.460708618,2045,2065,2116,2027,2027,2806,3346,3362,3178,3305,3028,2981,3075,3084,3175,2868,3372,3368,3195,3275,2912,3286,3313,3033,0.01008417,1.210070691,1.22018457,0.401425719261,4500.0,0.417889386415,0.00272338464856,0.0164636727422,-74.0865249634,0.0,6000.0,-0.00954566989094,0.00495641026646,-0.00954566989094,55.7824172974,0.349065840244,0.0289103612304,-0.0331947915256,0.304914265871,0.0130025250837,0.0130025250837,-0.00456621823832,0.0264220517129,155.692123413,155.692123413,-258.384185791,-62.9476394653,2041,2034,2638,2044,2044,3066,3449,3443,3298,3379,3127,3021,3161,3106,3236,2735,3393,3411,3237,3367,3134,3352,3394,3201
1508403703594916128,122,1508403703594740239,plot_matl,-0.300000011921,-4000.0,-0.297974437475,0.00173260341398,0.0,0.0,0.349065840244,0.0701730325818,-0.00954427942634,-0.297963261604,0.0142873879522,0.0142873879522,-0.00850050896406,0.00151012896094,15.4520759583,15.4520759583,0.882676124573,-123.460708618,2055,2072,2116,2027,2027,2806,3346,3362,3180,3308,3031,2971,3065,3074,3168,2860,3368,3368,3195,3275,2912,3286,3313,3033,0.009892857,1.219964572,1.206928554,0.401425719261,4500.0,0.416539907455,-0.0229968652129,0.0151141919196,-68.0138626099,0.0,6000.0,-0.00953732617199,0.00478393631056,-0.00953732617199,55.8311691284,0.349065840244,0.0289103612304,-0.0331947915256,0.304914265871,0.0130025250837,0.0130025250837,-0.00456621823832,0.0264220517129,155.692123413,155.692123413,-258.384185791,-62.9476394653,2051,2046,2638,2044,2044,3066,3449,3447,3300,3382,3130,3008,3151,3097,3227,2729,3384,3411,3237,3367,3134,3352,3394,3201
1508403703605147586,123,1508403703604782899,plot_matl,-0.300000011921,-4000.0,-0.297979682684,0.00183957908303,0.0,0.0,0.349065840244,0.0701730325818,-0.00954427942634,-0.297963261604,0.0142873879522,0.0142873879522,-0.00850050896406,0.00151012896094,15.4520759583,15.4520759583,0.882676124573,-123.460708618,2056,2104,2116,2029,2029,2806,3346,3362,3180,3308,3031,2971,3065,3074,3168,2860,3368,3363,3188,3268,2908,3280,3309,3028,0.010054921,1.230008383,1.236755283,0.401425719261,4500.0,0.416539907455,-0.0222331918776,0.0151141919196,-68.0138626099,0.0,6000.0,-0.00956470146775,0.00533394003287,-0.00956470146775,55.7205162048,0.349065840244,0.0289103612304,-0.0331947915256,0.304914265871,0.0130025250837,0.0130025250837,-0.00456621823832,0.0264220517129,155.692123413,155.692123413,-258.384185791,-62.9476394653,2059,2069,2637,2039,2039,3066,3449,3447,3300,3382,3130,3008,3151,3097,3227,2729,3384,3405,3234,3362,3131,3347,3390,3199
1508403703614980306,124,1508403703614729998,plot_matl,-0.300000011921,-4000.0,-0.297968327999,0.00160740723368,0.0,0.0,0.349065840244,0.0688235536218,-0.00959749240428,-0.297969311476,0.00338656129315,0.00338656129315,-0.00744067179039,0.0016318380367,15.5245819092,15.5245819092,0.728623688221,-123.277038574,2058,2099,2116,2029,2029,2804,3348,3362,3177,3303,3030,2970,3066,3073,3165,2860,3368,3363,3188,3268,2908,3280,3309,3028,0.009934858,1.239954785,1.231922392,0.401425719261,4500.0,0.416539907455,-0.0206434875727,0.0151141919196,-68.0138626099,0.0,6000.0,-0.00960113294423,-0.00735451979563,-0.00960113294423,59.8286323547,0.349065840244,0.0265011657029,-0.0331991426647,0.305006176233,-0.0137745933607,-0.0137745933607,-0.00449485564604,0.0243855752051,155.769378662,155.769378662,-258.032897949,-62.8396034241,2065,2069,2637,2039,2039,3064,3446,3445,3298,3382,3126,3009,3148,3097,3226,2729,3384,3405,3234,3362,3131,3347,3390,3199
1508403703625067492,125,1508403703624750714,plot_matl,-0.300000011921,-4000.0,-0.297964781523,0.00153514347039,0.0,0.0,0.349065840244,0.0688235536218,-0.00959749240428,-0.297969311476,0.00338656129315,0.00338656129315,-0.00744067179039,0.0016318380367,15.5245819092,15.5245819092,0.728623688221,-123.277038574,2060,2102,2115,2029,2029,2804,3348,3362,3177,3303,3030,2970,3066,3073,3165,2858,3365,3362,3188,3268,2908,3278,3308,3027,0.010021239,1.249975867,1.252654875,0.401425719261,4500.0,0.416539907455,-0.0203123614192,0.0151141919196,-68.0138626099,0.0,6000.0,-0.00960827432573,0.00618726573884,-0.00960827432573,55.7891807556,0.349065840244,0.0265011657029,-0.0331991426647,0.305006176233,-0.0137745933607,-0.0137745933607,-0.00449485564604,0.0243855752051,155.769378662,155.769378662,-258.032897949,-62.8396034241,2060,2068,2636,2039,2039,3064,3446,3445,3298,3382,3126,3009,3148,3097,3226,2728,3384,3402,3232,3360,3128,3345,3389,3196
1508403703635052417,126,1508403703634740761,plot_matl,-0.300000011921,-4000.0,-0.29797232151,0.00168470561039,0.0,0.0,0.349065840244,0.0688235536218,-0.00959749240428,-0.297969311476,0.00338656129315,0.00338656129315,-0.00744067179039,0.0016318380367,15.5245819092,15.5245819092,0.728623688221,-123.277038574,2059,2084,2115,2030,2030,2805,3344,3360,3177,3305,3027,2968,3063,3073,3165,2858,3365,3362,3188,3268,2908,3278,3308,3027,0.009991059,1.259966284,1.258873434,0.401425719261,4500.0,0.420588374138,0.0587173067033,0.0191626362503,-86.2318572998,0.0,6000.0,-0.00958853214979,0.00578134972602,-0.00958853214979,55.8346748352,0.349065840244,0.0265011657029,-0.0331991426647,0.305006176233,-0.0137745933607,-0.0137745933607,-0.00449485564604,0.0243855752051,155.769378662,155.769378662,-258.032897949,-62.8396034241,2058,2055,2636,2041,2041,3063,3445,3443,3296,3381,3127,3008,3149,3097,3226,2728,3384,3402,3232,3360,3128,3345,3389,3196
1508403703645279075,127,1508403703644791344,plot_matl,-0.300000011921,-4000.0,-0.29796782136,0.00159605336376,0.0,0.0,0.349065840244,0.0688235536218,-0.00959749240428,-0.297969311476,0.00338656129315,0.00338656129315,-0.00744067179039,0.0016318380367,15.5245819092,15.5245819092,0.728623688221,-123.277038574,2053,2067,2115,2030,2030,2805,3344,3360,3177,3305,3027,2968,3063,3073,3166,2857,3364,3363,3185,3265,2908,3280,3308,3027,0.010049285,1.270016702,1.276259195,0.401425719261,4500.0,0.416539907455,-0.0217891186476,0.0151141919196,-68.0138626099,0.0,6000.0,-0.0095485355705,0.00497551262379,-0.0095485355705,55.7295837402,0.349065840244,0.0265011657029,-0.0331991426647,0.305006176233,-0.0137745933607,-0.0137745933607,-0.00449485564604,0.0243855752051,155.769378662,155.769378662,-258.032897949,-62.8396034241,2053,2042,2636,2041,2041,3063,3445,3443,3296,3381,3127,3008,3149,3097,3225,2727,3384,3403,3234,3358,3127,3348,3389,3196
1508403703655218487,128,1508403703654742162,plot_matl,-0.300000011921,-4000.0,-0.297959327698,0.00142087554559,0.0,0.0,0.349065840244,0.0688235536218,-0.00955917313695,-0.297963351011,0.00257271924056,0.00257271924056,-0.00821842532605,0.00150517863221,15.5700359344,15.5700359344,0.791554808617,-123.27809906,2029,2062,2114,2031,2031,2804,3344,3361,3177,3305,3026,2968,3063,3073,3166,2857,3364,3363,3185,3265,2908,3280,3308,3027,0.009950317,1.279967239,1.273640576,0.401425719261,4500.0,0.417889386415,0.00346540752798,0.0164636727422,-74.0865249634,0.0,6000.0,-0.00958872400224,-0.00763338245451,-0.00958872400224,59.8173942566,0.349065840244,0.0265011657029,-0.0331947207451,0.305006533861,-0.0133619019762,-0.0133619019762,-0.00456934701651,0.024197883904,155.902755737,155.902755737,-258.007354736,-63.2210083008,2030,2032,2636,2043,2043,3063,3444,3442,3294,3380,3125,3008,3149,3097,3225,2727,3384,3403,3234,3358,3127,3348,3389,3197
1508403703665086541,129,1508403703664746089,plot_matl,-0.300000011921,-4000.0,-0.297946661711,0.00116440805141,0.0,0.0,0.349065840244,0.0688235536218,-0.00955902691931,-0.297943353653,0.000815884210169,0.000815884210169,0.0051887286827,0.00109685922507,15.5902605057,15.5902605057,0.364269196987,-123.401901245,2029,2051,2114,2031,2031,2804,3344,3361,3177,3305,3026,2969,3064,3071,3167,2858,3363,3362,3187,3266,2908,3280,3308,3027,0.010004213,1.289971658,1.290543477,0.401425719261,4500.0,0.420588374138,0.0568129345775,0.0191626362503,-86.2318572998,0.0,6000.0,-0.00956118386239,0.00523467455059,-0.00956118386239,55.8060073853,0.349065840244,0.0265011657029,-0.0331628732383,0.304935932159,-0.0126291429624,-0.0126291429624,0.0101430751383,-0.0361848324537,155.843154907,155.843154907,-258.242675781,-63.1081848145,2028,2032,2636,2043,2043,3063,3444,3442,3294,3380,3125,3008,3150,3097,3224,2728,3383,3401,3232,3359,3127,3348,3389,3197
1508403703675163400,130,1508403703674746684,plot_matl,-0.300000011921,-4000.0,-0.297941565514,0.00106038025115,0.0,0.0,0.349065840244,0.0688235536218,-0.00955902691931,-0.297943353653,0.000815884210169,0.000815884210169,0.0051887286827,0.00109685922507,15.5902605057,15.5902605057,0.364269196987,-123.401901245,2009,2056,2114,2031,2031,2801,3344,3360,3176,3305,3026,2969,3064,3071,3167,2858,3363,3362,3187,3266,2908,3279,3305,3027,0.009999117,1.299971704,1.29988521,0.401425719261,4500.0,0.416539907455,-0.02527930215,0.0151141919196,-68.0138626099,0.0,6000.0,-0.00955096725374,-0.00839819665998,-0.00955096725374,59.8171195984,0.349065840244,0.0265011657029,-0.0331628732383,0.304935932159,-0.0126291429624,-0.0126291429624,0.0101430751383,-0.0361848324537,155.843154907,155.843154907,-258.242675781,-63.1081848145,2020,2022,2637,2043,2043,3062,3444,3443,3296,3380,3125,3008,3150,3097,3224,2728,3383,3401,3232,3359,3127,3348,3387,3194
1508403703685152538,131,1508403703684745776,plot_matl,-0.300000011921,-4000.0,-0.297948360443,0.00119577115402,0.0,0.0,0.349065840244,0.0688235536218,-0.00955902691931,-0.297943353653,0.000815884210169,0.000815884210169,0.0051887286827,0.00109685922507,15.5902605057,15.5902605057,0.364269196987,-123.401901245,1996,2046,2114,2031,2031,2801,3344,3360,3176,3304,3028,2970,3063,3073,3165,2859,3363,3362,3186,3266,2908,3279,3305,3027,0.01000024,1.30997138,1.31003144,0.401425719261,4500.0,0.417889386415,0.00211304239929,0.0164636727422,-74.0865249634,0.0,6000.0,-0.00955465529114,0.00510291103274,-0.00955465529114,55.7256126404,0.349065840244,0.0265011657029,-0.0331628732383,0.304935932159,-0.0126291429624,-0.0126291429624,0.0101430751383,-0.0361848324537,155.843154907,155.843154907,-258.242675781,-63.1081848145,2004,2013,2637,2043,2043,3062,3444,3443,3296,3380,3127,3008,3146,3097,3225,2729,3384,3401,3233,3359,3127,3348,3387,3194
1508403703695144805,132,1508403703694737988,plot_matl,-0.300000011921,-4000.0,-0.297958701849,0.00140650535468,0.0,0.0,0.349065840244,0.0688235536218,-0.00955902691931,-0.297943353653,0.000815884210169,0.000815884210169,0.0051887286827,0.00109685922507,15.5902605057,15.5902605057,0.364269196987,-123.401901245,2017,2039,2114,2028,2028,2802,3343,3360,3176,3304,3028,2970,3063,3073,3165,2859,3363,3362,3186,3265,2909,3280,3309,3026,0.009991409,1.319963331,1.318865988,0.401425719261,4500.0,0.417889386415,0.0027495212853,0.0164636727422,-74.0865249634,0.0,6000.0,-0.00954607687891,0.00492899026722,-0.00954607687891,55.8004951477,0.349065840244,0.0265011657029,-0.0331628732383,0.304935932159,-0.0126291429624,-0.0126291429624,0.0101430751383,-0.0361848324537,155.843154907,155.843154907,-258.242675781,-63.1081848145,2017,2010,2636,2037,2037,3061,3444,3443,3296,3380,3127,3008,3146,3097,3225,2729,3384,3401,3233,3360,3129,3347,3388,3196
1508403703705248890,133,1508403703704776895,plot_matl,-0.300000011921,-4000.0,-0.297978430986,0.0018042359734,0.0,0.0,0.349065840244,0.0688235536218,-0.0095571661368,-0.297979056835,0.00127443484962,0.00127443484962,0.00515143293887,-0.00415895180777,15.6493501663,15.6493501663,0.0936619192362,-123.336700439,2008,2043,2114,2028,2028,2802,3343,3360,3176,3301,3028,2969,3062,3071,3164,2861,3362,3362,3186,3265,2909,3280,3309,3026,0.010038827,1.330002433,1.335163991,0.401425719261,4500.0,0.417889386415,0.00270701316185,0.0164636727422,-74.0865249634,0.0,6000.0,-0.00957296602428,0.00547105167061,-0.00957296602428,55.8004608154,0.349065840244,0.0289103612304,-0.0331751666963,0.304946601391,0.0137813882902,0.0137813882902,-0.00496750278398,0.025345556438,155.765151978,155.765151978,-258.457244873,-63.3318367004,2017,2017,2636,2037,2037,3061,3444,3443,3296,3380,3126,3008,3149,3097,3225,2731,3383,3401,3233,3360,3129,3347,3388,3196
1508403703715393116,134,1508403703714813562,plot_matl,-0.300000011921,-4000.0,-0.297978132963,0.0017984356964,0.0,0.0,0.349065840244,0.0688235536218,-0.0095571661368,-0.297979056835,0.00127443484962,0.00127443484962,0.00515143293887,-0.00415895180777,15.6493501663,15.6493501663,0.0936619192362,-123.336700439,2026,2065,2114,2028,2028,2802,3343,3360,3176,3301,3028,2969,3062,3071,3164,2861,3362,3363,3187,3267,2907,3277,3307,3027,0.010036857,1.340038875,1.344938838,0.401425719261,4500.0,0.416539907455,-0.0244441181421,0.0151141919196,-68.0138626099,0.0,6000.0,-0.00954741239548,0.00495440233499,-0.00954741239548,55.8136367798,0.349065840244,0.0289103612304,-0.0331751666963,0.304946601391,0.0137813882902,0.0137813882902,-0.00496750278398,0.025345556438,155.765151978,155.765151978,-258.457244873,-63.3318367004,2029,2036,2637,2039,2039,3061,3444,3443,3296,3380,3126,3008,3149,3097,3225,2731,3383,3401,3232,3362,3128,3347,3388,3198
1508403703725070031,135,1508403703724766158,plot_matl,-0.300000011921,-4000.0,-0.29797360301,-0.00427094660699,0.0,0.0,0.349065840244,0.0688235536218,-0.0095571661368,-0.297979056835,0.00127443484962,0.00127443484962,0.00515143293887,-0.00415895180777,15.6493501663,15.6493501663,0.0936619192362,-123.336700439,2037,2059,2114,2028,2028,2802,3345,3358,3176,3305,3028,2968,3063,3072,3165,2861,3362,3363,3187,3267,2907,3277,3307,3027,0.009951474,1.349991667,1.34344899,0.401425719261,4500.0,0.417889386415,0.00284083024599,0.0164636727422,-74.0865249634,0.0,6000.0,-0.00951437465847,0.00428127450868,-0.00951437465847,55.8462867737,0.349065840244,0.0289103612304,-0.0331751666963,0.304946601391,0.0137813882902,0.0137813882902,-0.00496750278398,0.025345556438,155.765151978,155.765151978,-258.457244873,-63.3318367004,2036,2041,2637,2039,2039,3062,3446,3443,3296,3381,3126,3009,3148,3096,3225,2731,3383,3401,3232,3362,3128,3347,3388,3198
1508403703735093954,136,1508403703734765135,plot_matl,-0.300000011921,-4000.0,-0.297990202904,0.00203370372765,0.0,0.0,0.349065840244,0.0688235536218,-0.0095571661368,-0.297979056835,0.00127443484962,0.00127443484962,0.00515143293887,-0.00415895180777,15.6493501663,15.6493501663,0.0936619192362,-123.336700439,2055,2071,2114,2028,2028,2802,3345,3358,3176,3305,3028,2968,3063,3072,3165,2857,3363,3361,3185,3266,2908,3279,3305,3027,0.0099984,1.359990418,1.3597824,0.401425719261,4500.0,0.419238895178,0.0285410974175,0.0178131535649,-80.1591949463,0.0,6000.0,-0.00949950702488,0.00398858170956,-0.00949950702488,55.8380622864,0.349065840244,0.0289103612304,-0.0331751666963,0.304946601391,0.0137813882902,0.0137813882902,-0.00496750278398,0.025345556438,155.765151978,155.765151978,-258.457244873,-63.3318367004,2052,2043,2635,2039,2039,3062,3446,3443,3296,3381,3126,3009,3148,3096,3225,2729,3384,3403,3232,3360,3127,3345,3388,3197
1508403703745077482,137,1508403703744727328,plot_matl,-0.300000011921,-4000.0,-0.297998130322,0.00219583837315,0.0,0.0,0.349065840244,0.0674740672112,-0.00947823468596,-0.298009157181,-0.0124043757096,-0.0124043757096,0.00355317885987,-0.00355951953679,15.5653610229,15.5653610229,0.0985991284251,-123.682014465,2064,2089,2114,2031,2031,2804,3347,3360,3176,3303,3026,2967,3061,3072,3165,2857,3363,3361,3185,3266,2908,3279,3305,3027,0.009960812,1.369951746,1.364631244,0.401425719261,4500.0,0.417889386415,0.00203217728995,0.0164636727422,-74.0865249634,0.0,6000.0,-0.00948922708631,0.00377545226365,-0.00948922708631,55.845035553,0.349065840244,0.0289103612304,-0.0331520624459,0.304981827736,0.0133061744273,0.0133061744273,-0.00542284874246,-0.037370853126,155.839065552,155.839065552,-258.230529785,-62.9822921753,2068,2067,2635,2041,2041,3063,3444,3443,3296,3378,3125,3008,3149,3096,3225,2729,3384,3403,3232,3360,3127,3345,3388,3197
1508403703755168487,138,1508403703754726539,plot_matl,-0.300000011921,-4000.0,-0.297998130322,0.00219583837315,0.0,0.0,0.349065840244,0.0674740672112,-0.00947823468596,-0.298009157181,-0.0124043757096,-0.0124043757096,0.00355317885987,-0.00355951953679,15.5653610229,15.5653610229,0.0985991284251,-123.682014465,2064,2089,2114,2031,2031,2804,3347,3360,3176,3303,3026,2967,3061,3072,3165,2857,3363,3361,3185,3266,2908,3279,3305,3027,0.009998512,1.379951123,1.379794656,0.401425719261,4500.0,0.417889386415,0.00203217728995,0.0164636727422,-74.0865249634,0.0,6000.0,-0.00948922708631,0.00377545226365,-0.00948922708631,55.845035553,0.349065840244,0.0289103612304,-0.0331520624459,0.304981827736,0.0133061744273,0.0133061744273,-0.00542284874246,-0.037370853126,155.839065552,155.839065552,-258.230529785,-62.9822921753,2068,2067,2635,2041,2041,3063,3444,3443,3296,3378,3125,3008,3149,3096,3225,2729,3384,3403,3232,3360,3127,3345,3388,3197
1508403703765224398,139,1508403703764749912,plot_matl,-0.300000011921,-4000.0,-0.297991007566,0.00259954622015,0.0,0.0,0.349065840244,0.0674740672112,-0.00947823468596,-0.298009157181,-0.0124043757096,-0.0124043757096,0.00355317885987,-0.00355951953679,15.5653610229,15.5653610229,0.0985991284251,-123.682014465,2079,2127,2114,2031,2031,2804,3347,3360,3176,3303,3026,2967,3061,3073,3163,2855,3364,3384,3205,3284,2919,3294,3317,3027,0.010025525,1.389975521,1.393547975,0.401425719261,4500.0,0.417889386415,0.0054563479498,0.0164636727422,-74.0865249634,0.0,6000.0,-0.00944480393082,0.0041297050193,-0.00944480393082,45.2440910339,0.349065840244,0.0289103612304,-0.0331520624459,0.304981827736,0.0133061744273,0.0133061744273,-0.00542284874246,-0.037370853126,155.839065552,155.839065552,-258.230529785,-62.9822921753,2080,2083,2635,2041,2041,3063,3444,3443,3296,3378,3125,3008,3149,3098,3224,2728,3384,3423,3249,3377,3142,3361,3401,3197
1508403703775006825,140,1508403703774727916,plot_matl,-0.300000011921,-4000.0,-0.298017382622,-0.00298560736701,0.0,0.0,0.349065840244,0.0674740672112,-0.00947823468596,-0.298009157181,-0.0124043757096,-0.0124043757096,0.00355317885987,-0.00355951953679,15.5653610229,15.5653610229,0.0985991284251,-123.682014465,2079,2127,2114,2031,2031,2804,3347,3360,3176,3303,3026,2967,3061,3073,3163,2855,3364,3384,3205,3284,2919,3294,3317,3027,0.009975361,1.399952571,1.39655054,0.401425719261,4500.0,0.416539907455,-0.0229400862008,0.0151141919196,-68.0138626099,0.0,6000.0,-0.00942894816399,0.00357077037916,-0.00942894816399,55.8097305298,0.349065840244,0.0289103612304,-0.0331520624459,0.304981827736,0.0133061744273,0.0133061744273,-0.00542284874246,-0.037370853126,155.839065552,155.839065552,-258.230529785,-62.9822921753,2080,2083,2635,2041,2041,3063,3444,3443,3296,3378,3125,3008,3149,3098,3224,2728,3384,3423,3249,3377,3142,3361,3401,3197
1508403703785161866,141,1508403703784759231,plot_matl,-0.300000011921,-4000.0,-0.2979991436,0.0025494126603,0.0,0.0,0.349065840244,0.0688235536218,-0.0094130858779,-0.297994822264,0.00264723063447,0.00264723063447,0.0030422101263,0.0024492572993,15.5303201675,15.5303201675,0.317619413137,-122.962211609,2071,2098,2113,2030,2030,2810,3355,3368,3183,3310,3032,2974,3067,3077,3170,2858,3369,3364,3187,3266,2908,3294,3317,3039,0.010032321,1.409984619,1.414557261,0.401425719261,4500.0,0.416539907455,-0.0229400862008,0.0151141919196,-68.0138626099,0.0,6000.0,-0.00942894816399,0.00357077037916,-0.00942894816399,55.8097305298,0.349065840244,0.0265011657029,-0.0331426337361,0.305382400751,-0.0101752867922,-0.0101752867922,0.00883462373167,0.0782678797841,156.07635498,156.07635498,-258.22064209,-63.0593681335,2072,2065,2634,2043,2043,3069,3452,3450,3301,3383,3131,3015,3154,3104,3229,2732,3389,3406,3236,3362,3131,3361,3401,3210
1508403703795238186,142,1508403703794765003,plot_matl,-0.300000011921,-4000.0,-0.297984719276,0.0021977161523,0.0,0.0,0.349065840244,0.0688235536218,-0.0094130858779,-0.297994822264,0.00264723063447,0.00264723063447,0.0030422101263,0.0024492572993,15.5303201675,15.5303201675,0.317619413137,-122.962211609,2071,2084,2112,2030,2030,2803,3345,3361,3177,3310,3032,2974,3067,3077,3170,2858,3369,3364,3187,3266,2908,3280,3308,3028,0.010006464,1.419990772,1.420917888,0.401425719261,4500.0,0.417889386415,0.00550330383703,0.0164636727422,-74.0865249634,0.0,6000.0,-0.00942118279636,0.00309040979482,-0.00942118279636,55.8071174622,0.349065840244,0.0265011657029,-0.0331426337361,0.305382400751,-0.0101752867922,-0.0101752867922,0.00883462373167,0.0782678797841,156.07635498,156.07635498,-258.22064209,-63.0593681335,2068,2060,2633,2042,2042,3062,3445,3444,3297,3383,3131,3015,3154,3104,3229,2732,3389,3406,3236,3362,3131,3351,3392,3197
1508403703805119596,143,1508403703804773897,plot_matl,-0.300000011921,-4000.0,-0.297983407974,0.00211986037903,0.0,0.0,0.349065840244,0.0688235536218,-0.0094130858779,-0.297994822264,0.00264723063447,0.00264723063447,0.0030422101263,0.0024492572993,15.5303201675,15.5303201675,0.317619413137,-122.962211609,2069,2079,2112,2030,2030,2803,3345,3361,3177,3305,3026,2969,3064,3071,3167,2856,3363,3363,3184,3266,2908,3280,3308,3028,0.010006814,1.429998899,1.430974402,0.401425719261,4500.0,0.417889386415,0.00605308450758,0.0164636727422,-74.0865249634,0.0,6000.0,-0.00942250993103,0.00299121718854,-0.00942250993103,55.7144470215,0.349065840244,0.0265011657029,-0.0331426337361,0.305382400751,-0.0101752867922,-0.0101752867922,0.00883462373167,0.0782678797841,156.07635498,156.07635498,-258.22064209,-63.0593681335,2059,2051,2633,2042,2042,3062,3445,3444,3297,3380,3125,3012,3151,3101,3226,2733,3386,3403,3234,3362,3131,3351,3392,3197
1508403703815211032,144,1508403703814725983,plot_matl,-0.300000011921,-4000.0,-0.297983288765,-0.00389634817839,0.0,0.0,0.349065840244,0.0688235536218,-0.0094130858779,-0.297994822264,0.00264723063447,0.00264723063447,0.0030422101263,0.0024492572993,15.5303201675,15.5303201675,0.317619413137,-122.962211609,2037,2070,2111,2028,2028,2800,3345,3361,3177,3305,3026,2969,3064,3071,3167,2856,3363,3363,3184,3267,2906,3278,3306,3027,0.009950888,1.439950592,1.432927872,0.401425719261,4500.0,0.419238895178,0.0316869616508,0.0178131535649,-80.1591949463,0.0,6000.0,-0.00941238552332,0.00268662860617,-0.00941238552332,55.8091506958,0.349065840244,0.0265011657029,-0.0331426337361,0.305382400751,-0.0101752867922,-0.0101752867922,0.00883462373167,0.0782678797841,156.07635498,156.07635498,-258.22064209,-63.0593681335,2041,2043,2633,2044,2044,3059,3444,3444,3297,3380,3125,3012,3151,3101,3226,2733,3386,3403,3234,3360,3127,3346,3388,3197
1508403703825208380,145,1508403703824776621,plot_matl,-0.300000011921,-4000.0,-0.297982871532,-0.00393682252616,0.0,0.0,0.349065840244,0.0688235536218,-0.0094232968986,-0.297979176044,0.00245832139626,0.00245832139626,0.00278791086748,0.00195907289162,15.6384124756,15.6384124756,0.254466384649,-123.130447388,2047,2067,2111,2028,2028,2800,3345,3358,3177,3300,3026,2970,3064,3073,3164,2858,3362,3363,3184,3267,2906,3278,3306,3027,0.01005182,1.450001759,1.4575139,0.401425719261,4500.0,0.416539907455,-0.0221440829337,0.0151141919196,-68.0138626099,0.0,6000.0,-0.00942823849618,0.0029019836802,-0.00942823849618,55.8191184998,0.349065840244,0.0289103612304,-0.0330342613161,0.305289119482,0.0102947093546,0.0102947093546,0.00711450306699,0.018393592909,155.761550903,155.761550903,-258.301971436,-62.7234954834,2047,2044,2633,2044,2044,3059,3444,3440,3296,3380,3124,3012,3150,3103,3225,2735,3385,3403,3234,3360,3127,3346,3388,3197
1508403703835235490,146,1508403703834783539,plot_matl,-0.300000011921,-4000.0,-0.297976344824,0.00188188848551,0.0,0.0,0.349065840244,0.0688235536218,-0.0094232968986,-0.297979176044,0.00245832139626,0.00245832139626,0.00278791086748,0.00195907289162,15.6384124756,15.6384124756,0.254466384649,-123.130447388,2027,2084,2111,2030,2030,2800,3345,3358,3177,3300,3026,2970,3064,3073,3164,2858,3362,3361,3185,3265,2905,3277,3303,3024,0.010004219,1.460007533,1.460615974,0.401425719261,4500.0,0.417889386415,0.00565469637513,0.0164636727422,-74.0865249634,0.0,6000.0,-0.00941807311028,0.00262286444195,-0.00941807311028,55.797542572,0.349065840244,0.0289103612304,-0.0330342613161,0.305289119482,0.0102947093546,0.0102947093546,0.00711450306699,0.018393592909,155.761550903,155.761550903,-258.301971436,-62.7234954834,2035,2042,2633,2043,2043,3059,3444,3440,3296,3380,3124,3012,3150,3103,3225,2735,3385,3403,3233,3361,3126,3345,3388,3195
1508403703845159008,147,1508403703844751131,plot_matl,-0.300000011921,-4000.0,-0.297976851463,0.00186039018445,0.0,0.0,0.349065840244,0.0688235536218,-0.0094232968986,-0.297979176044,0.00245832139626,0.00245832139626,0.00278791086748,0.00195907289162,15.6384124756,15.6384124756,0.254466384649,-123.130447388,2029,2063,2111,2030,2030,2798,3344,3358,3174,3301,3023,2971,3065,3073,3161,2858,3362,3361,3185,3265,2905,3277,3303,3024,0.009971172,1.469976684,1.465762284,0.401425719261,4500.0,0.419238895178,0.0327743627131,0.0178131535649,-80.1591949463,0.0,6000.0,-0.00942096766084,0.0026304454077,-0.00942096766084,55.7659645081,0.349065840244,0.0289103612304,-0.0330342613161,0.305289119482,0.0102947093546,0.0102947093546,0.00711450306699,0.018393592909,155.761550903,155.761550903,-258.301971436,-62.7234954834,2035,2041,2633,2043,2043,3060,3443,3443,3292,3379,3124,3011,3150,3100,3227,2735,3385,3403,3233,3361,3126,3345,3388,3195
1508403703855149272,148,1508403703854766851,plot_matl,-0.300000011921,-4000.0,-0.297998636961,0.0022707534954,0.0,0.0,0.349065840244,0.0688235536218,-0.0094232968986,-0.297979176044,0.00245832139626,0.00245832139626,0.00278791086748,0.00195907289162,15.6384124756,15.6384124756,0.254466384649,-123.130447388,2033,2083,2111,2030,2030,2798,3344,3358,3174,3301,3023,2971,3065,3073,3161,2856,3362,3361,3183,3265,2902,3277,3304,3026,0.010013845,1.479991943,1.48204906,0.401425719261,4500.0,0.417889386415,0.00497125508264,0.0164636727422,-74.0865249634,0.0,6000.0,-0.00942442752421,0.00263114320114,-0.00942442752421,55.8861694336,0.349065840244,0.0289103612304,-0.0330342613161,0.305289119482,0.0102947093546,0.0102947093546,0.00711450306699,0.018393592909,155.761550903,155.761550903,-258.301971436,-62.7234954834,2033,2037,2634,2043,2043,3060,3443,3443,3292,3379,3124,3011,3150,3100,3227,2737,3383,3402,3233,3359,3129,3347,3388,3195
1508403703865159204,149,1508403703864764509,plot_matl,-0.300000011921,-4000.0,-0.297994405031,0.00217318232171,0.0,0.0,0.349065840244,0.0674740672112,-0.00941968616098,-0.298005878925,-0.0109747229144,-0.0109747229144,0.00252882577479,-0.003561391728,15.3468809128,15.3468809128,-0.0606659166515,-122.99017334,2033,2083,2111,2030,2030,2798,3344,3358,3174,3301,3023,2971,3065,3073,3161,2856,3362,3361,3183,3265,2902,3277,3304,3026,0.009997067,1.489989551,1.489562983,0.401425719261,4500.0,0.417889386415,0.00497125508264,0.0164636727422,-74.0865249634,0.0,6000.0,-0.00942641869187,0.00264202873223,-0.00942641869187,55.8091163635,0.349065840244,0.0265011657029,-0.0329306051135,0.305106401443,-0.0146356755868,-0.0146356755868,-0.0101239793003,-0.0397463701665,155.956497192,155.956497192,-258.162628174,-62.3383865356,2033,2037,2634,2043,2043,3060,3443,3443,3292,3379,3124,3011,3150,3100,3227,2737,3383,3402,3233,3359,3129,3347,3388,3195
1508403703875149791,150,1508403703874764147,plot_matl,-0.300000011921,-4000.0,-0.297994405031,0.00217318232171,0.0,0.0,0.349065840244,0.0674740672112,-0.00941968616098,-0.298005878925,-0.0109747229144,-0.0109747229144,0.00252882577479,-0.003561391728,15.3468809128,15.3468809128,-0.0606659166515,-122.99017334,2033,2083,2111,2030,2030,2798,3344,3358,3174,3301,3023,2971,3065,3073,3161,2856,3362,3361,3183,3265,2902,3277,3304,3026,0.01000023,1.49998969,1.5000345,0.401425719261,4500.0,0.417889386415,0.00497125508264,0.0164636727422,-74.0865249634,0.0,6000.0,-0.00942641869187,0.00264202873223,-0.00942641869187,55.8091163635,0.349065840244,0.0265011657029,-0.0329306051135,0.305106401443,-0.0146356755868,-0.0146356755868,-0.0101239793003,-0.0397463701665,155.956497192,155.956497192,-258.162628174,-62.3383865356,2033,2037,2634,2043,2043,3060,3443,3443,3292,3379,3124,3011,3150,3100,3227,2737,3383,3402,3233,3359,3129,3347,3388,3195
1508403703885170866,151,1508403703884734108,plot_matl,-0.300000011921,-4000.0,-0.297973096371,-0.00424893340096,0.0,0.0,0.349065840244,0.0674740672112,-0.0093980319798,-0.29797911644,-0.0110043957829,-0.0110043957829,0.00203673215583,0.00185213238001,15.3744411469,15.3744411469,0.260870039463,-122.957130432,2025,2053,2110,2031,2031,2802,3343,3358,3176,3303,3025,2969,3063,3071,3165,2854,3363,3359,3185,3264,2903,3279,3304,3025,0.009969119,1.509959285,1.505336969,0.401425719261,4500.0,0.419238895178,0.03129305318,0.0178131535649,-80.1591949463,0.0,6000.0,-0.00940939411521,0.00225152284838,-0.00940939411521,55.8236618042,0.349065840244,0.0289103612304,-0.0329306274652,0.305172502995,0.00872199889272,0.00872199889272,0.00526991579682,0.0207713674754,155.6746521,155.6746521,-258.059967041,-62.5273895264,2022,2021,2633,2043,2043,3062,3445,3442,3293,3379,3122,3012,3150,3099,3228,2733,3383,3403,3231,3358,3127,3347,3387,3196
1508403703894917429,152,1508403703894727167,plot_matl,-0.300000011921,-4000.0,-0.297957271338,0.00140560988802,0.0,0.0,0.349065840244,0.0674740672112,-0.0093980319798,-0.29797911644,-0.0110043957829,-0.0110043957829,0.00203673215583,0.00185213238001,15.3744411469,15.3744411469,0.260870039463,-122.957130432,2008,2065,2110,2031,2031,2802,3343,3358,3176,3303,3025,2969,3065,3071,3164,2852,3362,3359,3182,3263,2902,3279,3304,3025,0.009990977,1.519951371,1.518628504,0.401425719261,4500.0,0.419238895178,0.0290952287614,0.0178131535649,-80.1591949463,0.0,6000.0,-0.00940191280097,0.00208115554415,-0.00940191280097,55.7841758728,0.349065840244,0.0289103612304,-0.0329306274652,0.305172502995,0.00872199889272,0.00872199889272,0.00526991579682,0.0207713674754,155.6746521,155.6746521,-258.059967041,-62.5273895264,2016,2029,2633,2043,2043,3062,3445,3442,3293,3379,3122,3012,3150,3098,3225,2729,3383,3402,3230,3357,3127,3347,3387,3196
1508403703905246111,153,1508403703904765016,plot_matl,-0.300000011921,-4000.0,-0.297960609198,0.00146841944661,0.0,0.0,0.349065840244,0.0674740672112,-0.0093980319798,-0.29797911644,-0.0110043957829,-0.0110043957829,0.00203673215583,0.00185213238001,15.3744411469,15.3744411469,0.260870039463,-122.957130432,2010,2050,2110,2031,2031,2802,3344,3357,3176,3303,3025,2969,3065,3071,3164,2852,3362,3359,3182,3263,2902,3277,3307,3026,0.010040135,1.529990549,1.536140655,0.401425719261,4500.0,0.417889386415,0.00241750013083,0.0164636727422,-74.0865249634,0.0,6000.0,-0.00939709693193,0.00196948787197,-0.00939709693193,55.7994880676,0.349065840244,0.0289103612304,-0.0329306274652,0.305172502995,0.00872199889272,0.00872199889272,0.00526991579682,0.0207713674754,155.6746521,155.6746521,-258.059967041,-62.5273895264,2017,2019,2633,2042,2042,3062,3445,3440,3295,3379,3122,3012,3150,3098,3225,2729,3383,3402,3230,3357,3127,3347,3386,3195
1508403703915185708,154,1508403703914763651,plot_matl,-0.300000011921,-4000.0,-0.297957837582,0.00140900607221,0.0,0.0,0.349065840244,0.0674740672112,-0.0093980319798,-0.29797911644,-0.0110043957829,-0.0110043957829,0.00203673215583,0.00185213238001,15.3744411469,15.3744411469,0.260870039463,-122.957130432,2002,2045,2110,2031,2031,2802,3344,3357,3176,3302,3024,2969,3063,3072,3163,2854,3362,3360,3184,3263,2902,3277,3307,3026,0.009997113,1.539988679,1.539555402,0.401425719261,4500.0,0.417889386415,0.00300881359726,0.0164636727422,-74.0865249634,0.0,6000.0,-0.00939326267689,-0.0115428920835,-0.00939326267689,59.8681106567,0.349065840244,0.0289103612304,-0.0329306274652,0.305172502995,0.00872199889272,0.00872199889272,0.00526991579682,0.0207713674754,155.6746521,155.6746521,-258.059967041,-62.5273895264,2015,2017,2633,2042,2042,3062,3445,3440,3295,3380,3124,3012,3150,3098,3226,2729,3382,3403,3230,3357,3127,3347,3386,3195
1508403703925177529,155,1508403703924744582,plot_matl,-0.300000011921,-4000.0,-0.297971487045,0.00167775375303,0.0,0.0,0.349065840244,0.0688235536218,-0.00938965938985,-0.297966867685,0.00144466443453,0.00144466443453,0.00180826964788,-0.00438678218052,15.3507537842,15.3507537842,-0.310400038958,-123.010910034,1993,2048,2110,2032,2032,2801,3343,3357,3176,3302,3024,2969,3063,3072,3163,2854,3362,3360,3184,3264,2902,3279,3304,3024,0.009981166,1.54996984,1.54708073,0.401425719261,4500.0,0.419238895178,0.0296795070171,0.0178131535649,-80.1591949463,0.0,6000.0,-0.00939038768411,-0.0116122346371,-0.00939038768411,59.9711532593,0.349065840244,0.0289103612304,-0.0329980812967,0.305219233036,0.00893652159721,0.00893652159721,0.00672766612843,0.0197302196175,155.798126221,155.798126221,-257.512878418,-62.7223052979,2017,2025,2633,2043,2043,3062,3445,3440,3295,3380,3124,3012,3150,3098,3226,2729,3382,3403,3230,3360,3126,3348,3388,3196
1508403703935234958,156,1508403703934748976,plot_matl,-0.300000011921,-4000.0,-0.297972083092,0.0016911784187,0.0,0.0,0.349065840244,0.0688235536218,-0.00938965938985,-0.297966867685,0.00144466443453,0.00144466443453,0.00180826964788,-0.00438678218052,15.3507537842,15.3507537842,-0.310400038958,-123.010910034,1994,2027,2110,2032,2032,2801,3343,3360,3173,3303,3025,2970,3062,3071,3166,2855,3362,3360,3184,3264,2902,3279,3304,3024,0.010004439,1.559974495,1.560692484,0.401425719261,4500.0,0.417889386415,0.00299255270511,0.0164636727422,-74.0865249634,0.0,6000.0,-0.0093857543543,0.00170689460356,-0.0093857543543,55.8090133667,0.349065840244,0.0289103612304,-0.0329980812967,0.305219233036,0.00893652159721,0.00893652159721,0.00672766612843,0.0197302196175,155.798126221,155.798126221,-257.512878418,-62.7223052979,2012,2013,2633,2043,2043,3062,3445,3443,3293,3380,3124,3013,3149,3100,3226,2734,3382,3403,3230,3360,3126,3348,3388,3196
1508403703945123589,157,1508403703944767667,plot_matl,-0.300000011921,-4000.0,-0.297984004021,0.00192892597988,0.0,0.0,0.349065840244,0.0688235536218,-0.00938965938985,-0.297966867685,0.00144466443453,0.00144466443453,0.00180826964788,-0.00438678218052,15.3507537842,15.3507537842,-0.310400038958,-123.010910034,2011,2053,2111,2031,2031,2801,3343,3360,3173,3303,3025,2970,3062,3071,3166,2855,3362,3361,3184,3264,2905,3279,3307,3024,0.010018015,1.569992935,1.572828355,0.401425719261,4500.0,0.417889386415,0.0024583414197,0.0164636727422,-74.0865249634,0.0,6000.0,-0.00938345678151,0.00164529320318,-0.00938345678151,55.7958297729,0.349065840244,0.0289103612304,-0.0329980812967,0.305219233036,0.00893652159721,0.00893652159721,0.00672766612843,0.0197302196175,155.798126221,155.798126221,-257.512878418,-62.7223052979,2020,2022,2633,2041,2041,3062,3445,3443,3293,3380,3124,3013,3149,3100,3226,2734,3382,3401,3230,3360,3127,3346,3387,3196
1508403703955119865,158,1508403703954764248,plot_matl,-0.300000011921,-4000.0,-0.29798334837,-0.00407254509628,0.0,0.0,0.349065840244,0.0688235536218,-0.00938965938985,-0.297966867685,0.00144466443453,0.00144466443453,0.00180826964788,-0.00438678218052,15.3507537842,15.3507537842,-0.310400038958,-123.010910034,2006,2050,2111,2031,2031,2798,3342,3358,3172,3302,3024,2970,3063,3071,3162,2855,3362,3361,3184,3264,2905,3279,3307,3024,0.009995453,1.579989306,1.579281574,0.401425719261,4500.0,0.417889386415,0.00101318233646,0.0164636727422,-74.0865249634,0.0,6000.0,-0.00939302518964,0.00185314612463,-0.00939302518964,55.8195762634,0.349065840244,0.0289103612304,-0.0329980812967,0.305219233036,0.00893652159721,0.00893652159721,0.00672766612843,0.0197302196175,155.798126221,155.798126221,-257.512878418,-62.7223052979,2021,2028,2633,2041,2041,3060,3444,3443,3292,3377,3123,3011,3148,3100,3224,2734,3382,3401,3230,3360,3127,3346,3387,3196
1508403703965153908,159,1508403703964770356,plot_matl,-0.300000011921,-4000.0,-0.297995686531,-0.00385993812233,0.0,0.0,0.349065840244,0.0688235536218,-0.00938948336989,-0.297985553741,0.000486765988171,0.000486765988171,0.00178062426858,0.0019462449709,15.4299316406,15.4299316406,0.20663549006,-123.123687744,2006,2050,2111,2031,2031,2798,3342,3358,3172,3302,3024,2970,3063,3071,3162,2855,3362,3361,3184,3264,2905,3279,3307,3024,0.010006754,1.589995579,1.591073886,0.401425719261,4500.0,0.419238895178,0.0274605769664,0.0178131535649,-80.1591949463,0.0,6000.0,-0.00940054561943,0.00198602490127,-0.00940054561943,55.5791549683,0.349065840244,0.0289103612304,-0.0330214723945,0.305252194405,0.0105359302834,0.0105359302834,0.00724948523566,-0.0427980013192,156.172073364,156.172073364,-257.691497803,-62.0997543335,2021,2028,2633,2041,2041,3060,3444,3443,3292,3377,3123,3011,3148,3100,3224,2734,3382,3401,3230,3360,3127,3346,3387,3196
1508403703975116039,160,1508403703974766326,plot_matl,-0.300000011921,-4000.0,-0.29800465703,-0.00369387422688,0.0,0.0,0.349065840244,0.0688235536218,-0.00938948336989,-0.297985553741,0.000486765988171,0.000486765988171,0.00178062426858,0.0019462449709,15.4299316406,15.4299316406,0.20663549006,-123.123687744,2012,2061,2110,2031,2031,2798,3342,3358,3172,3302,3024,2970,3063,3071,3162,2856,3364,3362,3188,3264,2904,3279,3304,3023,0.009995729,1.599991699,1.59931664,0.401425719261,4500.0,0.417889386415,0.000550268217921,0.0164636727422,-74.0865249634,0.0,6000.0,-0.00938341859728,0.00163904344663,-0.00938341859728,55.8051681519,0.349065840244,0.0289103612304,-0.0330214723945,0.305252194405,0.0105359302834,0.0105359302834,0.00724948523566,-0.0427980013192,156.172073364,156.172073364,-257.691497803,-62.0997543335,2023,2025,2633,2043,2043,3060,3444,3443,3292,3377,3123,3011,3148,3100,3224,2737,3385,3401,3236,3360,3129,3346,3389,3193
1508403703985213764,161,1508403703984761216,plot_matl,-0.300000011921,-4000.0,-0.298015296459,0.00251507549547,0.0,0.0,0.349065840244,0.0688235536218,-0.00938948336989,-0.297985553741,0.000486765988171,0.000486765988171,0.00178062426858,0.0019462449709,15.4299316406,15.4299316406,0.20663549006,-123.123687744,2012,2052,2110,2031,2031,2796,3344,3358,3175,3300,3024,2970,3063,3071,3164,2856,3364,3362,3188,3264,2904,3279,3304,3023,0.009995296,1.60998661,1.609242656,0.401425719261,4500.0,0.417889386415,-4.25508296757e-05,0.0164636727422,-74.0865249634,0.0,6000.0,-0.00936871487647,0.00134116143454,-0.00936871487647,55.8030128479,0.349065840244,0.0289103612304,-0.0330214723945,0.305252194405,0.0105359302834,0.0105359302834,0.00724948523566,-0.0427980013192,156.172073364,156.172073364,-257.691497803,-62.0997543335,2021,2023,2633,2043,2043,3059,3445,3441,3293,3379,3124,3009,3149,3100,3225,2737,3385,3401,3236,3360,3129,3346,3389,3193
1508403703995170966,162,1508403703994788304,plot_matl,-0.300000011921,-4000.0,-0.298030495644,-0.00314588472247,0.0,0.0,0.349065840244,0.0688235536218,-0.00938948336989,-0.297985553741,0.000486765988171,0.000486765988171,0.00178062426858,0.0019462449709,15.4299316406,15.4299316406,0.20663549006,-123.123687744,2002,2051,2111,2031,2031,2796,3344,3358,3175,3300,3024,2970,3063,3071,3164,2858,3365,3361,3186,3264,2904,3278,3304,3025,0.010025018,1.620013246,1.624052916,0.401425719261,4500.0,0.417889386415,0.00149417959619,0.0164636727422,-74.0865249634,0.0,6000.0,-0.00939351320267,0.00182483391836,-0.00939351320267,55.8234481812,0.349065840244,0.0289103612304,-0.0330214723945,0.305252194405,0.0105359302834,0.0105359302834,0.00724948523566,-0.0427980013192,156.172073364,156.172073364,-257.691497803,-62.0997543335,2010,2012,2634,2043,2043,3059,3445,3441,3293,3379,3124,3009,3149,3100,3225,2736,3385,3402,3232,3361,3126,3344,3388,3196
1508403704005157033,163,1508403704004740770,plot_matl,-0.300000011921,-4000.0,-0.298031300306,0.00284877326339,0.0,0.0,0.349065840244,0.0701730325818,-0.00938998069614,-0.29803070426,0.0140801900998,0.0140801900998,0.00175398867577,0.00283443531953,15.4645242691,15.4645242691,0.618062257767,-122.827125549,1998,2027,2111,2031,2031,2798,3343,3359,3175,3303,3024,2968,3061,3071,3164,2858,3365,3361,3186,3264,2904,3278,3304,3025,0.009953017,1.629966419,1.622341771,0.401425719261,4500.0,0.417889386415,0.00325221335515,0.0164636727422,-74.0865249634,0.0,6000.0,-0.0093996534124,0.00198331149295,-0.0093996534124,55.7955207825,0.349065840244,0.0289103612304,-0.0329824537039,0.305016368628,0.0101225227118,0.0101225227118,0.00652673002332,0.0237133279443,155.954879761,155.954879761,-257.710906982,-62.313079834,2004,1999,2634,2041,2041,3059,3445,3441,3293,3378,3123,3009,3148,3100,3225,2736,3385,3402,3232,3361,3126,3344,3388,3196
1508403704015104904,164,1508403704014741165,plot_matl,-0.300000011921,-4000.0,-0.298022031784,0.00266325543635,0.0,0.0,0.349065840244,0.0701730325818,-0.00938998069614,-0.29803070426,0.0140801900998,0.0140801900998,0.00175398867577,0.00283443531953,15.4645242691,15.4645242691,0.618062257767,-122.827125549,1989,2016,2111,2031,2031,2798,3343,3359,3175,3303,3024,2968,3061,3071,3165,2857,3364,3361,3185,3265,2905,3277,3304,3025,0.009999838,1.639966222,1.639973432,0.401425719261,4500.0,0.416539907455,-0.0245064590126,0.0151141919196,-68.0138626099,0.0,6000.0,-0.00940471980721,0.00208546849899,-0.00940471980721,55.7944984436,0.349065840244,0.0289103612304,-0.0329824537039,0.305016368628,0.0101225227118,0.0101225227118,0.00652673002332,0.0237133279443,155.954879761,155.954879761,-257.710906982,-62.313079834,1995,1996,2634,2041,2041,3059,3445,3441,3293,3378,3123,3009,3148,3098,3226,2734,3383,3402,3230,3360,3127,3346,3387,3196
1508403704025203967,165,1508403704024792996,plot_matl,-0.300000011921,-4000.0,-0.298018991947,-0.0033615862485,0.0,0.0,0.349065840244,0.0701730325818,-0.00938998069614,-0.29803070426,0.0140801900998,0.0140801900998,0.00175398867577,0.00283443531953,15.4645242691,15.4645242691,0.618062257767,-122.827125549,1993,2004,2113,2031,2031,2801,3343,3360,3174,3302,3025,2968,3061,3071,3165,2857,3364,3361,3185,3265,2905,3277,3304,3024,0.01005175,1.650018589,1.65853875,0.401425719261,4500.0,0.417889386415,0.00366562558338,0.0164636727422,-74.0865249634,0.0,6000.0,-0.0094207143411,0.00240985443816,-0.0094207143411,55.8679924011,0.349065840244,0.0289103612304,-0.0329824537039,0.305016368628,0.0101225227118,0.0101225227118,0.00652673002332,0.0237133279443,155.954879761,155.954879761,-257.710906982,-62.313079834,1986,1984,2634,2041,2041,3060,3444,3443,3293,3381,3126,3009,3148,3098,3226,2734,3383,3402,3230,3360,3127,3346,3387,3197
1508403704035058998,166,1508403704034739123,plot_matl,-0.300000011921,-4000.0,-0.298027724028,0.00279465084895,0.0,0.0,0.349065840244,0.0701730325818,-0.00938998069614,-0.29803070426,0.0140801900998,0.0140801900998,0.00175398867577,0.00283443531953,15.4645242691,15.4645242691,0.618062257767,-122.827125549,1958,2003,2113,2031,2031,2801,3343,3360,3174,3302,3025,2969,3063,3071,3165,2857,3366,3361,3186,3263,2905,3277,3304,3024,0.009944668,1.659964195,1.650814888,0.401425719261,4500.0,0.419238895178,0.02980033122,0.0178131535649,-80.1591949463,0.0,6000.0,-0.0094246417284,-0.0109432619065,-0.0094246417284,59.9080352783,0.349065840244,0.0289103612304,-0.0329824537039,0.305016368628,0.0101225227118,0.0101225227118,0.00652673002332,0.0237133279443,155.954879761,155.954879761,-257.710906982,-62.313079834,1969,1973,2634,2041,2041,3060,3444,3443,3293,3381,3126,3008,3148,3097,3226,2731,3385,3402,3232,3361,3128,3346,3387,3197
1508403704045141449,167,1508403704044741046,plot_matl,-0.300000011921,-4000.0,-0.298024922609,0.00272501306608,0.0,0.0,0.349065840244,0.0674740672112,-0.00943335518241,-0.298022270203,-0.0124006802216,-0.0124006802216,-0.0107739251107,0.00268459250219,15.6782112122,15.6782112122,0.181211546063,-123.241241455,1959,1987,2113,2029,2029,2801,3345,3358,3176,3302,3025,2969,3063,3071,3165,2857,3366,3361,3186,3263,2905,3277,3306,3027,0.01000287,1.669966439,1.67047929,0.401425719261,4500.0,0.417889386415,0.00408961204812,0.0164636727422,-74.0865249634,0.0,6000.0,-0.00942673906684,0.00253149750642,-0.00942673906684,55.9077720642,0.349065840244,0.0265011657029,-0.0329983383417,0.305025011301,-0.013700472191,-0.013700472191,0.00680260453373,-0.0383784212172,156.278701782,156.278701782,-258.000518799,-62.6731338501,1969,1970,2635,2040,2040,3061,3445,3441,3293,3381,3126,3008,3148,3097,3226,2731,3385,3402,3232,3361,3128,3346,3387,3197
1508403704055171551,168,1508403704054740794,plot_matl,-0.300000011921,-4000.0,-0.298024922609,0.00272501306608,0.0,0.0,0.349065840244,0.0674740672112,-0.00943335518241,-0.298022270203,-0.0124006802216,-0.0124006802216,-0.0107739251107,0.00268459250219,15.6782112122,15.6782112122,0.181211546063,-123.241241455,1956,1989,2113,2029,2029,2801,3345,3358,3176,3302,3026,2968,3062,3071,3165,2860,3364,3363,3186,3263,2905,3277,3306,3027,0.009998746,1.679965962,1.679789328,0.401425719261,4500.0,0.417889386415,0.00580439437181,0.0164636727422,-74.0865249634,0.0,6000.0,-0.00942673906684,0.00253149750642,-0.00942673906684,55.9077720642,0.349065840244,0.0265011657029,-0.0329983383417,0.305025011301,-0.013700472191,-0.013700472191,0.00680260453373,-0.0383784212172,156.278701782,156.278701782,-258.000518799,-62.6731338501,1970,1968,2635,2040,2040,3061,3445,3441,3293,3381,3125,3009,3148,3096,3225,2731,3386,3403,3233,3361,3128,3346,3387,3197
1508403704065218120,169,1508403704064751843,plot_matl,-0.300000011921,-4000.0,-0.298048496246,-0.00277380016632,0.0,0.0,0.349065840244,0.0674740672112,-0.00943335518241,-0.298022270203,-0.0124006802216,-0.0124006802216,-0.0107739251107,0.00268459250219,15.6782112122,15.6782112122,0.181211546063,-123.241241455,1969,1994,2115,2029,2029,2801,3344,3358,3176,3302,3026,2968,3062,3071,3165,2860,3364,3363,3186,3267,2907,3278,3306,3026,0.010010347,1.689977111,1.691748643,0.401425719261,4500.0,0.417889386415,0.00567469885573,0.0164636727422,-74.0865249634,0.0,6000.0,-0.00946858152747,0.00336304935627,-0.00946858152747,55.8039283752,0.349065840244,0.0265011657029,-0.0329983383417,0.305025011301,-0.013700472191,-0.013700472191,0.00680260453373,-0.0383784212172,156.278701782,156.278701782,-258.000518799,-62.6731338501,1985,1977,2636,2042,2042,3062,3444,3441,3293,3381,3125,3009,3148,3096,3225,2731,3386,3403,3233,3361,3131,3345,3387,3197
1508403704075270583,170,1508403704074770670,plot_matl,-0.300000011921,-4000.0,-0.29804238677,0.00308431475423,0.0,0.0,0.349065840244,0.0674740672112,-0.00943335518241,-0.298022270203,-0.0124006802216,-0.0124006802216,-0.0107739251107,0.00268459250219,15.6782112122,15.6782112122,0.181211546063,-123.241241455,1968,2000,2115,2029,2029,2801,3344,3361,3174,3305,3026,2970,3065,3073,3166,2859,3367,3363,3186,3267,2907,3278,3306,3026,0.010020045,1.699996288,1.70340765,0.401425719261,4500.0,0.417889386415,0.00315390853211,0.0164636727422,-74.0865249634,0.0,6000.0,-0.00946261920035,0.00323462253436,-0.00946261920035,55.8005905151,0.349065840244,0.0265011657029,-0.0329983383417,0.305025011301,-0.013700472191,-0.013700472191,0.00680260453373,-0.0383784212172,156.278701782,156.278701782,-258.000518799,-62.6731338501,1986,1980,2636,2042,2042,3062,3444,3442,3295,3380,3126,3007,3148,3097,3226,2732,3385,3403,3233,3361,3131,3345,3387,3197
1508403704084956540,171,1508403704084727743,plot_matl,-0.300000011921,-4000.0,-0.298051506281,-0.00270576938055,0.0,0.0,0.349065840244,0.0688235536218,-0.00946956314147,-0.298047959805,0.00177977769636,0.00177977769636,-0.0100488932803,-0.00277793779969,15.5210952759,15.5210952759,0.00279927090742,-123.148109436,1992,2013,2117,2029,2029,2801,3344,3361,3174,3305,3026,2970,3065,3073,3166,2859,3367,3362,3186,3266,2909,3279,3306,3026,0.009954039,1.709952195,1.702140669,0.401425719261,4500.0,0.417889386415,0.00296843773685,0.0164636727422,-74.0865249634,0.0,6000.0,-0.00946827139705,0.00334476632997,-0.00946827139705,55.7819328308,0.349065840244,0.0313195586205,-0.0330676697195,0.304875910282,0.0346519052982,0.0346519052982,0.00821774359792,0.0266433488578,155.988754272,155.988754272,-257.876159668,-62.8530235291,1993,1985,2637,2042,2042,3062,3444,3442,3295,3380,3126,3007,3148,3097,3226,2732,3385,3403,3233,3360,3130,3346,3388,3196
1508403704094900020,172,1508403704094715830,plot_matl,-0.300000011921,-4000.0,-0.298054844141,-0.00264342338778,0.0,0.0,0.349065840244,0.0688235536218,-0.00946956314147,-0.298047959805,0.00177977769636,0.00177977769636,-0.0100488932803,-0.00277793779969,15.5210952759,15.5210952759,0.00279927090742,-123.148109436,1995,2014,2117,2029,2029,2801,3346,3358,3178,3306,3027,2969,3062,3075,3165,2859,3367,3362,3186,3266,2909,3279,3306,3026,0.009987111,1.719940058,1.717783092,0.401425719261,4500.0,0.416539907455,-0.0228224806488,0.0151141919196,-68.0138626099,0.0,6000.0,-0.00944910384715,0.00296272709966,-0.00944910384715,55.8080215454,0.349065840244,0.0313195586205,-0.0330676697195,0.304875910282,0.0346519052982,0.0346519052982,0.00821774359792,0.0266433488578,155.988754272,155.988754272,-257.876159668,-62.8530235291,2000,1991,2637,2042,2042,3062,3446,3444,3296,3380,3126,3005,3149,3096,3225,2732,3385,3403,3233,3360,3130,3346,3388,3196
1508403704105099467,173,1508403704104742738,plot_matl,-0.300000011921,-4000.0,-0.298051565886,-0.00271672266535,0.0,0.0,0.349065840244,0.0688235536218,-0.00946956314147,-0.298047959805,0.00177977769636,0.00177977769636,-0.0100488932803,-0.00277793779969,15.5210952759,15.5210952759,0.00279927090742,-123.148109436,2009,2043,2116,2029,2029,2801,3346,3358,3178,3306,3027,2969,3062,3075,3165,2862,3364,3362,3187,3267,2909,3278,3307,3029,0.01002836,1.729967921,1.73490628,0.401425719261,4500.0,0.416539907455,-0.0216157976538,0.0151141919196,-68.0138626099,0.0,6000.0,-0.00948339421302,-0.0097945407033,-0.00948339421302,59.8365325928,0.349065840244,0.0313195586205,-0.0330676697195,0.304875910282,0.0346519052982,0.0346519052982,0.00821774359792,0.0266433488578,155.988754272,155.988754272,-257.876159668,-62.8530235291,2012,2017,2637,2042,2042,3062,3446,3444,3296,3380,3126,3005,3149,3096,3225,2732,3384,3404,3234,3361,3130,3348,3387,3198
1508403704115297670,174,1508403704114781179,plot_matl,-0.300000011921,-4000.0,-0.298048406839,0.00319731910713,0.0,0.0,0.349065840244,0.0688235536218,-0.00946956314147,-0.298047959805,0.00177977769636,0.00177977769636,-0.0100488932803,-0.00277793779969,15.5210952759,15.5210952759,0.00279927090742,-123.148109436,2008,2039,2116,2029,2029,2801,3344,3361,3177,3303,3027,2969,3062,3075,3165,2862,3364,3362,3187,3267,2909,3278,3307,3029,0.010039023,1.740006698,1.746790002,0.401425719261,4500.0,0.417889386415,0.00654506310821,0.0164636727422,-74.0865249634,0.0,6000.0,-0.00948594417423,0.00368974730372,-0.00948594417423,55.7861633301,0.349065840244,0.0313195586205,-0.0330676697195,0.304875910282,0.0346519052982,0.0346519052982,0.00821774359792,0.0266433488578,155.988754272,155.988754272,-257.876159668,-62.8530235291,2016,2021,2637,2045,2045,3061,3444,3442,3297,3380,3127,3006,3147,3096,3225,2732,3384,3404,3234,3361,3130,3348,3387,3198
