%time,field.header.seq,field.header.stamp,field.header.frame_id,field.FFJ4_set_point,field.FFJ4_position_gain,field.FFJ4_process_value,field.FFJ4_process_value_dot,field.FFJ4_error,field.FFJ4_command,field.FFJ1,field.FFJ2,field.FFJ3,field.FFJ4,field.FFJ1_dot,field.FFJ2_dot,field.FFJ3_dot,field.FFJ4_dot,field.FFJ1_tao,field.FFJ2_tao,field.FFJ3_tao,field.FFJ4_tao,field.pac0,field.pac1,field.pdc0,field.tac0,field.tdc0,field.el0,field.el1,field.el2,field.el3,field.el4,field.el5,field.el6,field.el7,field.el8,field.el9,field.el10,field.el11,field.el12,field.el13,field.el14,field.el15,field.el16,field.el17,field.el18,field.dt,field.time,field.test_time2,field.FFJ0_set_point,field.FFJ0_position_gain,field.FFJ0_process_value,field.FFJ0_process_value_dot,field.FFJ0_error,field.FFJ0_command,field.FFJ3_set_point,field.FFJ3_position_gain,field.FFJ3_process_value,field.FFJ3_process_value_dot,field.FFJ3_error,field.FFJ3_command,field.MFJ1,field.MFJ2,field.MFJ3,field.MFJ4,field.MFJ1_dot,field.MFJ2_dot,field.MFJ3_dot,field.MFJ4_dot,field.MFJ1_tao,field.MFJ2_tao,field.MFJ3_tao,field.MFJ4_tao,field.Mpac0,field.Mpac1,field.Mpdc0,field.Mtac0,field.Mtdc0,field.Mel0,field.Mel1,field.Mel2,field.Mel3,field.Mel4,field.Mel5,field.Mel6,field.Mel7,field.Mel8,field.Mel9,field.Mel10,field.Mel11,field.Mel12,field.Mel13,field.Mel14,field.Mel15,field.Mel16,field.Mel17,field.Mel18
1508403752400186427,104,1508403752399499470,plot_matl,-0.300000011921,-4000.0,-0.294301867485,-0.000761522795074,0.00569811975583,22.6104640961,0.349065840244,0.0701730325818,-0.0107129877433,-0.294301122427,0.0011151523795,0.0011151523795,0.00164635153487,-0.000776905450039,20.9725799561,20.9725799561,-0.00786145962775,-128.630905151,2047,2062,2111,2029,2029,2811,3351,3364,3182,3309,3036,2972,3068,3074,3170,2852,3367,3364,3190,3271,2914,3282,3312,3033,0.010032648,1.040022851,1.043395392,0.401425719261,4500.0,0.419238895178,0.00218614493497,0.0178131535649,-80.1591949463,0.0,6000.0,-0.0107113737613,0.00161375396419,-0.0107113737613,63.7838897705,0.349065840244,0.0289103612304,-0.0336657501757,0.300990372896,0.00567420525476,0.00567420525476,0.00494274450466,0.043377943337,160.413757324,160.413757324,-252.218002319,-71.9083251953,2045,2043,2638,2044,2044,3052,3440,3442,3291,3376,3122,3002,3143,3094,3222,2730,3380,3399,3225,3355,3123,3343,3385,3194
1508403752409921070,105,1508403752409506450,plot_matl,-0.300000011921,-4000.0,-0.294301867485,-0.000761522795074,0.00569811975583,22.6104640961,0.349065840244,0.0701730325818,-0.0107129877433,-0.294301122427,0.0011151523795,0.0011151523795,0.00164635153487,-0.000776905450039,20.9725799561,20.9725799561,-0.00786145962775,-128.630905151,2047,2062,2111,2029,2029,2811,3351,3364,3182,3309,3036,2972,3068,3074,3170,2852,3367,3364,3190,3271,2914,3282,3312,3033,0.010006083,1.050030091,1.050638715,0.401425719261,4500.0,0.419238895178,0.00218614493497,0.0178131535649,-80.1591949463,0.0,6000.0,-0.0107113737613,0.00161375396419,-0.0107113737613,63.7838897705,0.349065840244,0.0289103612304,-0.0336657501757,0.300990372896,0.00567420525476,0.00567420525476,0.00494274450466,0.043377943337,160.413757324,160.413757324,-252.218002319,-71.9083251953,2045,2043,2638,2044,2044,3052,3440,3442,3291,3376,3122,3002,3143,3094,3222,2730,3380,3399,3225,3355,3123,3343,3385,3194
1508403752419593637,106,1508403752419419401,plot_matl,-0.300000011921,-4000.0,-0.294312298298,-0.000545957533177,0.00568770896643,22.6219539642,0.349065840244,0.0701730325818,-0.0107129877433,-0.294301122427,0.0011151523795,0.0011151523795,0.00164635153487,-0.000776905450039,20.9725799561,20.9725799561,-0.00786145962775,-128.630905151,2032,2067,2111,2029,2029,2811,3351,3364,3184,3309,3034,2974,3067,3076,3184,2865,3380,3375,3190,3271,2914,3282,3312,3033,0.009909912,1.05994161,1.050450672,0.401425719261,4500.0,0.420588374138,0.0252116061747,0.0191626362503,-86.2318572998,0.0,6000.0,-0.0106916101649,0.00121218943968,-0.0106916101649,63.7924499512,0.349065840244,0.0289103612304,-0.0336657501757,0.300990372896,0.00567420525476,0.00567420525476,0.00494274450466,0.043377943337,160.413757324,160.413757324,-252.218002319,-71.9083251953,2050,2044,2638,2044,2044,3052,3440,3442,3291,3376,3122,3003,3145,3094,3235,2744,3393,3409,3225,3355,3123,3343,3385,3194
1508403752429786167,107,1508403752429433482,plot_matl,-0.300000011921,-4000.0,-0.294317960739,-0.00042976703844,0.00568204652518,22.6226158142,0.349065840244,0.0701730325818,-0.0107129877433,-0.294301122427,0.0011151523795,0.0011151523795,0.00164635153487,-0.000776905450039,20.9725799561,20.9725799561,-0.00786145962775,-128.630905151,2022,2073,2111,2027,2027,2814,3351,3364,3184,3309,3034,2974,3067,3076,3184,2865,3380,3375,3201,3279,2923,3291,3316,3040,0.010016033,1.069956828,1.071715531,0.401425719261,4500.0,0.419238895178,-0.00168868340552,0.0178131535649,-80.1591949463,0.0,6000.0,-0.0106806643307,0.000991643290035,-0.0106806643307,63.7814941406,0.349065840244,0.0289103612304,-0.0336657501757,0.300990372896,0.00567420525476,0.00567420525476,0.00494274450466,0.043377943337,160.413757324,160.413757324,-252.218002319,-71.9083251953,2033,2048,2638,2043,2043,3054,3440,3442,3291,3376,3122,3003,3145,3094,3235,2744,3393,3409,3236,3363,3129,3350,3388,3198
1508403752439678330,108,1508403752439435551,plot_matl,-0.300000011921,-4000.0,-0.294321835041,-0.000352081726305,0.00567816570401,22.6273860931,0.349065840244,0.0701730325818,-0.0106982244179,-0.294308632612,0.000382498663384,0.000382498663384,0.00134827243164,-0.00062140711816,20.9669284821,20.9669284821,-0.0756610780954,-128.150238037,2036,2078,2111,2027,2027,2814,3355,3367,3185,3312,3034,2974,3071,3076,3171,2856,3380,3375,3201,3279,2923,3291,3316,3040,0.01000058,1.079958271,1.08006264,0.401425719261,4500.0,0.419238895178,-0.00168868340552,0.0178131535649,-80.1591949463,0.0,6000.0,-0.0106846150011,0.00107241561636,-0.0106846150011,63.7854957581,0.349065840244,0.0289103612304,-0.03363629058,0.301046073437,0.00505405478179,0.00505405478179,0.00434008054435,0.0422650687397,160.515350342,160.515350342,-252.042312622,-72.0469665527,2044,2048,2638,2043,2043,3054,3445,3443,3295,3378,3123,3005,3148,3097,3222,2735,3393,3409,3236,3363,3129,3350,3388,3198
1508403752449780647,109,1508403752449435504,plot_matl,-0.300000011921,-4000.0,-0.294313788414,0.00546032795683,0.00568620394915,24.0414390564,0.349065840244,0.0701730325818,-0.0106982244179,-0.294308632612,0.000382498663384,0.000382498663384,0.00134827243164,-0.00062140711816,20.9669284821,20.9669284821,-0.0756610780954,-128.150238037,2027,2068,2110,2026,2026,2814,3355,3367,3185,3312,3034,2974,3071,3076,3171,2856,3370,3367,3193,3273,2916,3285,3312,3034,0.00999955,1.089958374,1.08995095,0.401425719261,4500.0,0.420588374138,0.0269236881286,0.0191626362503,-86.2318572998,0.0,6000.0,-0.0106990393251,0.00136482750531,-0.0106990393251,63.788772583,0.349065840244,0.0289103612304,-0.03363629058,0.301046073437,0.00505405478179,0.00505405478179,0.00434008054435,0.0422650687397,160.515350342,160.515350342,-252.042312622,-72.0469665527,2032,2030,2638,2042,2042,3054,3445,3443,3295,3378,3123,3005,3148,3097,3222,2735,3383,3401,3231,3357,3124,3344,3387,3192
1508403752459755066,110,1508403752459434817,plot_matl,-0.300000011921,-4000.0,-0.294313788414,0.00546032795683,0.00568620394915,24.0414390564,0.349065840244,0.0701730325818,-0.0106982244179,-0.294308632612,0.000382498663384,0.000382498663384,0.00134827243164,-0.00062140711816,20.9669284821,20.9669284821,-0.0756610780954,-128.150238037,2027,2068,2110,2026,2026,2814,3355,3367,3185,3312,3034,2974,3071,3076,3171,2856,3370,3367,3193,3273,2916,3285,3312,3034,0.009999346,1.099957622,1.09992806,0.401425719261,4500.0,0.420588374138,0.0269236881286,0.0191626362503,-86.2318572998,0.0,6000.0,-0.0106990393251,0.00136482750531,-0.0106990393251,63.788772583,0.349065840244,0.0289103612304,-0.03363629058,0.301046073437,0.00505405478179,0.00505405478179,0.00434008054435,0.0422650687397,160.515350342,160.515350342,-252.042312622,-72.0469665527,2032,2030,2638,2042,2042,3054,3445,3443,3295,3378,3123,3005,3148,3097,3222,2735,3383,3401,3231,3357,3124,3344,3387,3192
1508403752469857745,111,1508403752469446913,plot_matl,-0.300000011921,-4000.0,-0.29431155324,-0.000562275236007,0.00568845355883,22.6187915802,0.349065840244,0.0701730325818,-0.0106982244179,-0.294308632612,0.000382498663384,0.000382498663384,0.00134827243164,-0.00062140711816,20.9669284821,20.9669284821,-0.0756610780954,-128.150238037,2017,2054,2110,2026,2026,2809,3351,3364,3185,3310,3033,2972,3068,3076,3170,2852,3368,3367,3191,3271,2915,3282,3311,3031,0.010011946,1.109970019,1.111326006,0.401425719261,4500.0,0.419238895178,0.000227798009291,0.0178131535649,-80.1591949463,0.0,6000.0,-0.0106896720827,0.00117552641314,-0.0106896720827,63.785533905,0.349065840244,0.0289103612304,-0.03363629058,0.301046073437,0.00505405478179,0.00505405478179,0.00434008054435,0.0422650687397,160.515350342,160.515350342,-252.042312622,-72.0469665527,2023,2025,2638,2042,2042,3053,3442,3443,3293,3377,3121,3003,3143,3094,3221,2733,3382,3399,3226,3355,3121,3344,3384,3193
1508403752479978943,112,1508403752479471372,plot_matl,-0.300000011921,-4000.0,-0.294311374426,-0.000567720853724,0.00568862445652,22.6178283691,0.349065840244,0.0688235536218,-0.010678704828,-0.294318795204,-0.0141672156751,-0.0141672156751,0.000952168251388,-0.000412658962887,21.0772800446,21.0772800446,0.284263372421,-128.271362305,1983,2011,2110,2029,2029,2810,3350,3365,3182,3310,3035,2973,3068,3076,3170,2852,3368,3367,3191,3271,2915,3282,3311,3031,0.010025212,1.119994934,1.122823744,0.401425719261,4500.0,0.419238895178,0.00114895275328,0.0178131535649,-80.1591949463,0.0,6000.0,-0.0106915030628,0.0012102414621,-0.0106915030628,63.783241272,0.349065840244,0.0265011657029,-0.0335565842688,0.300908684731,-0.0161892287433,-0.0161892287433,0.00267206947319,-0.0147864613682,160.515075684,160.515075684,-252.589904785,-72.8187942505,1983,1989,2638,2045,2045,3054,3442,3440,3291,3378,3123,3001,3143,3094,3221,2733,3382,3399,3226,3355,3121,3344,3384,3193
1508403752489819861,113,1508403752489473548,plot_matl,-0.300000011921,-4000.0,-0.294305801392,0.00529618794098,0.0056941844523,23.9916152954,0.349065840244,0.0688235536218,-0.010678704828,-0.294318795204,-0.0141672156751,-0.0141672156751,0.000952168251388,-0.000412658962887,21.0772800446,21.0772800446,0.284263372421,-128.271362305,1987,2029,2110,2029,2029,2810,3350,3365,3182,3310,3035,2973,3067,3075,3169,2851,3369,3366,3190,3272,2913,3282,3311,3031,0.010000298,1.129996254,1.130033674,0.401425719261,4500.0,0.419238895178,0.0014572495129,0.0178131535649,-80.1591949463,0.0,6000.0,-0.0106691503897,0.000763064192142,-0.0106691503897,63.7965431213,0.349065840244,0.0265011657029,-0.0335565842688,0.300908684731,-0.0161892287433,-0.0161892287433,0.00267206947319,-0.0147864613682,160.515075684,160.515075684,-252.589904785,-72.8187942505,1992,1999,2638,2045,2045,3054,3442,3440,3291,3378,3123,3001,3145,3093,3221,2729,3381,3397,3227,3354,3121,3342,3384,3193
1508403752499867675,114,1508403752499449040,plot_matl,-0.300000011921,-4000.0,-0.294300734997,-0.000780094065703,0.00569926155731,22.6055202484,0.349065840244,0.0688235536218,-0.010678704828,-0.294318795204,-0.0141672156751,-0.0141672156751,0.000952168251388,-0.000412658962887,21.0772800446,21.0772800446,0.284263372421,-128.271362305,1975,2003,2112,2025,2025,2813,3351,3366,3184,3310,3035,2973,3067,3075,3169,2851,3369,3366,3190,3272,2913,3282,3312,3034,0.009976642,1.139972546,1.137337188,0.401425719261,4500.0,0.419238895178,0.00118498038501,0.0178131535649,-80.1591949463,0.0,6000.0,-0.0106857614592,0.00109565246385,-0.0106857614592,63.7784500122,0.349065840244,0.0265011657029,-0.0335565842688,0.300908684731,-0.0161892287433,-0.0161892287433,0.00267206947319,-0.0147864613682,160.515075684,160.515075684,-252.589904785,-72.8187942505,1978,1975,2638,2044,2044,3055,3441,3440,3292,3376,3123,3001,3145,3093,3221,2729,3381,3397,3227,3354,3121,3342,3384,3192
1508403752509871155,115,1508403752509442328,plot_matl,-0.300000011921,-4000.0,-0.294300734997,-0.000780094065703,0.00569926155731,22.6055202484,0.349065840244,0.0688235536218,-0.010678704828,-0.294318795204,-0.0141672156751,-0.0141672156751,0.000952168251388,-0.000412658962887,21.0772800446,21.0772800446,0.284263372421,-128.271362305,1970,2013,2112,2025,2025,2813,3351,3366,3184,3310,3035,2972,3069,3077,3168,2853,3365,3367,3190,3272,2913,3282,3312,3034,0.009991936,1.149965249,1.14907264,0.401425719261,4500.0,0.419238895178,0.00118498038501,0.0178131535649,-80.1591949463,0.0,6000.0,-0.0106857614592,0.00109565246385,-0.0106857614592,63.7784500122,0.349065840244,0.0265011657029,-0.0335565842688,0.300908684731,-0.0161892287433,-0.0161892287433,0.00267206947319,-0.0147864613682,160.515075684,160.515075684,-252.589904785,-72.8187942505,1978,1985,2638,2044,2044,3055,3441,3440,3292,3376,3121,2999,3142,3092,3220,2727,3380,3399,3226,3356,3121,3342,3384,3192
1508403752519837984,116,1508403752519431864,plot_matl,-0.300000011921,-4000.0,-0.294304430485,-0.000703180907294,0.0056955809705,22.6124534607,0.349065840244,0.0688235536218,-0.0106873847544,-0.294312655926,-0.0132520124316,-0.0132520124316,0.00112934503704,-0.000540185894351,20.8393287659,20.8393287659,0.00724496832117,-128.395065308,1963,2000,2112,2027,2027,2813,3352,3364,3184,3310,3035,2972,3069,3077,3168,2853,3365,3367,3190,3272,2916,3285,3311,3036,0.009988828,1.159954653,1.158704048,0.401425719261,4500.0,0.417889386415,-0.0245678257197,0.0164636727422,-74.0865249634,0.0,6000.0,-0.0107085807249,0.00155102100689,-0.0107085807249,63.7836074829,0.349065840244,0.0265011657029,-0.0335002020001,0.300691902637,-0.0167218744755,-0.0167218744755,0.00157148658764,-0.0115425316617,160.481552124,160.481552124,-252.336044312,-72.6086425781,1975,1982,2640,2045,2045,3055,3445,3442,3292,3376,3121,2999,3142,3092,3220,2727,3380,3399,3226,3356,3123,3345,3385,3195
1508403752529916972,117,1508403752529469733,plot_matl,-0.300000011921,-4000.0,-0.294305384159,-0.000684835598804,0.00569461565465,22.6125621796,0.349065840244,0.0688235536218,-0.0106873847544,-0.294312655926,-0.0132520124316,-0.0132520124316,0.00112934503704,-0.000540185894351,20.8393287659,20.8393287659,0.00724496832117,-128.395065308,1963,2015,2112,2027,2027,2813,3352,3364,3183,3308,3035,2971,3070,3075,3170,2853,3367,3365,3190,3272,2916,3285,3311,3036,0.010038196,1.16999312,1.174468932,0.401425719261,4500.0,0.417889386415,-0.0245038419962,0.0164636727422,-74.0865249634,0.0,6000.0,-0.0107063744217,0.00150606047828,-0.0107063744217,63.7817840576,0.349065840244,0.0265011657029,-0.0335002020001,0.300691902637,-0.0167218744755,-0.0167218744755,0.00157148658764,-0.0115425316617,160.481552124,160.481552124,-252.336044312,-72.6086425781,1972,1985,2640,2045,2045,3055,3445,3442,3293,3377,3124,3000,3143,3091,3220,2728,3380,3399,3226,3356,3123,3345,3385,3195
1508403752539573513,118,1508403752539432335,plot_matl,-0.300000011921,-4000.0,-0.294311434031,-0.000563273730222,0.00568857137114,22.6180057526,0.349065840244,0.0688235536218,-0.0106873847544,-0.294312655926,-0.0132520124316,-0.0132520124316,0.00112934503704,-0.000540185894351,20.8393287659,20.8393287659,0.00724496832117,-128.395065308,1968,2014,2114,2027,2027,2812,3352,3364,3183,3308,3035,2971,3070,3075,3170,2853,3367,3365,3194,3273,2915,3284,3309,3033,0.00995984,1.1799543,1.17526112,0.401425719261,4500.0,0.419238895178,0.00222430215217,0.0178131535649,-80.1591949463,0.0,6000.0,-0.0107311578467,-0.0114119295031,-0.0107311578467,67.823348999,0.349065840244,0.0265011657029,-0.0335002020001,0.300691902637,-0.0167218744755,-0.0167218744755,0.00157148658764,-0.0115425316617,160.481552124,160.481552124,-252.336044312,-72.6086425781,1986,1995,2641,2043,2043,3053,3445,3442,3293,3377,3124,3000,3143,3091,3220,2728,3380,3399,3227,3356,3123,3343,3384,3192
1508403752550121338,119,1508403752549505838,plot_matl,-0.300000011921,-4000.0,-0.294316530228,-0.00046087501687,0.00568348169327,22.6202030182,0.349065840244,0.0688235536218,-0.0106873847544,-0.294312655926,-0.0132520124316,-0.0132520124316,0.00112934503704,-0.000540185894351,20.8393287659,20.8393287659,0.00724496832117,-128.395065308,1983,2023,2114,2027,2027,2812,3350,3368,3183,3309,3034,2972,3069,3075,3172,2855,3367,3365,3194,3273,2915,3284,3309,3033,0.010076866,1.190029104,1.199147054,0.401425719261,4500.0,0.419238895178,0.00181994168088,0.0178131535649,-80.1591949463,0.0,6000.0,-0.0107490634546,0.00237809168175,-0.0107490634546,63.7644615173,0.349065840244,0.0265011657029,-0.0335002020001,0.300691902637,-0.0167218744755,-0.0167218744755,0.00157148658764,-0.0115425316617,160.481552124,160.481552124,-252.336044312,-72.6086425781,1997,1999,2641,2043,2043,3053,3440,3440,3293,3376,3122,2999,3142,3092,3222,2731,3380,3399,3227,3356,3123,3343,3384,3192
1508403752559882155,120,1508403752559461692,plot_matl,-0.300000011921,-4000.0,-0.294320642948,-0.000377687247237,0.0056793470867,22.6263828278,0.349065840244,0.0688235536218,-0.0107219330966,-0.294298350811,-0.012677334249,-0.012677334249,0.001819520141,-0.000824909424409,21.0023269653,21.0023269653,-0.023766476661,-129.184814453,2003,2036,2115,2025,2025,2812,3350,3368,3183,3309,3034,2972,3069,3075,3172,2855,3369,3366,3194,3274,2919,3284,3311,3037,0.00995407,1.199984722,1.1944884,0.401425719261,4500.0,0.419238895178,0.00181994168088,0.0178131535649,-80.1591949463,0.0,6000.0,-0.0107490634546,0.00237809168175,-0.0107490634546,63.7644615173,0.349065840244,0.0289103612304,-0.033595379442,0.300758987665,0.00872999429703,0.00872999429703,0.0035248263739,-0.0134008713067,160.310119629,160.310119629,-252.116958618,-72.4175949097,2012,2010,2641,2042,2042,3053,3440,3440,3293,3376,3122,2999,3142,3092,3222,2731,3381,3399,3230,3356,3123,3341,3383,3193
1508403752570071643,121,1508403752569595684,plot_matl,-0.300000011921,-4000.0,-0.294323712587,0.00565977068618,0.00567630119622,24.0630836487,0.349065840244,0.0688235536218,-0.0107219330966,-0.294298350811,-0.012677334249,-0.012677334249,0.001819520141,-0.000824909424409,21.0023269653,21.0023269653,-0.023766476661,-129.184814453,2017,2042,2115,2025,2025,2810,3351,3367,3184,3310,3033,2972,3068,3076,3172,2855,3369,3366,3194,3274,2919,3284,3311,3037,0.010134208,1.21011891,1.226239168,0.401425719261,4500.0,0.419238895178,0.00368379382417,0.0178131535649,-80.1591949463,0.0,6000.0,-0.010742100887,0.00224081333727,-0.010742100887,63.7820472717,0.349065840244,0.0289103612304,-0.033595379442,0.300758987665,0.00872999429703,0.00872999429703,0.0035248263739,-0.0134008713067,160.310119629,160.310119629,-252.116958618,-72.4175949097,2028,2023,2641,2042,2042,3054,3441,3441,3290,3379,3124,3000,3141,3090,3222,2731,3381,3399,3230,3356,3123,3341,3383,3193
1508403752579863355,122,1508403752579484376,plot_matl,-0.300000011921,-4000.0,-0.294332444668,-0.000138050090754,0.00566756213084,22.6375350952,0.349065840244,0.0688235536218,-0.0107219330966,-0.294298350811,-0.012677334249,-0.012677334249,0.001819520141,-0.000824909424409,21.0023269653,21.0023269653,-0.023766476661,-129.184814453,2018,2043,2115,2025,2025,2810,3351,3367,3184,3310,3033,2972,3068,3076,3169,2857,3371,3368,3192,3272,2919,3283,3312,3035,0.00988803,1.220007567,1.20633966,0.401425719261,4500.0,0.419238895178,0.00497165741399,0.0178131535649,-80.1591949463,0.0,6000.0,-0.0107336230576,0.00207714503631,-0.0107336230576,63.8037261963,0.349065840244,0.0289103612304,-0.033595379442,0.300758987665,0.00872999429703,0.00872999429703,0.0035248263739,-0.0134008713067,160.310119629,160.310119629,-252.116958618,-72.4175949097,2024,2028,2641,2042,2042,3054,3441,3441,3290,3379,3124,3000,3141,3090,3221,2731,3383,3398,3229,3355,3124,3342,3383,3193
1508403752589905404,123,1508403752589487517,plot_matl,-0.300000011921,-4000.0,-0.294344484806,0.00010038234177,0.0056555182673,22.6459693909,0.349065840244,0.0688235536218,-0.0107219330966,-0.294298350811,-0.012677334249,-0.012677334249,0.001819520141,-0.000824909424409,21.0023269653,21.0023269653,-0.023766476661,-129.184814453,2029,2058,2114,2025,2025,2810,3351,3362,3184,3310,3034,2972,3068,3076,3169,2857,3371,3368,3192,3272,2919,3283,3312,3035,0.010002454,1.230010567,1.230301842,0.401425719261,4500.0,0.419238895178,0.00356971216388,0.0178131535649,-80.1591949463,0.0,6000.0,-0.0107625536621,0.002658914309,-0.0107625536621,63.800907135,0.349065840244,0.0289103612304,-0.033595379442,0.300758987665,0.00872999429703,0.00872999429703,0.0035248263739,-0.0134008713067,160.310119629,160.310119629,-252.116958618,-72.4175949097,2032,2034,2641,2042,2042,3052,3442,3440,3291,3379,3122,2999,3141,3090,3221,2731,3383,3398,3229,3355,3124,3342,3383,3193
1508403752599889607,124,1508403752599444849,plot_matl,-0.300000011921,-4000.0,-0.294338464737,-2.04018797376e-05,0.00566152855754,22.641450882,0.349065840244,0.0701730325818,-0.0107445083559,-0.294317394495,0.000874726567417,0.000874726567417,0.00228598550893,-0.000443024764536,21.0208644867,21.0208644867,-0.318519741297,-128.973251343,2028,2056,2114,2025,2025,2810,3351,3362,3184,3310,3034,2972,3067,3078,3168,2860,3369,3365,3192,3273,2917,3283,3312,3035,0.009957808,1.239968095,1.234768192,0.401425719261,4500.0,0.419238895178,0.00440724147484,0.0178131535649,-80.1591949463,0.0,6000.0,-0.0107880793512,-0.0102679971606,-0.0107880793512,67.8340911865,0.349065840244,0.0289103612304,-0.0335973910987,0.301009058952,0.0110832825303,0.0110832825303,0.00356238218956,-0.0187140572816,160.176742554,160.176742554,-251.982849121,-73.0665664673,2033,2030,2641,2042,2042,3052,3442,3440,3291,3379,3122,2999,3143,3092,3221,2732,3381,3401,3229,3357,3122,3345,3383,3193
1508403752609794009,125,1508403752609434274,plot_matl,-0.300000011921,-4000.0,-0.294338643551,-1.66966419783e-05,0.00566135533154,22.6414451599,0.349065840244,0.0701730325818,-0.0107445083559,-0.294317394495,0.000874726567417,0.000874726567417,0.00228598550893,-0.000443024764536,21.0208644867,21.0208644867,-0.318519741297,-128.973251343,2013,2040,2114,2026,2026,2811,3352,3366,3184,3310,3034,2972,3067,3078,3168,2860,3369,3365,3192,3273,2917,3283,3312,3034,0.009987931,1.249956974,1.248491375,0.401425719261,4500.0,0.419238895178,0.00565418740734,0.0178131535649,-80.1591949463,0.0,6000.0,-0.0108089288697,0.00356571376324,-0.0108089288697,63.7225837708,0.349065840244,0.0289103612304,-0.0335973910987,0.301009058952,0.0110832825303,0.0110832825303,0.00356238218956,-0.0187140572816,160.176742554,160.176742554,-251.982849121,-73.0665664673,2021,2007,2641,2045,2045,3054,3443,3443,3293,3379,3122,2999,3143,3092,3221,2732,3381,3401,3229,3357,3122,3345,3385,3196
1508403752619914908,126,1508403752619465463,plot_matl,-0.300000011921,-4000.0,-0.294334024191,-0.000110268854769,0.00566598726436,22.6377677917,0.349065840244,0.0701730325818,-0.0107445083559,-0.294317394495,0.000874726567417,0.000874726567417,0.00228598550893,-0.000443024764536,21.0208644867,21.0208644867,-0.318519741297,-128.973251343,2010,2032,2114,2026,2026,2811,3352,3366,3184,3310,3035,2971,3068,3077,3170,2858,3369,3365,3195,3272,2917,3283,3312,3034,0.010032197,1.259989005,1.264056822,0.401425719261,4500.0,0.417889386415,-0.021549673751,0.0164636727422,-74.0865249634,0.0,6000.0,-0.01078979671,0.00317765912041,-0.01078979671,63.7812690735,0.349065840244,0.0289103612304,-0.0335973910987,0.301009058952,0.0110832825303,0.0110832825303,0.00356238218956,-0.0187140572816,160.176742554,160.176742554,-251.982849121,-73.0665664673,2013,2012,2641,2045,2045,3054,3443,3443,3293,3379,3123,2999,3143,3091,3221,2732,3382,3399,3228,3357,3122,3345,3385,3196
1508403752629824356,127,1508403752629438306,plot_matl,-0.300000011921,-4000.0,-0.294346004725,0.000135888520163,0.00565398065373,22.6478614807,0.349065840244,0.0701730325818,-0.0107445083559,-0.294317394495,0.000874726567417,0.000874726567417,0.00228598550893,-0.000443024764536,21.0208644867,21.0208644867,-0.318519741297,-128.973251343,1996,2028,2114,2028,2028,2809,3351,3366,3184,3310,3035,2971,3068,3077,3170,2858,3369,3365,3195,3272,2919,3282,3310,3036,0.009972261,1.269961722,1.266477147,0.401425719261,4500.0,0.419238895178,0.00670148106292,0.0178131535649,-80.1591949463,0.0,6000.0,-0.0107850348577,0.00307620037347,-0.0107850348577,63.7803726196,0.349065840244,0.0289103612304,-0.0335973910987,0.301009058952,0.0110832825303,0.0110832825303,0.00356238218956,-0.0187140572816,160.176742554,160.176742554,-251.982849121,-73.0665664673,2015,2009,2641,2040,2040,3055,3443,3440,3293,3379,3123,2999,3143,3091,3221,2732,3382,3399,3228,3357,3125,3343,3386,3195
1508403752639676339,128,1508403752639438185,plot_matl,-0.300000011921,-4000.0,-0.294349730015,0.000210592552321,0.00565025908872,22.6509532928,0.349065840244,0.0701730325818,-0.0107705928385,-0.29434427619,0.00171400920954,0.00171400920954,0.00281713809818,9.6397838206e-05,20.8828010559,20.8828010559,0.0258968379349,-128.965530396,1986,2029,2114,2028,2028,2809,3351,3366,3183,3309,3038,2971,3069,3076,3170,2856,3370,3366,3195,3272,2919,3282,3310,3036,0.009998786,1.279961235,1.279844608,0.401425719261,4500.0,0.419238895178,0.00547048123553,0.0178131535649,-80.1591949463,0.0,6000.0,-0.0107932193205,0.0032503195107,-0.0107932193205,63.780872345,0.349065840244,0.0289103612304,-0.0336008369923,0.300773143768,0.0100061492994,0.0100061492994,0.00363642210141,-0.0141404075548,159.691467285,159.691467285,-252.092575073,-73.5072479248,2001,2008,2641,2040,2040,3055,3443,3440,3293,3376,3123,2999,3143,3090,3220,2730,3383,3398,3228,3357,3125,3343,3386,3195
1508403752649862109,129,1508403752649489755,plot_matl,-0.300000011921,-4000.0,-0.294353276491,0.000278877705568,0.00564673729241,22.6572189331,0.349065840244,0.0701730325818,-0.0107705928385,-0.29434427619,0.00171400920954,0.00171400920954,0.00281713809818,9.6397838206e-05,20.8828010559,20.8828010559,0.0258968379349,-128.965530396,2006,2035,2115,2027,2027,2811,3351,3366,3183,3309,3038,2971,3069,3076,3170,2856,3370,3366,3194,3273,2917,3284,3312,3036,0.010052162,1.290013422,1.296728898,0.401425719261,4500.0,0.419238895178,0.00492770131677,0.0178131535649,-80.1591949463,0.0,6000.0,-0.010800822638,0.00340397469699,-0.010800822638,63.7298088074,0.349065840244,0.0289103612304,-0.0336008369923,0.300773143768,0.0100061492994,0.0100061492994,0.00363642210141,-0.0141404075548,159.691467285,159.691467285,-252.092575073,-73.5072479248,2005,2011,2642,2040,2040,3056,3443,3440,3293,3376,3123,2999,3143,3090,3220,2730,3383,3398,3230,3356,3125,3345,3385,3194
1508403752659916251,130,1508403752659444171,plot_matl,-0.300000011921,-4000.0,-0.294355779886,0.000329773698468,0.00564421107993,22.6538658142,0.349065840244,0.0701730325818,-0.0107705928385,-0.29434427619,0.00171400920954,0.00171400920954,0.00281713809818,9.6397838206e-05,20.8828010559,20.8828010559,0.0258968379349,-128.965530396,2009,2023,2115,2027,2027,2811,3352,3365,3184,3308,3035,2970,3069,3075,3172,2857,3370,3366,3194,3273,2917,3284,3312,3036,0.009952847,1.299967076,1.29387011,0.401425719261,4500.0,0.419238895178,0.00650770962238,0.0178131535649,-80.1591949463,0.0,6000.0,-0.0107819857076,0.00302814436145,-0.0107819857076,63.8062324524,0.349065840244,0.0289103612304,-0.0336008369923,0.300773143768,0.0100061492994,0.0100061492994,0.00363642210141,-0.0141404075548,159.691467285,159.691467285,-252.092575073,-73.5072479248,2007,1994,2642,2040,2040,3056,3443,3441,3292,3377,3124,2998,3141,3093,3220,2730,3383,3398,3230,3356,3125,3345,3385,3194
1508403752669858424,131,1508403752669465298,plot_matl,-0.300000011921,-4000.0,-0.2943585217,0.000384293321986,0.00564147764817,22.6499862671,0.349065840244,0.0701730325818,-0.0107705928385,-0.29434427619,0.00171400920954,0.00171400920954,0.00281713809818,9.6397838206e-05,20.8828010559,20.8828010559,0.0258968379349,-128.965530396,2007,2038,2115,2029,2029,2811,3352,3365,3184,3308,3035,2970,3069,3075,3172,2857,3371,3366,3193,3273,2917,3283,3313,3037,0.010021062,1.309988403,1.312759122,0.401425719261,4500.0,0.419238895178,0.00678920093924,0.0178131535649,-80.1591949463,0.0,6000.0,-0.0107927238569,0.00323242694139,-0.0107927238569,63.8688430786,0.349065840244,0.0289103612304,-0.0336008369923,0.300773143768,0.0100061492994,0.0100061492994,0.00363642210141,-0.0141404075548,159.691467285,159.691467285,-252.092575073,-73.5072479248,2019,2017,2642,2038,2038,3056,3443,3441,3292,3377,3124,2998,3141,3093,3220,2730,3382,3399,3228,3356,3125,3344,3385,3195
1508403752679876569,132,1508403752679441272,plot_matl,-0.300000011921,-4000.0,-0.294366449118,0.000543165369891,0.00563355302438,22.6690654755,0.349065840244,0.0715225115418,-0.0107789887115,-0.294351518154,0.0165790747851,0.0165790747851,0.00295511027798,0.000246980169322,20.9012928009,20.9012928009,0.0441713184118,-129.018035889,2007,2031,2115,2029,2029,2812,3351,3369,3185,3311,3038,2972,3067,3077,3172,2857,3371,3366,3193,3273,2917,3283,3313,3037,0.009975954,1.319964573,1.316825928,0.401425719261,4500.0,0.419238895178,0.00706015340984,0.0178131535649,-80.1591949463,0.0,6000.0,-0.0107752662152,0.00286396988668,-0.0107752662152,63.7544441223,0.349065840244,0.0265011657029,-0.0336107164621,0.300913900137,-0.0126208802685,-0.0126208802685,0.00384303554893,-0.0170097611845,158.897689819,158.897689819,-252.028671265,-73.0883407593,2010,2015,2642,2038,2038,3056,3444,3441,3293,3379,3126,2999,3141,3091,3220,2730,3382,3399,3228,3356,3125,3344,3385,3195
1508403752690047716,133,1508403752689501658,plot_matl,-0.300000011921,-4000.0,-0.294382631779,0.000866614107508,0.00561735732481,22.6777381897,0.349065840244,0.0715225115418,-0.0107789887115,-0.294351518154,0.0165790747851,0.0165790747851,0.00295511027798,0.000246980169322,20.9012928009,20.9012928009,0.0441713184118,-129.018035889,2015,2057,2115,2029,2029,2812,3351,3369,3185,3311,3038,2972,3067,3077,3172,2857,3369,3365,3193,3273,2917,3285,3313,3035,0.010061052,1.330024914,1.338119916,0.401425719261,4500.0,0.419238895178,0.00628304993734,0.0178131535649,-80.1591949463,0.0,6000.0,-0.0108119864017,-0.00981667265296,-0.0108119864017,67.7875442505,0.349065840244,0.0265011657029,-0.0336107164621,0.300913900137,-0.0126208802685,-0.0126208802685,0.00384303554893,-0.0170097611845,158.897689819,158.897689819,-252.028671265,-73.0883407593,2020,2032,2642,2038,2038,3056,3444,3441,3293,3379,3126,2999,3141,3091,3223,2729,3381,3398,3229,3357,3124,3343,3387,3196
1508403752699810477,134,1508403752699439776,plot_matl,-0.300000011921,-4000.0,-0.294395744801,0.00113815476652,0.00560425035655,22.7069072723,0.349065840244,0.0715225115418,-0.0107789887115,-0.294351518154,0.0165790747851,0.0165790747851,0.00295511027798,0.000246980169322,20.9012928009,20.9012928009,0.0441713184118,-129.018035889,2021,2055,2115,2026,2026,2813,3351,3365,3185,3312,3036,2971,3067,3077,3172,2857,3369,3365,3193,3273,2917,3285,3313,3035,0.009936435,1.339962581,1.33148229,0.401425719261,4500.0,0.417889386415,-0.0205890219659,0.0164636727422,-74.0865249634,0.0,6000.0,-0.01081645675,0.00368862901814,-0.01081645675,63.7084274292,0.349065840244,0.0265011657029,-0.0336107164621,0.300913900137,-0.0126208802685,-0.0126208802685,0.00384303554893,-0.0170097611845,158.897689819,158.897689819,-252.028671265,-73.0883407593,2022,2026,2643,2036,2036,3057,3441,3443,3294,3379,3125,2999,3141,3091,3223,2729,3381,3398,3229,3357,3124,3343,3387,3196
1508403752709877834,135,1508403752709466255,plot_matl,-0.300000011921,-4000.0,-0.294395744801,0.00113815476652,0.00560425035655,22.7069072723,0.349065840244,0.0715225115418,-0.0107789887115,-0.294351518154,0.0165790747851,0.0165790747851,0.00295511027798,0.000246980169322,20.9012928009,20.9012928009,0.0441713184118,-129.018035889,2028,2053,2115,2026,2026,2813,3351,3365,3185,3312,3036,2971,3067,3076,3169,2858,3370,3367,3194,3273,2920,3283,3313,3035,0.010026804,1.349989592,1.35361854,0.401425719261,4500.0,0.417889386415,-0.0205890219659,0.0164636727422,-74.0865249634,0.0,6000.0,-0.01081645675,0.00368862901814,-0.01081645675,63.7084274292,0.349065840244,0.0265011657029,-0.0336107164621,0.300913900137,-0.0126208802685,-0.0126208802685,0.00384303554893,-0.0170097611845,158.897689819,158.897689819,-252.028671265,-73.0883407593,2026,2026,2643,2036,2036,3057,3441,3443,3294,3379,3125,2999,3142,3089,3220,2729,3382,3399,3230,3356,3124,3344,3387,3196
1508403752719829157,136,1508403752719454947,plot_matl,-0.300000011921,-4000.0,-0.294405996799,0.00135831371881,0.00559398904443,22.6948776245,0.349065840244,0.0701730325818,-0.0108002275229,-0.29435774684,0.0032550424803,0.0032550424803,-0.0100479274988,0.000368494336726,20.8181171417,20.8181171417,0.244188353419,-129.372894287,2028,2063,2115,2033,2033,2812,3352,3367,3183,3311,3036,2971,3067,3076,3169,2858,3370,3367,3194,3273,2920,3283,3311,3036,0.009987066,1.359977745,1.358240976,0.401425719261,4500.0,0.419238895178,0.00725515419617,0.0178131535649,-80.1591949463,0.0,6000.0,-0.0108573259786,-0.00889107491821,-0.0108573259786,67.7697753906,0.349065840244,0.0265011657029,-0.0336936376989,0.300955325365,-0.0112876519561,-0.0112876519561,-0.00988287944347,-0.0178202465177,158.879547119,158.879547119,-252.059249878,-73.1530990601,2038,2037,2642,2037,2037,3055,3444,3440,3293,3378,3125,2999,3142,3089,3220,2729,3382,3399,3230,3356,3124,3344,3385,3193
1508403752729941470,137,1508403752729497524,plot_matl,-0.300000011921,-4000.0,-0.294404536486,0.00132619543001,0.00559547217563,22.6981906891,0.349065840244,0.0701730325818,-0.0108002275229,-0.29435774684,0.0032550424803,0.0032550424803,-0.0100479274988,0.000368494336726,20.8181171417,20.8181171417,0.244188353419,-129.372894287,2027,2061,2115,2033,2033,2812,3352,3367,3183,3311,3036,2970,3067,3077,3170,2857,3370,3367,3193,3274,2920,3283,3311,3036,0.010043237,1.37002092,1.375923469,0.401425719261,4500.0,0.420588374138,0.0336426384747,0.0191626362503,-86.2318572998,0.0,6000.0,-0.0108650848269,0.00468769529834,-0.0108650848269,63.7716064453,0.349065840244,0.0265011657029,-0.0336936376989,0.300955325365,-0.0112876519561,-0.0112876519561,-0.00988287944347,-0.0178202465177,158.879547119,158.879547119,-252.059249878,-73.1530990601,2040,2038,2642,2037,2037,3055,3444,3440,3293,3378,3122,2997,3142,3092,3219,2730,3381,3398,3229,3354,3124,3344,3385,3193
1508403752739828052,138,1508403752739455059,plot_matl,-0.300000011921,-4000.0,-0.294392317533,0.00108165899292,0.00560767343268,22.6809234619,0.349065840244,0.0701730325818,-0.0108002275229,-0.29435774684,0.0032550424803,0.0032550424803,-0.0100479274988,0.000368494336726,20.8181171417,20.8181171417,0.244188353419,-129.372894287,2035,2076,2115,2029,2029,2811,3352,3366,3183,3311,3036,2970,3067,3077,3170,2857,3370,3367,3193,3274,2920,3283,3313,3036,0.009956916,1.379978125,1.374054408,0.401425719261,4500.0,0.419238895178,0.00619054585695,0.0178131535649,-80.1591949463,0.0,6000.0,-0.0108342440799,0.00407285848632,-0.0108342440799,63.8064079285,0.349065840244,0.0265011657029,-0.0336936376989,0.300955325365,-0.0112876519561,-0.0112876519561,-0.00988287944347,-0.0178202465177,158.879547119,158.879547119,-252.059249878,-73.1530990601,2042,2045,2642,2039,2039,3054,3440,3440,3293,3378,3122,2997,3142,3092,3219,2730,3381,3398,3229,3354,3124,3344,3385,3195
1508403752749759173,139,1508403752749452860,plot_matl,-0.300000011921,-4000.0,-0.294377446175,0.000780498434324,0.00562256434932,22.673822403,0.349065840244,0.0701730325818,-0.0108002275229,-0.29435774684,0.0032550424803,0.0032550424803,-0.0100479274988,0.000368494336726,20.8181171417,20.8181171417,0.244188353419,-129.372894287,2055,2080,2115,2029,2029,2811,3352,3366,3183,3310,3034,2972,3067,3078,3169,2859,3366,3368,3193,3274,2920,3283,3313,3036,0.009996583,1.38997543,1.389525037,0.401425719261,4500.0,0.417889386415,-0.021649915725,0.0164636727422,-74.0865249634,0.0,6000.0,-0.01083284989,0.00403989711776,-0.01083284989,63.7813110352,0.349065840244,0.0265011657029,-0.0336936376989,0.300955325365,-0.0112876519561,-0.0112876519561,-0.00988287944347,-0.0178202465177,158.879547119,158.879547119,-252.059249878,-73.1530990601,2053,2054,2642,2039,2039,3054,3440,3440,3293,3378,3122,2998,3144,3093,3220,2731,3382,3400,3229,3354,3124,3344,3385,3195
1508403752760105880,140,1508403752759514860,plot_matl,-0.300000011921,-4000.0,-0.294381558895,0.000859063235112,0.00561843300238,22.6817760468,0.349065840244,0.0701730325818,-0.0108380746096,-0.294404536486,0.00305516039953,0.00305516039953,0.00413083238527,0.00133078184444,20.983171463,20.983171463,-0.0598160028458,-129.133956909,2052,2083,2114,2029,2029,2811,3352,3366,3183,3310,3034,2972,3067,3078,3169,2859,3366,3368,3195,3273,2918,3284,3312,3035,0.010064155,1.400038151,1.4089817,0.401425719261,4500.0,0.419238895178,0.00509631680325,0.0178131535649,-80.1591949463,0.0,6000.0,-0.0108079267666,0.00354899303056,-0.0108079267666,63.7585258484,0.349065840244,0.0289103612304,-0.0336334370077,0.30072966218,0.0110155614093,0.0110155614093,0.00425613578409,-0.0132660437375,158.734283447,158.734283447,-252.090957642,-73.3690185547,2059,2059,2641,2041,2041,3053,3440,3440,3293,3378,3122,2998,3144,3093,3220,2731,3382,3400,3230,3357,3123,3343,3385,3194
1508403752769915001,141,1508403752769454091,plot_matl,-0.300000011921,-4000.0,-0.294379085302,0.000810937141068,0.00562091683969,22.6586742401,0.349065840244,0.0701730325818,-0.0108380746096,-0.294404536486,0.00305516039953,0.00305516039953,0.00413083238527,0.00133078184444,20.983171463,20.983171463,-0.0598160028458,-129.133956909,2074,2089,2114,2029,2029,2811,3349,3365,3182,3310,3035,2973,3067,3075,3170,2857,3366,3368,3195,3273,2918,3284,3312,3035,0.009938279,1.409977598,1.401297339,0.401425719261,4500.0,0.419238895178,0.00472384691238,0.0178131535649,-80.1591949463,0.0,6000.0,-0.0107892556116,0.00315922033042,-0.0107892556116,63.8650512695,0.349065840244,0.0289103612304,-0.0336334370077,0.30072966218,0.0110155614093,0.0110155614093,0.00425613578409,-0.0132660437375,158.734283447,158.734283447,-252.090957642,-73.3690185547,2075,2065,2641,2041,2041,3053,3443,3440,3292,3376,3124,2998,3141,3093,3221,2731,3382,3400,3230,3357,3123,3343,3385,3194
1508403752779809448,142,1508403752779448197,plot_matl,-0.300000011921,-4000.0,-0.294382840395,0.000887238304131,0.00561716360971,22.6886959076,0.349065840244,0.0701730325818,-0.0108380746096,-0.294404536486,0.00305516039953,0.00305516039953,0.00413083238527,0.00133078184444,20.983171463,20.983171463,-0.0598160028458,-129.133956909,2080,2113,2112,2029,2029,2811,3349,3365,3182,3310,3035,2973,3067,3075,3170,2857,3367,3369,3193,3272,2918,3283,3312,3035,0.009993644,1.419971678,1.419097448,0.401425719261,4500.0,0.417889386415,-0.0214211661369,0.0164636727422,-74.0865249634,0.0,6000.0,-0.0107719460502,0.0028235942591,-0.0107719460502,63.7414894104,0.349065840244,0.0289103612304,-0.0336334370077,0.30072966218,0.0110155614093,0.0110155614093,0.00425613578409,-0.0132660437375,158.734283447,158.734283447,-252.090957642,-73.3690185547,2070,2077,2640,2042,2042,3053,3443,3440,3292,3376,3124,2998,3141,3093,3221,2731,3381,3401,3228,3356,3123,3344,3384,3193
1508403752789898006,143,1508403752789513323,plot_matl,-0.300000011921,-4000.0,-0.294384628534,0.000923726707697,0.00561538012698,22.6828422546,0.349065840244,0.0701730325818,-0.0108380746096,-0.294404536486,0.00305516039953,0.00305516039953,0.00413083238527,0.00133078184444,20.983171463,20.983171463,-0.0598160028458,-129.133956909,2073,2107,2112,2029,2029,2811,3350,3364,3184,3308,3032,2972,3067,3075,3170,2857,3367,3369,3193,3272,2918,3283,3312,3035,0.010063723,1.430036359,1.439112389,0.401425719261,4500.0,0.419238895178,0.00574519531801,0.0178131535649,-80.1591949463,0.0,6000.0,-0.0107466364279,0.00231495173648,-0.0107466364279,63.7747154236,0.349065840244,0.0289103612304,-0.0336334370077,0.30072966218,0.0110155614093,0.0110155614093,0.00425613578409,-0.0132660437375,158.734283447,158.734283447,-252.090957642,-73.3690185547,2066,2074,2640,2042,2042,3054,3443,3442,3293,3378,3122,3001,3143,3091,3221,2731,3381,3401,3228,3356,3123,3344,3384,3193
1508403752799909140,144,1508403752799443033,plot_matl,-0.300000011921,-4000.0,-0.294371277094,0.00065381929744,0.0056287208572,22.67370224,0.349065840244,0.0701730325818,-0.0108248712495,-0.294375926256,0.00269520678557,0.00269520678557,0.00387985468842,0.000749578641262,21.0336933136,21.0336933136,-0.409075409174,-129.007049561,2071,2121,2112,2029,2029,2811,3350,3364,3184,3308,3032,2972,3067,3075,3172,2854,3368,3365,3193,3272,2916,3284,3312,3034,0.009930577,1.439966705,1.430003088,0.401425719261,4500.0,0.419238895178,0.00467779999599,0.0178131535649,-80.1591949463,0.0,6000.0,-0.0107370698825,0.00213145185262,-0.0107370698825,63.7641563416,0.349065840244,0.0289103612304,-0.0336606092751,0.301018506289,0.00952817406505,0.00952817406505,-0.0105257853866,-0.0191076695919,158.780990601,158.780990601,-251.750823975,-73.5297622681,2072,2085,2640,2042,2042,3054,3443,3442,3293,3378,3122,3001,3143,3091,3221,2729,3382,3399,3228,3356,3121,3343,3385,3192
1508403752809804964,145,1508403752809499254,plot_matl,-0.300000011921,-4000.0,-0.294360220432,0.000428388855653,0.00563978077844,22.66056633,0.349065840244,0.0701730325818,-0.0108248712495,-0.294375926256,0.00269520678557,0.00269520678557,0.00387985468842,0.000749578641262,21.0336933136,21.0336933136,-0.409075409174,-129.007049561,2079,2103,2111,2030,2030,2810,3350,3365,3181,3312,3035,2972,3067,3075,3172,2854,3368,3365,3193,3272,2916,3284,3312,3034,0.010055038,1.450022355,1.45798051,0.401425719261,4500.0,0.419238895178,0.00435456354171,0.0178131535649,-80.1591949463,0.0,6000.0,-0.01076660119,0.0027269127313,-0.01076660119,63.7754516602,0.349065840244,0.0289103612304,-0.0336606092751,0.301018506289,0.00952817406505,0.00952817406505,-0.0105257853866,-0.0191076695919,158.780990601,158.780990601,-251.750823975,-73.5297622681,2080,2074,2639,2039,2039,3053,3443,3441,3290,3377,3123,3002,3143,3091,3221,2729,3382,3399,3228,3356,3121,3343,3385,3192
1508403752819715683,146,1508403752819514262,plot_matl,-0.300000011921,-4000.0,-0.294362068176,0.000463309406769,0.00563792651519,22.6615066528,0.349065840244,0.0701730325818,-0.0108248712495,-0.294375926256,0.00269520678557,0.00269520678557,0.00387985468842,0.000749578641262,21.0336933136,21.0336933136,-0.409075409174,-129.007049561,2067,2094,2111,2030,2030,2810,3350,3365,3181,3312,3035,2972,3068,3074,3169,2851,3368,3366,3191,3271,2915,3282,3312,3034,0.010015329,1.460037824,1.462238034,0.401425719261,4500.0,0.419238895178,0.00435456354171,0.0178131535649,-80.1591949463,0.0,6000.0,-0.0107798175886,-0.0104289390147,-0.0107798175886,67.8064193726,0.349065840244,0.0289103612304,-0.0336606092751,0.301018506289,0.00952817406505,0.00952817406505,-0.0105257853866,-0.0191076695919,158.780990601,158.780990601,-251.750823975,-73.5297622681,2064,2066,2639,2039,2039,3053,3443,3441,3290,3377,3123,3002,3143,3094,3221,2728,3380,3398,3228,3357,3121,3343,3385,3192
1508403752829572037,147,1508403752829416103,plot_matl,-0.300000011921,-4000.0,-0.29436853528,0.000592493161093,0.00563147198409,22.6644325256,0.349065840244,0.0701730325818,-0.0108248712495,-0.294375926256,0.00269520678557,0.00269520678557,0.00387985468842,0.000749578641262,21.0336933136,21.0336933136,-0.409075409174,-129.007049561,2053,2090,2111,2028,2028,2810,3351,3365,3181,3311,3035,2972,3068,3074,3169,2851,3368,3366,3191,3271,2915,3282,3311,3032,0.009898589,1.469938184,1.455092583,0.401425719261,4500.0,0.419238895178,0.00554708950222,0.0178131535649,-80.1591949463,0.0,6000.0,-0.0107528977096,0.00245456164703,-0.0107528977096,63.7946929932,0.349065840244,0.0289103612304,-0.0336606092751,0.301018506289,0.00952817406505,0.00952817406505,-0.0105257853866,-0.0191076695919,158.780990601,158.780990601,-251.750823975,-73.5297622681,2053,2055,2638,2040,2040,3052,3442,3440,3290,3375,3123,3002,3143,3094,3221,2728,3380,3398,3228,3357,3121,3343,3384,3193
1508403752839750110,148,1508403752839457887,plot_matl,-0.300000011921,-4000.0,-0.294363260269,0.000485092488816,0.00563674746081,22.6626186371,0.349065840244,0.0701730325818,-0.0107421223074,-0.294376850128,0.00276002218015,0.00276002218015,0.0022242302075,0.00674361269921,20.773147583,20.773147583,-0.172680512071,-129.113967896,2032,2071,2111,2028,2028,2810,3351,3365,3181,3311,3031,2972,3069,3076,3168,2852,3366,3363,3193,3270,2915,3282,3311,3032,0.010043498,1.479980862,1.486437704,0.401425719261,4500.0,0.420588374138,0.0327402986586,0.0191626362503,-86.2318572998,0.0,6000.0,-0.0107308831066,0.00200962554663,-0.0107308831066,63.7821426392,0.349065840244,0.0265011657029,-0.0336703807116,0.301171660423,-0.0156444758177,-0.0156444758177,-0.0103652514517,0.0396086201072,159.010864258,159.010864258,-251.782836914,-73.2035064697,2034,2047,2638,2040,2040,3052,3442,3440,3290,3375,3120,3002,3144,3094,3221,2730,3382,3399,3226,3356,3121,3343,3384,3193
1508403752849878530,149,1508403752849442436,plot_matl,-0.300000011921,-4000.0,-0.29435890913,0.000396390183596,0.00564110465348,22.6692123413,0.349065840244,0.0701730325818,-0.0107421223074,-0.294376850128,0.00276002218015,0.00276002218015,0.0022242302075,0.00674361269921,20.773147583,20.773147583,-0.172680512071,-129.113967896,2016,2067,2111,2029,2029,2810,3349,3366,3181,3311,3031,2972,3069,3076,3168,2852,3366,3363,3193,3270,2914,3283,3311,3031,0.009985095,1.489965857,1.487779155,0.401425719261,4500.0,0.419238895178,0.00546986656263,0.0178131535649,-80.1591949463,0.0,6000.0,-0.0107237026095,0.00186406890862,-0.0107237026095,63.7215538025,0.349065840244,0.0265011657029,-0.0336703807116,0.301171660423,-0.0156444758177,-0.0156444758177,-0.0103652514517,0.0396086201072,159.010864258,159.010864258,-251.782836914,-73.2035064697,2030,2034,2639,2038,2038,3052,3440,3441,3290,3375,3120,3002,3144,3094,3221,2730,3382,3399,3226,3356,3120,3343,3385,3193
1508403752859763331,150,1508403752859465562,plot_matl,-0.300000011921,-4000.0,-0.294361263514,-0.00553237413988,0.00563874002546,21.2254180908,0.349065840244,0.0701730325818,-0.0107421223074,-0.294376850128,0.00276002218015,0.00276002218015,0.0022242302075,0.00674361269921,20.773147583,20.773147583,-0.172680512071,-129.113967896,2023,2057,2111,2029,2029,2810,3349,3366,3182,3310,3034,2974,3068,3074,3170,2854,3368,3366,3193,3270,2914,3283,3311,3031,0.010021999,1.499988748,1.50329985,0.401425719261,4500.0,0.420588374138,0.0312218312174,0.0191626362503,-86.2318572998,0.0,6000.0,-0.0107188671827,0.00177326216362,-0.0107188671827,63.7829322815,0.349065840244,0.0265011657029,-0.0336703807116,0.301171660423,-0.0156444758177,-0.0156444758177,-0.0103652514517,0.0396086201072,159.010864258,159.010864258,-251.782836914,-73.2035064697,2032,2038,2639,2038,2038,3052,3440,3441,3289,3377,3122,3002,3144,3093,3219,2732,3381,3398,3226,3356,3120,3343,3385,3193
1508403752869841914,151,1508403752869445049,plot_matl,-0.300000011921,-4000.0,-0.294357299805,0.000364305335097,0.00564270466566,22.659040451,0.349065840244,0.0701730325818,-0.0107421223074,-0.294376850128,0.00276002218015,0.00276002218015,0.0022242302075,0.00674361269921,20.773147583,20.773147583,-0.172680512071,-129.113967896,2019,2045,2109,2027,2027,2810,3349,3366,3182,3310,3034,2974,3068,3074,3170,2854,3368,3366,3189,3273,2914,3285,3310,3035,0.00998069,1.509968391,1.50708419,0.401425719261,4500.0,0.419238895178,0.00420524831861,0.0178131535649,-80.1591949463,0.0,6000.0,-0.0107029946521,0.00145129859447,-0.0107029946521,63.7764549255,0.349065840244,0.0265011657029,-0.0336703807116,0.301171660423,-0.0156444758177,-0.0156444758177,-0.0103652514517,0.0396086201072,159.010864258,159.010864258,-251.782836914,-73.2035064697,2018,2022,2637,2042,2042,3051,3440,3441,3289,3377,3122,3002,3144,3093,3219,2732,3381,3398,3226,3356,3123,3342,3385,3194
1508403752879725997,152,1508403752879431294,plot_matl,-0.300000011921,-4000.0,-0.294359147549,0.000401861878345,0.00564086670056,22.6575641632,0.349065840244,0.0701730325818,-0.0107481312007,-0.29436737299,0.00266468594782,0.00266468594782,0.00235822261311,0.000569238385651,20.827911377,20.827911377,-0.0284767579287,-129.403610229,2028,2052,2109,2027,2027,2810,3349,3365,3181,3310,3034,2973,3067,3075,3169,2852,3368,3366,3189,3273,2914,3285,3310,3035,0.009983855,1.519954066,1.51754596,0.401425719261,4500.0,0.419238895178,0.00293351546861,0.0178131535649,-80.1591949463,0.0,6000.0,-0.0106900585815,0.00118889170699,-0.0106900585815,63.7905578613,0.349065840244,0.0265011657029,-0.0336162596941,0.301181524992,-0.0163868125528,-0.0163868125528,0.00392946321517,0.0394127331674,159.452468872,159.452468872,-251.905319214,-73.2882385254,2021,2024,2637,2042,2042,3051,3442,3440,3290,3377,3120,3002,3143,3094,3222,2733,3381,3398,3226,3356,3123,3342,3385,3194
1508403752889820714,153,1508403752889439675,plot_matl,-0.300000011921,-4000.0,-0.294355541468,0.000328615366016,0.00564445881173,22.6580181122,0.349065840244,0.0701730325818,-0.0107481312007,-0.29436737299,0.00266468594782,0.00266468594782,0.00235822261311,0.000569238385651,20.827911377,20.827911377,-0.0284767579287,-129.403610229,2023,2051,2111,2028,2028,2810,3349,3365,3181,3310,3034,2973,3067,3075,3169,2852,3366,3365,3192,3272,2915,3283,3310,3033,0.010008676,1.529962836,1.531327428,0.401425719261,4500.0,0.419238895178,0.00241060182452,0.0178131535649,-80.1591949463,0.0,6000.0,-0.0106917312369,0.00122469104826,-0.0106917312369,63.775478363,0.349065840244,0.0265011657029,-0.0336162596941,0.301181524992,-0.0163868125528,-0.0163868125528,0.00392946321517,0.0394127331674,159.452468872,159.452468872,-251.905319214,-73.2882385254,2027,2022,2638,2042,2042,3051,3442,3440,3290,3377,3120,3002,3143,3094,3222,2733,3383,3397,3228,3354,3121,3343,3382,3191
1508403752899925952,154,1508403752899465653,plot_matl,-0.300000011921,-4000.0,-0.294352918863,0.00027162139304,0.00564709212631,22.654127121,0.349065840244,0.0701730325818,-0.0107481312007,-0.29436737299,0.00266468594782,0.00266468594782,0.00235822261311,0.000569238385651,20.827911377,20.827911377,-0.0284767579287,-129.403610229,2019,2053,2111,2028,2028,2809,3351,3364,3182,3308,3034,2972,3069,3075,3169,2852,3366,3365,3192,3272,2915,3283,3310,3033,0.010026884,1.539989144,1.544140136,0.401425719261,4500.0,0.417889386415,-0.0247440692037,0.0164636727422,-74.0865249634,0.0,6000.0,-0.0106808599085,0.00100383569952,-0.0106808599085,63.7839164734,0.349065840244,0.0265011657029,-0.0336162596941,0.301181524992,-0.0163868125528,-0.0163868125528,0.00392946321517,0.0394127331674,159.452468872,159.452468872,-251.905319214,-73.2882385254,2018,2016,2638,2042,2042,3053,3443,3440,3290,3378,3121,3003,3142,3093,3222,2733,3383,3397,3228,3354,3121,3343,3382,3191
1508403752909809762,155,1508403752909463973,plot_matl,-0.300000011921,-4000.0,-0.29432952404,-0.000202104463824,0.00567048275843,22.6352062225,0.349065840244,0.0701730325818,-0.0107481312007,-0.29436737299,0.00266468594782,0.00266468594782,0.00235822261311,0.000569238385651,20.827911377,20.827911377,-0.0284767579287,-129.403610229,2029,2063,2111,2028,2028,2809,3351,3364,3182,3308,3034,2972,3069,3075,3168,2851,3367,3366,3191,3271,2913,3284,3310,3033,0.009997503,1.549987359,1.549612965,0.401425719261,4500.0,0.417889386415,-0.0247440692037,0.0164636727422,-74.0865249634,0.0,6000.0,-0.0106842098758,0.0010741368169,-0.0106842098758,63.7942199707,0.349065840244,0.0265011657029,-0.0336162596941,0.301181524992,-0.0163868125528,-0.0163868125528,0.00392946321517,0.0394127331674,159.452468872,159.452468872,-251.905319214,-73.2882385254,2031,2035,2638,2042,2042,3053,3443,3440,3290,3378,3121,3003,3142,3093,3222,2731,3381,3397,3228,3356,3120,3342,3384,3192
1508403752919763027,156,1508403752919479542,plot_matl,-0.300000011921,-4000.0,-0.294326424599,-0.000266249029664,0.00567356590182,22.6314678192,0.349065840244,0.0701730325818,-0.0107001699507,-0.294356584549,0.00201961654238,0.00201961654238,0.00139400409535,0.000349923269823,21.1117744446,21.1117744446,0.0834498926997,-128.860137939,2031,2063,2110,2028,2028,2811,3352,3364,3183,3309,3034,2973,3069,3075,3168,2851,3367,3366,3191,3271,2913,3284,3310,3033,0.010014201,1.560002472,1.562215356,0.401425719261,4500.0,0.419238895178,0.00301078148186,0.0178131535649,-80.1591949463,0.0,6000.0,-0.010674636811,0.000879252911545,-0.010674636811,63.7868499756,0.349065840244,0.0265011657029,-0.0335749872029,0.301118373871,-0.0165273491293,-0.0165273491293,0.0031188079156,0.0408052764833,159.767440796,159.767440796,-251.931091309,-73.4702072144,2045,2040,2639,2043,2043,3053,3442,3441,3290,3375,3120,3001,3142,3093,3222,2731,3381,3397,3228,3356,3120,3342,3384,3192
1508403752929685033,157,1508403752929434295,plot_matl,-0.300000011921,-4000.0,-0.294317364693,-0.000448554957984,0.00568264955655,22.6265983582,0.349065840244,0.0701730325818,-0.0107001699507,-0.294356584549,0.00201961654238,0.00201961654238,0.00139400409535,0.000349923269823,21.1117744446,21.1117744446,0.0834498926997,-128.860137939,2006,2016,2110,2028,2028,2811,3352,3364,3183,3309,3034,2973,3068,3074,3169,2851,3367,3363,3191,3268,2915,3280,3310,3033,0.009954766,1.569957174,1.562898262,0.401425719261,4500.0,0.419238895178,0.00247550453059,0.0178131535649,-80.1591949463,0.0,6000.0,-0.010666818358,0.000720074109267,-0.010666818358,63.7925987244,0.349065840244,0.0265011657029,-0.0335749872029,0.301118373871,-0.0165273491293,-0.0165273491293,0.0031188079156,0.0408052764833,159.767440796,159.767440796,-251.931091309,-73.4702072144,2009,1986,2639,2043,2043,3053,3442,3441,3290,3375,3120,3001,3143,3093,3220,2729,3379,3399,3227,3356,3121,3342,3384,3192
1508403752939683582,158,1508403752939433810,plot_matl,-0.300000011921,-4000.0,-0.294300317764,-0.00079398159869,0.00569969043136,22.6094989777,0.349065840244,0.0701730325818,-0.0107001699507,-0.294356584549,0.00201961654238,0.00201961654238,0.00139400409535,0.000349923269823,21.1117744446,21.1117744446,0.0834498926997,-128.860137939,2023,2052,2111,2027,2027,2811,3350,3364,3184,3309,3034,2973,3068,3074,3169,2851,3367,3363,3191,3268,2915,3280,3312,3033,0.009999001,1.579956502,1.579842158,0.401425719261,4500.0,0.417889386415,-0.0242559257895,0.0164636727422,-74.0865249634,0.0,6000.0,-0.0106604062021,0.00058953568805,-0.0106604062021,63.7872848511,0.349065840244,0.0265011657029,-0.0335749872029,0.301118373871,-0.0165273491293,-0.0165273491293,0.0031188079156,0.0408052764833,159.767440796,159.767440796,-251.931091309,-73.4702072144,2023,2027,2639,2039,2039,3054,3441,3440,3292,3378,3120,3001,3143,3093,3220,2729,3379,3399,3227,3356,3121,3342,3383,3192
1508403752949654633,159,1508403752949439016,plot_matl,-0.300000011921,-4000.0,-0.294307410717,-0.000649951922242,0.00569259468466,22.6149635315,0.349065840244,0.0701730325818,-0.0107001699507,-0.294356584549,0.00201961654238,0.00201961654238,0.00139400409535,0.000349923269823,21.1117744446,21.1117744446,0.0834498926997,-128.860137939,2048,2053,2111,2027,2027,2811,3350,3364,3184,3309,3033,2973,3067,3076,3168,2851,3367,3366,3188,3270,2915,3280,3312,3033,0.010004943,1.589961599,1.590785937,0.401425719261,4500.0,0.417889386415,-0.0237974207848,0.0164636727422,-74.0865249634,0.0,6000.0,-0.0106438891962,0.000257723702816,-0.0106438891962,63.7878456116,0.349065840244,0.0265011657029,-0.0335749872029,0.301118373871,-0.0165273491293,-0.0165273491293,0.0031188079156,0.0408052764833,159.767440796,159.767440796,-251.931091309,-73.4702072144,2054,2043,2639,2039,2039,3054,3441,3440,3292,3378,3120,3002,3143,3094,3222,2731,3381,3399,3226,3356,3121,3342,3383,3192
1508403752959686211,160,1508403752959435483,plot_matl,-0.300000011921,-4000.0,-0.294297605753,-0.000841235916596,0.00570238148794,22.6025543213,0.349065840244,0.0701730325818,-0.0106821535155,-0.294324159622,0.0014624549076,0.0014624549076,0.00103226839565,0.00566465733573,21.2578716278,21.2578716278,-0.0355995483696,-129.417816162,1981,2013,2110,2031,2031,2810,3351,3366,3184,3309,3033,2973,3067,3076,3168,2851,3367,3366,3188,3270,2914,3283,3310,3034,0.009996608,1.599958191,1.59945728,0.401425719261,4500.0,0.419238895178,0.00281921471469,0.0178131535649,-80.1591949463,0.0,6000.0,-0.0106532676145,0.000453170010587,-0.0106532676145,63.7845726013,0.349065840244,0.0313195586205,-0.0335484445095,0.301103562117,0.0356923155487,0.0356923155487,0.00257887900807,0.0411567054689,159.752761841,159.752761841,-251.824172974,-73.0703659058,1986,1989,2638,2038,2038,3052,3443,3441,3292,3378,3120,3002,3143,3094,3222,2731,3381,3399,3226,3356,3121,3344,3382,3191
1508403752969644952,161,1508403752969435304,plot_matl,-0.300000011921,-4000.0,-0.29430180788,-0.00673972163349,0.00569819286466,21.0130062103,0.349065840244,0.0701730325818,-0.0106821535155,-0.294324159622,0.0014624549076,0.0014624549076,0.00103226839565,0.00566465733573,21.2578716278,21.2578716278,-0.0355995483696,-129.417816162,2041,2069,2110,2031,2031,2810,3351,3366,3183,3307,3033,2973,3067,3075,3169,2853,3367,3365,3188,3270,2914,3283,3310,3034,0.00999902,1.609958024,1.60984222,0.401425719261,4500.0,0.419238895178,0.00275507220067,0.0178131535649,-80.1591949463,0.0,6000.0,-0.0106715513393,0.000814959872514,-0.0106715513393,63.7617301941,0.349065840244,0.0313195586205,-0.0335484445095,0.301103562117,0.0356923155487,0.0356923155487,0.00257887900807,0.0411567054689,159.752761841,159.752761841,-251.824172974,-73.0703659058,2052,2057,2638,2038,2038,3052,3443,3441,3290,3378,3121,3001,3143,3094,3223,2733,3381,3398,3226,3356,3121,3344,3382,3191
1508403752979530609,162,1508403752979424785,plot_matl,-0.300000011921,-4000.0,-0.29430270195,-0.000736332964152,0.00569728389382,22.5920810699,0.349065840244,0.0701730325818,-0.0106821535155,-0.294324159622,0.0014624549076,0.0014624549076,0.00103226839565,0.00566465733573,21.2578716278,21.2578716278,-0.0355995483696,-129.417816162,2016,2056,2110,2033,2033,2808,3351,3366,3183,3307,3033,2973,3067,3075,3169,2853,3367,3365,3190,3269,2915,3282,3309,3034,0.009988778,1.619947343,1.618182036,0.401425719261,4500.0,0.419238895178,0.00175171159208,0.0178131535649,-80.1591949463,0.0,6000.0,-0.0106642572209,0.000666736683343,-0.0106642572209,63.7653846741,0.349065840244,0.0313195586205,-0.0335484445095,0.301103562117,0.0356923155487,0.0356923155487,0.00257887900807,0.0411567054689,159.752761841,159.752761841,-251.824172974,-73.0703659058,2044,2046,2637,2043,2043,3051,3443,3441,3290,3378,3121,3001,3143,3094,3223,2733,3381,3398,3227,3354,3122,3342,3383,3194
1508403752989572581,163,1508403752989415717,plot_matl,-0.300000011921,-4000.0,-0.294299513102,-0.000810125260614,0.00570047320798,22.6090278625,0.349065840244,0.0701730325818,-0.0106821535155,-0.294324159622,0.0014624549076,0.0014624549076,0.00103226839565,0.00566465733573,21.2578716278,21.2578716278,-0.0355995483696,-129.417816162,2015,2060,2110,2033,2033,2808,3350,3363,3182,3310,3033,2972,3070,3076,3168,2852,3367,3365,3190,3269,2915,3282,3309,3034,0.009990103,1.629937728,1.628386789,0.401425719261,4500.0,0.419238895178,0.00386024895124,0.0178131535649,-80.1591949463,0.0,6000.0,-0.0106583749875,0.000547201838344,-0.0106583749875,63.7875404358,0.349065840244,0.0313195586205,-0.0335484445095,0.301103562117,0.0356923155487,0.0356923155487,0.00257887900807,0.0411567054689,159.752761841,159.752761841,-251.824172974,-73.0703659058,2016,2024,2637,2043,2043,3051,3443,3439,3289,3376,3119,3004,3143,3094,3220,2731,3381,3398,3227,3354,3122,3342,3383,3194
1508403752999861033,164,1508403752999478185,plot_matl,-0.300000011921,-4000.0,-0.294301718473,-0.000766578712501,0.00569829065353,22.6027431488,0.349065840244,0.0701730325818,-0.0106434002519,-0.294302940369,0.00166352989618,0.00166352989618,0.000247603602475,-0.00074058258906,21.2629947662,21.2629947662,0.103962764144,-129.422515869,2069,2112,2109,2028,2028,2808,3350,3363,3182,3310,3033,2972,3070,3076,3168,2852,3366,3364,3190,3272,2914,3282,3310,3031,0.010064344,1.640001386,1.650552416,0.401425719261,4500.0,0.419238895178,0.00359504623339,0.0178131535649,-80.1591949463,0.0,6000.0,-0.0106656579301,0.000701559940353,-0.0106656579301,63.7780418396,0.349065840244,0.0289103612304,-0.0335208177567,0.301283836365,0.0106047447771,0.0106047447771,0.00201349053532,-0.0243748016655,159.835678101,159.835678101,-251.802688599,-73.1771240234,2090,2095,2637,2044,2044,3051,3443,3439,3289,3376,3119,3004,3143,3094,3220,2731,3380,3400,3227,3358,3120,3344,3385,3194
