%time,field.header.seq,field.header.stamp,field.header.frame_id,field.FFJ4_set_point,field.FFJ4_position_gain,field.FFJ4_process_value,field.FFJ4_process_value_dot,field.FFJ4_error,field.FFJ4_command,field.FFJ1,field.FFJ2,field.FFJ3,field.FFJ4,field.FFJ1_dot,field.FFJ2_dot,field.FFJ3_dot,field.FFJ4_dot,field.FFJ1_tao,field.FFJ2_tao,field.FFJ3_tao,field.FFJ4_tao,field.pac0,field.pac1,field.pdc0,field.tac0,field.tdc0,field.el0,field.el1,field.el2,field.el3,field.el4,field.el5,field.el6,field.el7,field.el8,field.el9,field.el10,field.el11,field.el12,field.el13,field.el14,field.el15,field.el16,field.el17,field.el18,field.dt,field.time,field.test_time2,field.FFJ0_set_point,field.FFJ0_position_gain,field.FFJ0_process_value,field.FFJ0_process_value_dot,field.FFJ0_error,field.FFJ0_command,field.FFJ3_set_point,field.FFJ3_position_gain,field.FFJ3_process_value,field.FFJ3_process_value_dot,field.FFJ3_error,field.FFJ3_command,field.MFJ1,field.MFJ2,field.MFJ3,field.MFJ4,field.MFJ1_dot,field.MFJ2_dot,field.MFJ3_dot,field.MFJ4_dot,field.MFJ1_tao,field.MFJ2_tao,field.MFJ3_tao,field.MFJ4_tao,field.Mpac0,field.Mpac1,field.Mpdc0,field.Mtac0,field.Mtdc0,field.Mel0,field.Mel1,field.Mel2,field.Mel3,field.Mel4,field.Mel5,field.Mel6,field.Mel7,field.Mel8,field.Mel9,field.Mel10,field.Mel11,field.Mel12,field.Mel13,field.Mel14,field.Mel15,field.Mel16,field.Mel17,field.Mel18
1508404607960222546,129,1508404607959752053,plot_matl,0.25,-4000.0,0.234121248126,-0.0267599206418,-0.015878751874,-70.879737854,0.349065840244,0.0742214769125,-0.00187361461576,0.234134092927,0.0230571702123,0.0230571702123,-0.00241464213468,0.0107316672802,-87.2430725098,-87.2430725098,-58.4932975769,88.5170440674,2006,2054,2126,2023,2023,2675,3316,3340,3142,3291,3005,2973,3053,3090,3168,2964,3397,3390,3238,3291,2953,3289,3316,3041,0.009995455,1.28993159,1.289413695,0.453785598278,4500.0,0.420588374138,-0.00863256584853,-0.0331972427666,149.387588501,0.0,6000.0,-0.00185826793313,0.0107044018805,0.0,0.0,0.349065840244,0.0216827709228,-0.00144655141048,0.308909058571,-0.00567188858986,-0.00567188858986,-0.00147484464105,0.00985423382372,114.320098877,114.320098877,0.79159361124,61.8333930969,2019,2025,2557,2033,2033,2942,3434,3433,3252,3370,3097,3052,3158,3148,3241,2861,3413,3422,3257,3374,3143,3365,3399,3203
1508404607970081358,130,1508404607969759495,plot_matl,0.25,-4000.0,0.234195768833,0.0468117371202,-0.0158042237163,-52.1863746643,0.349065840244,0.0742214769125,-0.00187361461576,0.234134092927,0.0230571702123,0.0230571702123,-0.00241464213468,0.0107316672802,-87.2430725098,-87.2430725098,-58.4932975769,88.5170440674,2008,2055,2126,2022,2022,2670,3310,3338,3137,3291,3005,2973,3053,3090,3168,2964,3397,3390,3238,3291,2953,3279,3309,3031,0.010007088,1.299939019,1.30092144,0.453785598278,4500.0,0.420588374138,-0.00897198542953,-0.0331972427666,149.387588501,0.0,6000.0,-0.00185520702507,0.0106736375019,0.0,0.0,0.349065840244,0.0216827709228,-0.00144655141048,0.308909058571,-0.00567188858986,-0.00567188858986,-0.00147484464105,0.00985423382372,114.320098877,114.320098877,0.79159361124,61.8333930969,2014,2021,2556,2035,2035,2939,3429,3429,3249,3370,3097,3052,3158,3148,3241,2861,3413,3422,3257,3374,3143,3356,3392,3196
1508404607980378911,131,1508404607979826660,plot_matl,0.25,-4000.0,0.234196990728,0.00861808285117,-0.0158030092716,-61.4861717224,0.349065840244,0.0742214769125,-0.00187361461576,0.234134092927,0.0230571702123,0.0230571702123,-0.00241464213468,0.0107316672802,-87.2430725098,-87.2430725098,-58.4932975769,88.5170440674,2005,2041,2126,2022,2022,2670,3310,3338,3137,3290,3003,2972,3049,3088,3165,2964,3396,3390,3236,3291,2953,3279,3309,3031,0.010068741,1.310006644,1.319005071,0.453785598278,4500.0,0.420588374138,-0.00784376636147,-0.0331972427666,149.387588501,0.0,6000.0,-0.00185662019067,-0.00272066215985,0.0,0.0,0.349065840244,0.0216827709228,-0.00144655141048,0.308909058571,-0.00567188858986,-0.00567188858986,-0.00147484464105,0.00985423382372,114.320098877,114.320098877,0.79159361124,61.8333930969,2013,2014,2556,2035,2035,2939,3429,3429,3249,3368,3094,3049,3155,3147,3238,2861,3415,3420,3256,3374,3143,3356,3392,3196
1508404607990241566,132,1508404607989812817,plot_matl,0.25,-4000.0,0.234198465943,0.00846023391932,-0.015801532194,-61.3439445496,0.349065840244,0.0742214769125,-0.00187361461576,0.234134092927,0.0230571702123,0.0230571702123,-0.00241464213468,0.0107316672802,-87.2430725098,-87.2430725098,-58.4932975769,88.5170440674,2013,2044,2127,2022,2022,2670,3310,3338,3137,3290,3003,2972,3049,3088,3165,2964,3396,3390,3236,3293,2952,3278,3309,3031,0.009985081,1.319992822,1.318030692,0.453785598278,4500.0,0.421937853098,0.018858673051,-0.0318477600813,143.314926147,0.0,6000.0,-0.00185632973444,0.010695300065,0.0,0.0,0.349065840244,0.0216827709228,-0.00144655141048,0.308909058571,-0.00567188858986,-0.00567188858986,-0.00147484464105,0.00985423382372,114.320098877,114.320098877,0.79159361124,61.8333930969,2017,2015,2557,2039,2039,2937,3429,3429,3249,3368,3094,3049,3155,3147,3238,2861,3415,3420,3256,3372,3142,3355,3388,3196
1508404607999977120,133,1508404607999748375,plot_matl,0.25,-4000.0,0.234129741788,0.00968651287258,-0.0158702582121,-61.2629737854,0.349065840244,0.0728719979525,-0.00185627711471,0.234234556556,0.00956518482417,0.00956518482417,-0.00272277672775,0.00778861856088,-87.4719772339,-87.4719772339,-58.4702453613,88.6902999878,2019,2042,2127,2022,2022,2670,3310,3334,3139,3290,3002,2971,3049,3088,3165,2966,3393,3390,3236,3293,2952,3278,3309,3031,0.00993408,1.329927783,1.32123264,0.453785598278,4500.0,0.420588374138,-0.00830877479166,-0.0331972427666,149.387588501,0.0,6000.0,-0.00185719854198,-0.0026893070899,0.0,0.0,0.349065840244,0.0216827709228,-0.00137754902244,0.309156894684,-0.00828316155821,-0.00828316155821,-0.0028290732298,0.00336614088155,114.560623169,114.560623169,1.07905960083,61.9297180176,2024,2021,2557,2039,2039,2937,3429,3426,3248,3369,3091,3048,3155,3146,3238,2860,3410,3420,3256,3372,3142,3355,3388,3196
1508404608009927728,134,1508404608009739333,plot_matl,0.25,-4000.0,0.234076797962,0.0106761455536,-0.0159232020378,-61.3151893616,0.349065840244,0.0728719979525,-0.00185627711471,0.234234556556,0.00956518482417,0.00956518482417,-0.00272277672775,0.00778861856088,-87.4719772339,-87.4719772339,-58.4702453613,88.6902999878,2027,2062,2126,2023,2023,2670,3310,3334,3139,3290,3002,2971,3049,3088,3165,2966,3393,3391,3237,3291,2952,3277,3308,3030,0.009989404,1.339918339,1.338580136,0.453785598278,4500.0,0.419238895178,-0.0360290110111,-0.0345467217267,155.460250854,0.0,6000.0,-0.0018709837459,-0.00242112320848,0.0,0.0,0.349065840244,0.0216827709228,-0.00137754902244,0.309156894684,-0.00828316155821,-0.00828316155821,-0.0028290732298,0.00336614088155,114.560623169,114.560623169,1.07905960083,61.9297180176,2022,2025,2557,2036,2036,2937,3429,3426,3248,3369,3091,3048,3155,3146,3238,2860,3410,3418,3257,3372,3144,3354,3390,3196
1508404608020152624,135,1508404608019776582,plot_matl,0.25,-4000.0,0.234061583877,-0.0269853342324,-0.0159384123981,-70.3569869995,0.349065840244,0.0728719979525,-0.00185627711471,0.234234556556,0.00956518482417,0.00956518482417,-0.00272277672775,0.00778861856088,-87.4719772339,-87.4719772339,-58.4702453613,88.6902999878,2037,2067,2126,2023,2023,2669,3308,3336,3138,3290,3000,2970,3050,3089,3168,2966,3393,3391,3237,3291,2952,3277,3308,3030,0.010038021,1.34995598,1.355132835,0.453785598278,4500.0,0.420588374138,-0.00817467086017,-0.0331972427666,149.387588501,0.0,6000.0,-0.00185526092537,-0.00272370944731,0.0,0.0,0.349065840244,0.0216827709228,-0.00137754902244,0.309156894684,-0.00828316155821,-0.00828316155821,-0.0028290732298,0.00336614088155,114.560623169,114.560623169,1.07905960083,61.9297180176,2033,2032,2557,2036,2036,2937,3426,3426,3248,3367,3091,3048,3155,3145,3238,2860,3410,3418,3257,3372,3144,3354,3390,3196
1508404608030062055,136,1508404608029783952,plot_matl,0.25,-4000.0,0.234087318182,0.0103385569528,-0.0159126874059,-61.2369194031,0.349065840244,0.0728719979525,-0.00185627711471,0.234234556556,0.00956518482417,0.00956518482417,-0.00272277672775,0.00778861856088,-87.4719772339,-87.4719772339,-58.4702453613,88.6902999878,2027,2063,2127,2023,2023,2669,3308,3336,3138,3290,3000,2970,3050,3089,3168,2961,3396,3390,3236,3291,2950,3282,3307,3030,0.010007912,1.359963867,1.361076032,0.453785598278,4500.0,0.420588374138,-0.00759412022308,-0.0331972427666,149.387588501,0.0,6000.0,-0.00183080055285,-0.00322227668948,0.0,0.0,0.349065840244,0.0216827709228,-0.00137754902244,0.309156894684,-0.00828316155821,-0.00828316155821,-0.0028290732298,0.00336614088155,114.560623169,114.560623169,1.07905960083,61.9297180176,2029,2031,2557,2036,2036,2937,3426,3426,3248,3367,3091,3048,3155,3145,3238,2859,3413,3420,3255,3371,3142,3353,3387,3196
1508404608040346281,137,1508404608039786828,plot_matl,0.25,-4000.0,0.234178677201,0.0084614418447,-0.0158213227987,-61.3245048523,0.349065840244,0.0715225115418,-0.00184210122097,0.234111517668,-0.00446981657296,-0.00446981657296,0.0104281324893,0.00986198522151,-87.4451522827,-87.4451522827,-58.4550094604,88.9539413452,2045,2064,2127,2023,2023,2668,3310,3335,3136,3290,3001,2971,3049,3089,3168,2961,3396,3390,3236,3291,2950,3282,3307,3030,0.010004524,1.369966817,1.370619788,0.453785598278,4500.0,0.420588374138,-0.00675294268876,-0.0331972427666,149.387588501,0.0,6000.0,-0.00183755671605,-0.00311399856582,0.0,0.0,0.349065840244,0.0240919683129,-0.00145554356277,0.309084653854,0.0157248023897,0.0157248023897,-0.00126327981707,0.00408861460164,114.568534851,114.568534851,0.930780768394,61.9991760254,2041,2030,2557,2039,2039,2936,3427,3427,3247,3366,3090,3048,3155,3145,3238,2859,3413,3420,3255,3371,3142,3353,3387,3196
1508404608050065371,138,1508404608049779870,plot_matl,0.25,-4000.0,0.234218165278,0.00763202318922,-0.0157818384469,-61.3849143982,0.349065840244,0.0715225115418,-0.00184210122097,0.234111517668,-0.00446981657296,-0.00446981657296,0.0104281324893,0.00986198522151,-87.4451522827,-87.4451522827,-58.4550094604,88.9539413452,2038,2069,2127,2023,2023,2668,3310,3335,3136,3290,3001,2971,3049,3084,3165,2962,3397,3392,3238,3288,2952,3279,3311,3030,0.009990215,1.37995965,1.37864967,0.453785598278,4500.0,0.420588374138,-0.00505081890151,-0.0331972427666,149.387588501,0.0,6000.0,-0.0018543144688,-0.00277810241096,0.0,0.0,0.349065840244,0.0240919683129,-0.00145554356277,0.309084653854,0.0157248023897,0.0157248023897,-0.00126327981707,0.00408861460164,114.568534851,114.568534851,0.930780768394,61.9991760254,2036,2035,2557,2039,2039,2936,3427,3427,3247,3366,3090,3048,3155,3143,3240,2859,3411,3418,3255,3370,3144,3354,3391,3196
1508404608060153001,139,1508404608059783077,plot_matl,0.25,-4000.0,0.234082400799,-0.0275112185627,-0.0159176029265,-70.1944961548,0.349065840244,0.0715225115418,-0.00184210122097,0.234111517668,-0.00446981657296,-0.00446981657296,0.0104281324893,0.00986198522151,-87.4451522827,-87.4451522827,-58.4550094604,88.9539413452,2030,2068,2126,2021,2021,2668,3308,3336,3140,3288,3002,2971,3049,3084,3165,2962,3397,3392,3238,3288,2952,3279,3311,3030,0.010003091,1.389963047,1.390429649,0.453785598278,4500.0,0.421937853098,0.0211050678045,-0.0318477600813,143.314926147,0.0,6000.0,-0.00184482184704,-0.00296525168233,0.0,0.0,0.349065840244,0.0240919683129,-0.00145554356277,0.309084653854,0.0157248023897,0.0157248023897,-0.00126327981707,0.00408861460164,114.568534851,114.568534851,0.930780768394,61.9991760254,2033,2036,2556,2037,2037,2936,3426,3425,3247,3366,3092,3048,3155,3143,3240,2859,3411,3418,3255,3370,3144,3354,3391,3195
1508404608070179550,140,1508404608069787361,plot_matl,0.25,-4000.0,0.234102770686,0.00995951704681,-0.0158972237259,-61.2276649475,0.349065840244,0.0715225115418,-0.00184210122097,0.234111517668,-0.00446981657296,-0.00446981657296,0.0104281324893,0.00986198522151,-87.4451522827,-87.4451522827,-58.4550094604,88.9539413452,2028,2075,2126,2021,2021,2668,3308,3336,3140,3288,3002,2972,3049,3087,3164,2963,3395,3388,3235,3290,2952,3279,3311,3030,0.01000281,1.399966744,1.4003934,0.453785598278,4500.0,0.420588374138,-0.00652671651915,-0.0331972427666,149.387588501,0.0,6000.0,-0.00184811488725,-0.00289613031782,0.0,0.0,0.349065840244,0.0240919683129,-0.00145554356277,0.309084653854,0.0157248023897,0.0157248023897,-0.00126327981707,0.00408861460164,114.568534851,114.568534851,0.930780768394,61.9991760254,2029,2037,2556,2037,2037,2936,3426,3425,3247,3366,3092,3046,3156,3145,3239,2861,3410,3419,3257,3370,3143,3354,3391,3195
1508404608080106528,141,1508404608079779512,plot_matl,0.25,-4000.0,0.234084561467,0.0102862762287,-0.0159154441208,-61.3132553101,0.349065840244,0.0728719979525,-0.00183250708506,0.234130352736,0.0103135388345,0.0103135388345,-0.0032072653994,0.00942150130868,-87.2949752808,-87.2949752808,-58.7705955505,88.8826065063,2026,2067,2126,2020,2020,2668,3307,3337,3138,3288,3002,2972,3049,3087,3164,2963,3395,3388,3235,3290,2952,3277,3307,3029,0.009992061,1.409959171,1.408880601,0.453785598278,4500.0,0.420588374138,-0.00525156361982,-0.0331972427666,149.387588501,0.0,6000.0,-0.00181406468619,0.00983127485961,0.0,0.0,0.349065840244,0.0216827709228,-0.00144245161209,0.309102654457,-0.00959634780884,-0.00959634780884,-0.00154178391676,0.003535970347,114.641548157,114.641548157,0.699404656887,61.8953094482,2027,2034,2556,2037,2037,2936,3428,3429,3248,3366,3092,3046,3156,3145,3239,2861,3410,3419,3257,3370,3143,3354,3391,3194
1508404608090069239,142,1508404608089754727,plot_matl,0.25,-4000.0,0.233969122171,0.0125580625609,-0.0160308815539,-61.2328262329,0.349065840244,0.0728719979525,-0.00183250708506,0.234130352736,0.0103135388345,0.0103135388345,-0.0032072653994,0.00942150130868,-87.2949752808,-87.2949752808,-58.7705955505,88.8826065063,2021,2046,2126,2020,2020,2668,3307,3337,3138,3289,3000,2972,3050,3086,3167,2962,3395,3389,3236,3290,2952,3277,3307,3029,0.009975203,1.419934543,1.416478826,0.453785598278,4500.0,0.420588374138,-0.00481385178864,-0.0331972427666,149.387588501,0.0,6000.0,-0.00182053400204,-0.00344741297886,0.0,0.0,0.349065840244,0.0216827709228,-0.00144245161209,0.309102654457,-0.00959634780884,-0.00959634780884,-0.00154178391676,0.003535970347,114.641548157,114.641548157,0.699404656887,61.8953094482,2020,2017,2556,2037,2037,2936,3428,3429,3248,3364,3091,3049,3156,3144,3236,2860,3412,3420,3255,3370,3143,3354,3391,3194
1508404608099891155,143,1508404608099740267,plot_matl,0.25,-4000.0,0.23404866457,0.0109819462523,-0.0159513354301,-61.130695343,0.349065840244,0.0728719979525,-0.00183250708506,0.234130352736,0.0103135388345,0.0103135388345,-0.0032072653994,0.00942150130868,-87.2949752808,-87.2949752808,-58.7705955505,88.8826065063,2024,2049,2127,2017,2017,2669,3307,3337,3138,3289,3000,2972,3050,3086,3167,2962,3395,3389,3236,3290,2953,3278,3309,3029,0.009983413,1.429919113,1.427628059,0.453785598278,4500.0,0.420588374138,-0.0019456561422,-0.0331972427666,149.387588501,0.0,6000.0,-0.00178141880315,-0.00426252977923,0.0,0.0,0.349065840244,0.0216827709228,-0.00144245161209,0.309102654457,-0.00959634780884,-0.00959634780884,-0.00154178391676,0.003535970347,114.641548157,114.641548157,0.699404656887,61.8953094482,2024,2027,2556,2035,2035,2935,3427,3429,3248,3364,3091,3049,3156,3144,3236,2860,3412,3420,3255,3370,3142,3353,3389,3196
1508404608109995576,144,1508404608109752690,plot_matl,0.25,-4000.0,0.234039247036,0.0110694775358,-0.0159607566893,-61.2156639099,0.349065840244,0.0728719979525,-0.00183250708506,0.234130352736,0.0103135388345,0.0103135388345,-0.0032072653994,0.00942150130868,-87.2949752808,-87.2949752808,-58.7705955505,88.8826065063,2024,2063,2127,2017,2017,2669,3307,3337,3136,3286,3002,2971,3048,3088,3167,2963,3395,3389,3236,3290,2953,3278,3309,3029,0.0100138,1.439932273,1.4419872,0.453785598278,4500.0,0.420588374138,-0.000606504501775,-0.0331972427666,149.387588501,0.0,6000.0,-0.00179403519724,0.00942920986563,0.0,0.0,0.349065840244,0.0216827709228,-0.00144245161209,0.309102654457,-0.00959634780884,-0.00959634780884,-0.00154178391676,0.003535970347,114.641548157,114.641548157,0.699404656887,61.8953094482,2024,2031,2556,2035,2035,2935,3427,3429,3248,3366,3091,3048,3155,3145,3237,2858,3410,3420,3255,3370,3142,3353,3389,3196
1508404608119869006,145,1508404608119733889,plot_matl,0.25,-4000.0,0.234004199505,-0.0261278878897,-0.0159958060831,-69.8562088013,0.349065840244,0.0715225115418,-0.00178754993249,0.234025642276,-0.000619145401288,-0.000619145401288,-0.00411977944896,0.0114054325968,-87.3957366943,-87.3957366943,-58.7329139709,88.62474823,2011,2062,2126,2019,2019,2669,3307,3337,3136,3286,3002,2971,3048,3088,3167,2963,3395,3391,3236,3293,2952,3278,3307,3031,0.009979183,1.449912325,1.446981535,0.453785598278,4500.0,0.420588374138,-5.88530310779e-05,-0.0331972427666,149.387588501,0.0,6000.0,-0.00181682372931,-0.00353017565794,0.0,0.0,0.349065840244,0.0240919683129,-0.0014470500173,0.308871150017,0.0153513578698,0.0153513578698,0.0139280827716,0.00801906175911,114.917747498,114.917747498,0.714315235615,61.5967597961,2022,2033,2556,2037,2037,2935,3427,3429,3248,3366,3091,3048,3155,3145,3237,2858,3410,3419,3257,3372,3142,3354,3392,3194
1508404608129875825,146,1508404608129737345,plot_matl,0.25,-4000.0,0.234076291323,0.0103380559012,-0.0159237142652,-61.2200317383,0.349065840244,0.0715225115418,-0.00178754993249,0.234025642276,-0.000619145401288,-0.000619145401288,-0.00411977944896,0.0114054325968,-87.3957366943,-87.3957366943,-58.7329139709,88.62474823,2021,2073,2126,2019,2019,2667,3310,3336,3137,3288,3000,2972,3048,3084,3165,2963,3395,3391,3236,3293,2952,3278,3307,3031,0.01000388,1.459916343,1.46056648,0.453785598278,4500.0,0.420588374138,0.000447027996415,-0.0331972427666,149.387588501,0.0,6000.0,-0.00182568933815,-0.00336085306481,0.0,0.0,0.349065840244,0.0240919683129,-0.0014470500173,0.308871150017,0.0153513578698,0.0153513578698,0.0139280827716,0.00801906175911,114.917747498,114.917747498,0.714315235615,61.5967597961,2025,2034,2556,2037,2037,2935,3428,3426,3247,3367,3091,3047,3155,3145,3239,2858,3410,3419,3257,3372,3142,3354,3392,3194
1508404608140097416,147,1508404608139735093,plot_matl,0.25,-4000.0,0.234101623297,0.00981480814517,-0.0158983748406,-61.2584114075,0.349065840244,0.0715225115418,-0.00178754993249,0.234025642276,-0.000619145401288,-0.000619145401288,-0.00411977944896,0.0114054325968,-87.3957366943,-87.3957366943,-58.7329139709,88.62474823,2030,2075,2126,2019,2019,2667,3310,3336,3137,3288,3000,2972,3048,3084,3165,2964,3394,3390,3236,3288,2952,3277,3309,3030,0.009997758,1.469914017,1.469670426,0.453785598278,4500.0,0.420588374138,0.000871203548741,-0.0331972427666,149.387588501,0.0,6000.0,-0.00183036027011,0.0101508526132,0.0,0.0,0.349065840244,0.0240919683129,-0.0014470500173,0.308871150017,0.0153513578698,0.0153513578698,0.0139280827716,0.00801906175911,114.917747498,114.917747498,0.714315235615,61.5967597961,2028,2030,2556,2037,2037,2935,3428,3426,3247,3367,3091,3047,3155,3145,3239,2858,3411,3418,3255,3370,3143,3355,3388,3196
1508404608150055840,148,1508404608149748860,plot_matl,0.25,-4000.0,0.234083354473,0.0100939469412,-0.0159166511148,-61.2724571228,0.349065840244,0.0715225115418,-0.00178754993249,0.234025642276,-0.000619145401288,-0.000619145401288,-0.00411977944896,0.0114054325968,-87.3957366943,-87.3957366943,-58.7329139709,88.62474823,2029,2050,2126,2021,2021,2668,3310,3335,3138,3288,3002,2970,3049,3084,3165,2964,3394,3390,3236,3288,2952,3277,3309,3030,0.010012678,1.47992749,1.481876344,0.453785598278,4500.0,0.420588374138,-0.000804886396509,-0.0331972427666,149.387588501,0.0,6000.0,-0.00183790759183,-0.00314908893779,0.0,0.0,0.349065840244,0.0240919683129,-0.0014470500173,0.308871150017,0.0153513578698,0.0153513578698,0.0139280827716,0.00801906175911,114.917747498,114.917747498,0.714315235615,61.5967597961,2031,2023,2556,2033,2033,2936,3429,3427,3249,3366,3093,3048,3154,3145,3239,2858,3411,3418,3255,3370,3143,3355,3388,3196
1508404608160116292,149,1508404608159788247,plot_matl,0.25,-4000.0,0.234083354473,0.0100939469412,-0.0159166511148,-61.2724571228,0.349065840244,0.0715225115418,-0.00182171235792,0.234070360661,0.000130931264721,0.000130931264721,-0.00347708817571,-0.0275424029678,-87.4147796631,-87.4147796631,-58.5960731506,88.7073440552,2025,2066,2126,2021,2021,2668,3310,3335,3138,3288,3002,2970,3049,3086,3166,2962,3393,3388,3237,3289,2950,3276,3310,3030,0.010040676,1.48996737,1.496060724,0.453785598278,4500.0,0.420588374138,-0.000804886396509,-0.0331972427666,149.387588501,0.0,6000.0,-0.00183790759183,-0.00314908893779,0.0,0.0,0.349065840244,0.0216827709228,-0.00139985559508,0.308784246445,-0.00752723403275,-0.00752723403275,-0.00238893204369,-0.0523158833385,114.729309082,114.729309082,0.689013183117,61.63438797,2027,2033,2556,2033,2033,2936,3429,3427,3249,3366,3093,3048,3154,3144,3240,2860,3410,3420,3256,3370,3145,3354,3392,3196
1508404608169944153,150,1508404608169748399,plot_matl,0.25,-4000.0,0.23398797214,-0.0258648265153,-0.0160120334476,-70.1589050293,0.349065840244,0.0715225115418,-0.00182171235792,0.234070360661,0.000130931264721,0.000130931264721,-0.00347708817571,-0.0275424029678,-87.4147796631,-87.4147796631,-58.5960731506,88.7073440552,2018,2061,2125,2020,2020,2670,3310,3333,3136,3287,2999,2970,3049,3086,3166,2962,3393,3388,3237,3289,2950,3276,3310,3031,0.009961194,1.499928379,1.4941791,0.453785598278,4500.0,0.420588374138,-0.00314523512498,-0.0331972427666,149.387588501,0.0,6000.0,-0.00185228395276,-0.00285626505502,0.0,0.0,0.349065840244,0.0216827709228,-0.00139985559508,0.308784246445,-0.00752723403275,-0.00752723403275,-0.00238893204369,-0.0523158833385,114.729309082,114.729309082,0.689013183117,61.63438797,2029,2029,2556,2037,2037,2936,3429,3426,3247,3367,3092,3048,3154,3144,3240,2860,3410,3420,3256,3370,3145,3354,3392,3196
1508404608180114194,151,1508404608179759726,plot_matl,0.25,-4000.0,0.233986034989,0.0120609225705,-0.0160139705986,-61.2414588928,0.349065840244,0.0715225115418,-0.00182171235792,0.234070360661,0.000130931264721,0.000130931264721,-0.00347708817571,-0.0275424029678,-87.4147796631,-87.4147796631,-58.5960731506,88.7073440552,2007,2062,2125,2020,2020,2670,3310,3333,3136,3287,2999,2973,3050,3085,3166,2963,3397,3388,3234,3290,2951,3276,3310,3031,0.010011176,1.509939495,1.511687576,0.453785598278,4500.0,0.421937853098,0.0226721689105,-0.0318477600813,143.314926147,0.0,6000.0,-0.00184314488433,-0.00301984488033,0.0,0.0,0.349065840244,0.0216827709228,-0.00139985559508,0.308784246445,-0.00752723403275,-0.00752723403275,-0.00238893204369,-0.0523158833385,114.729309082,114.729309082,0.689013183117,61.63438797,2020,2026,2556,2037,2037,2936,3429,3426,3247,3367,3092,3046,3153,3146,3238,2860,3410,3420,3257,3372,3142,3354,3392,3196
1508404608190040006,152,1508404608189760519,plot_matl,0.25,-4000.0,0.234061002731,0.0105755440891,-0.0159389991313,-61.1014213562,0.349065840244,0.0715225115418,-0.00182171235792,0.234070360661,0.000130931264721,0.000130931264721,-0.00347708817571,-0.0275424029678,-87.4147796631,-87.4147796631,-58.5960731506,88.7073440552,2016,2063,2126,2018,2018,2669,3308,3335,3138,3287,2999,2973,3050,3085,3166,2963,3397,3388,3234,3290,2951,3280,3307,3029,0.009998877,1.519939774,1.519829304,0.453785598278,4500.0,0.421937853098,0.0220831893384,-0.0318477600813,143.314926147,0.0,6000.0,-0.0018466101028,-0.00296999141574,0.0,0.0,0.349065840244,0.0216827709228,-0.00139985559508,0.308784246445,-0.00752723403275,-0.00752723403275,-0.00238893204369,-0.0523158833385,114.729309082,114.729309082,0.689013183117,61.63438797,2023,2028,2556,2035,2035,2937,3427,3428,3248,3367,3092,3046,3153,3146,3238,2860,3410,3420,3257,3372,3142,3353,3390,3195
1508404608200026697,153,1508404608199807588,plot_matl,0.25,-4000.0,0.234013214707,-0.0264340490103,-0.0159867908806,-70.0586013794,0.349065840244,0.0728719979525,-0.00185743824113,0.234043225646,0.0107702761889,0.0107702761889,-0.00273256655782,0.0109135648236,-87.5774002075,-87.5774002075,-58.8237304688,88.7423629761,2023,2050,2126,2018,2018,2669,3308,3335,3138,3289,3000,2970,3049,3087,3164,2962,3395,3390,3236,3290,2951,3280,3307,3029,0.010046713,1.529986723,1.537147089,0.453785598278,4500.0,0.421937853098,0.0224475003779,-0.0318477600813,143.314926147,0.0,6000.0,-0.00183944543824,-0.00311307399534,0.0,0.0,0.349065840244,0.0216827709228,-0.00140868942253,0.308877199888,-0.00971796549857,-0.00971796549857,-0.00220360397361,0.00774681940675,114.973548889,114.973548889,0.299855053425,62.1814041138,2023,2024,2556,2035,2035,2937,3427,3428,3248,3364,3093,3047,3153,3145,3238,2858,3413,3419,3254,3372,3142,3353,3390,3195
1508404608210071257,154,1508404608209747988,plot_matl,0.25,-4000.0,0.234118178487,0.00938926357776,-0.0158818215132,-61.163318634,0.349065840244,0.0728719979525,-0.00185743824113,0.234043225646,0.0107702761889,0.0107702761889,-0.00273256655782,0.0109135648236,-87.5774002075,-87.5774002075,-58.8237304688,88.7423629761,2009,2039,2126,2021,2021,2670,3309,3335,3138,3289,3000,2970,3049,3087,3164,2962,3395,3390,3236,3291,2952,3277,3310,3029,0.009940563,1.539927484,1.530846702,0.453785598278,4500.0,0.420588374138,-0.00395720545202,-0.0331972427666,149.387588501,0.0,6000.0,-0.00184340320993,-0.00302879139781,0.0,0.0,0.349065840244,0.0216827709228,-0.00140868942253,0.308877199888,-0.00971796549857,-0.00971796549857,-0.00220360397361,0.00774681940675,114.973548889,114.973548889,0.299855053425,62.1814041138,2020,2016,2556,2037,2037,2937,3427,3428,3248,3364,3093,3047,3153,3145,3238,2858,3413,3419,3254,3371,3144,3353,3388,3195
1508404608220075924,155,1508404608219752810,plot_matl,0.25,-4000.0,0.234136477113,0.00900922715664,-0.0158635266125,-61.1670608521,0.349065840244,0.0728719979525,-0.00185743824113,0.234043225646,0.0107702761889,0.0107702761889,-0.00273256655782,0.0109135648236,-87.5774002075,-87.5774002075,-58.8237304688,88.7423629761,2023,2051,2126,2021,2021,2670,3309,3336,3138,3289,3002,2971,3050,3087,3165,2962,3396,3390,3236,3291,2952,3277,3310,3029,0.010005355,1.5499328,1.550830025,0.453785598278,4500.0,0.420588374138,-0.00421511568129,-0.0331972427666,149.387588501,0.0,6000.0,-0.00184696214274,-0.00294784363359,0.0,0.0,0.349065840244,0.0216827709228,-0.00140868942253,0.308877199888,-0.00971796549857,-0.00971796549857,-0.00220360397361,0.00774681940675,114.973548889,114.973548889,0.299855053425,62.1814041138,2025,2026,2556,2037,2037,2937,3427,3428,3248,3366,3090,3047,3155,3145,3238,2858,3411,3419,3254,3371,3144,3353,3388,3195
1508404608230110212,156,1508404608229748832,plot_matl,0.25,-4000.0,0.23410461843,-0.02835592255,-0.0158953797072,-70.5172958374,0.349065840244,0.0728719979525,-0.00185743824113,0.234043225646,0.0107702761889,0.0107702761889,-0.00273256655782,0.0109135648236,-87.5774002075,-87.5774002075,-58.8237304688,88.7423629761,2027,2060,2126,2018,2018,2670,3309,3336,3138,3289,3002,2971,3050,3087,3165,2962,3396,3389,3235,3289,2952,3278,3309,3031,0.009995208,1.559928443,1.559252448,0.453785598278,4500.0,0.419238895178,-0.0316654965281,-0.0345467217267,155.460250854,0.0,6000.0,-0.00187347235624,-0.00241416972131,0.0,0.0,0.349065840244,0.0216827709228,-0.00140868942253,0.308877199888,-0.00971796549857,-0.00971796549857,-0.00220360397361,0.00774681940675,114.973548889,114.973548889,0.299855053425,62.1814041138,2025,2028,2557,2037,2037,2937,3427,3428,3248,3366,3090,3047,3155,3145,3238,2858,3411,3418,3255,3371,3144,3354,3389,3194
1508404608240133145,157,1508404608239791000,plot_matl,0.25,-4000.0,0.23405353725,-0.0273087155074,-0.0159464627504,-70.2980957031,0.349065840244,0.0715225115418,-0.00186079123523,0.234103158116,-0.00218144338578,-0.00218144338578,-0.00266945082694,-0.0282462053001,-87.6275177002,-87.6275177002,-58.9995193481,88.9817047119,2016,2053,2126,2018,2018,2670,3308,3336,3138,3289,3001,2970,3049,3084,3164,2962,3396,3389,3235,3289,2952,3278,3309,3031,0.010041213,1.569970227,1.576470441,0.453785598278,4500.0,0.420588374138,-0.0036273044534,-0.0331972427666,149.387588501,0.0,6000.0,-0.0018950717058,-0.00197935663164,0.0,0.0,0.349065840244,0.0216827709228,-0.00140543805901,0.309156566858,-0.00990828406066,-0.00990828406066,-0.0022717025131,0.00196908554062,114.912750244,114.912750244,0.362326234579,62.6214485168,2021,2022,2557,2037,2037,2935,3427,3427,3246,3366,3091,3048,3155,3142,3236,2858,3411,3418,3255,3371,3144,3354,3389,3194
1508404608249993545,158,1508404608249745662,plot_matl,0.25,-4000.0,0.234088167548,0.00993782002479,-0.0159118380398,-61.2498588562,0.349065840244,0.0715225115418,-0.00186079123523,0.234103158116,-0.00218144338578,-0.00218144338578,-0.00266945082694,-0.0282462053001,-87.6275177002,-87.6275177002,-58.9995193481,88.9817047119,2019,2071,2126,2018,2018,2670,3308,3336,3138,3289,3001,2970,3049,3084,3164,2962,3395,3388,3235,3291,2951,3277,3309,3030,0.009963291,1.57993438,1.574199978,0.453785598278,4500.0,0.420588374138,-0.00153453228995,-0.0331972427666,149.387588501,0.0,6000.0,-0.00187748519238,0.0110904145986,0.0,0.0,0.349065840244,0.0216827709228,-0.00140543805901,0.309156566858,-0.00990828406066,-0.00990828406066,-0.0022717025131,0.00196908554062,114.912750244,114.912750244,0.362326234579,62.6214485168,2020,2025,2556,2037,2037,2935,3427,3427,3246,3366,3091,3048,3155,3142,3236,2858,3410,3418,3254,3371,3142,3353,3389,3194
1508404608260132520,159,1508404608259795897,plot_matl,0.25,-4000.0,0.234014451504,0.0115139344707,-0.0159855540842,-61.167881012,0.349065840244,0.0715225115418,-0.00186079123523,0.234103158116,-0.00218144338578,-0.00218144338578,-0.00266945082694,-0.0282462053001,-87.6275177002,-87.6275177002,-58.9995193481,88.9817047119,2025,2057,2126,2021,2021,2669,3310,3336,3138,3290,2999,2970,3047,3084,3164,2962,3395,3388,3235,3291,2951,3277,3309,3030,0.010041821,1.589975529,1.596649539,0.453785598278,4500.0,0.421937853098,0.0249957181513,-0.0318477600813,143.314926147,0.0,6000.0,-0.00187373615336,-0.00241281324998,0.0,0.0,0.349065840244,0.0216827709228,-0.00140543805901,0.309156566858,-0.00990828406066,-0.00990828406066,-0.0022717025131,0.00196908554062,114.912750244,114.912750244,0.362326234579,62.6214485168,2024,2026,2556,2037,2037,2937,3428,3426,3248,3367,3093,3049,3155,3142,3236,2858,3410,3418,3254,3371,3142,3353,3389,3194
1508404608270032199,160,1508404608269741537,plot_matl,0.25,-4000.0,0.234018981457,0.0113765969872,-0.0159810222685,-61.0601959229,0.349065840244,0.0715225115418,-0.00186079123523,0.234103158116,-0.00218144338578,-0.00218144338578,-0.00266945082694,-0.0282462053001,-87.6275177002,-87.6275177002,-58.9995193481,88.9817047119,2023,2062,2126,2021,2021,2669,3310,3336,3138,3290,2999,2970,3047,3087,3164,2962,3397,3389,3233,3290,2950,3279,3307,3030,0.009943625,1.599920333,1.59098,0.453785598278,4500.0,0.420588374138,-0.00185339921154,-0.0331972427666,149.387588501,0.0,6000.0,-0.00185877270997,0.0107032274827,0.0,0.0,0.349065840244,0.0216827709228,-0.00140543805901,0.309156566858,-0.00990828406066,-0.00990828406066,-0.0022717025131,0.00196908554062,114.912750244,114.912750244,0.362326234579,62.6214485168,2026,2030,2556,2037,2037,2937,3428,3426,3248,3367,3093,3049,3155,3145,3237,2859,3411,3420,3257,3370,3141,3354,3391,3194
1508404608280040258,161,1508404608279786663,plot_matl,0.25,-4000.0,0.233913719654,-0.0244420170784,-0.0160862803459,-70.154083252,0.349065840244,0.0715225115418,-0.00187315396033,0.233997300267,-0.00102348520886,-0.00102348520886,-0.00242476654239,0.0118218427524,-87.3977661133,-87.3977661133,-58.7745094299,89.0088043213,2023,2063,2127,2020,2020,2670,3307,3334,3138,3288,3000,2970,3047,3087,3164,2962,3397,3389,3233,3290,2950,3279,3307,3030,0.010045384,1.609965715,1.617306824,0.453785598278,4500.0,0.420588374138,-0.000983688398264,-0.0331972427666,149.387588501,0.0,6000.0,-0.00184713595081,-0.00296706869267,0.0,0.0,0.349065840244,0.0240919683129,-0.00138392974623,0.308986753225,0.0139298774302,0.0139298774302,-0.00269713299349,0.00531799020246,114.627342224,114.627342224,0.523026287556,62.7081718445,2022,2026,2556,2033,2033,2937,3427,3427,3249,3365,3092,3049,3155,3145,3237,2859,3411,3420,3257,3370,3141,3354,3391,3195
1508404608290036465,162,1508404608289748194,plot_matl,0.25,-4000.0,0.233834013343,0.0151060204953,-0.0161659847945,-60.9277648926,0.349065840244,0.0715225115418,-0.00187315396033,0.233997300267,-0.00102348520886,-0.00102348520886,-0.00242476654239,0.0118218427524,-87.3977661133,-87.3977661133,-58.7745094299,89.0088043213,2006,2060,2127,2020,2020,2670,3307,3334,3138,3288,3000,2970,3048,3088,3166,2961,3396,3389,3235,3290,2952,3279,3307,3030,0.009962043,1.619927658,1.613850966,0.453785598278,4500.0,0.420588374138,-0.00176711741369,-0.0331972427666,149.387588501,0.0,6000.0,-0.00186213909183,-0.00266695348546,0.0,0.0,0.349065840244,0.0240919683129,-0.00138392974623,0.308986753225,0.0139298774302,0.0139298774302,-0.00269713299349,0.00531799020246,114.627342224,114.627342224,0.523026287556,62.7081718445,2016,2021,2556,2033,2033,2937,3427,3427,3249,3365,3092,3049,3154,3143,3239,2858,3412,3421,3254,3371,3143,3354,3391,3195
1508404608300030747,163,1508404608299767071,plot_matl,0.25,-4000.0,0.23383307457,0.0150816170499,-0.0161669254303,-60.741771698,0.349065840244,0.0715225115418,-0.00187315396033,0.233997300267,-0.00102348520886,-0.00102348520886,-0.00242476654239,0.0118218427524,-87.3977661133,-87.3977661133,-58.7745094299,89.0088043213,2021,2071,2126,2020,2020,2670,3309,3337,3140,3288,3000,2970,3048,3088,3166,2961,3396,3389,3235,3290,2952,3278,3308,3030,0.010019319,1.629946963,1.633148997,0.453785598278,4500.0,0.421937853098,0.0243276599795,-0.0318477600813,143.314926147,0.0,6000.0,-0.00186267215759,-0.00265078013763,0.0,0.0,0.349065840244,0.0240919683129,-0.00138392974623,0.308986753225,0.0139298774302,0.0139298774302,-0.00269713299349,0.00531799020246,114.627342224,114.627342224,0.523026287556,62.7081718445,2025,2031,2556,2033,2033,2937,3429,3428,3248,3365,3092,3049,3154,3143,3239,2858,3412,3421,3254,3371,3143,3353,3390,3195
1508404608309860061,164,1508404608309709653,plot_matl,0.25,-4000.0,0.233837649226,-0.0228616613895,-0.0161623507738,-70.130569458,0.349065840244,0.0715225115418,-0.00187315396033,0.233997300267,-0.00102348520886,-0.00102348520886,-0.00242476654239,0.0118218427524,-87.3977661133,-87.3977661133,-58.7745094299,89.0088043213,2020,2058,2126,2020,2020,2670,3309,3337,3140,3290,3003,2970,3049,3088,3164,2964,3397,3387,3237,3290,2952,3278,3308,3030,0.009940489,1.639888638,1.630240196,0.453785598278,4500.0,0.420588374138,-0.00237936293706,-0.0331972427666,149.387588501,0.0,6000.0,-0.00187444256153,-0.00240810355172,0.0,0.0,0.349065840244,0.0240919683129,-0.00138392974623,0.308986753225,0.0139298774302,0.0139298774302,-0.00269713299349,0.00531799020246,114.627342224,114.627342224,0.523026287556,62.7081718445,2026,2030,2556,2033,2033,2937,3429,3428,3248,3366,3091,3047,3154,3145,3237,2860,3410,3420,3254,3371,3143,3353,3390,3195
1508404608320006143,165,1508404608319744463,plot_matl,0.25,-4000.0,0.233837649226,-0.0228616613895,-0.0161623507738,-70.130569458,0.349065840244,0.0715225115418,-0.00186191604007,0.233799904585,-0.00131496111862,-0.00131496111862,-0.00266168941744,-0.0221032351255,-87.3936538696,-87.3936538696,-58.6386222839,88.7172241211,2009,2035,2126,2023,2023,2670,3308,3337,3140,3290,3003,2970,3049,3088,3164,2964,3397,3387,3237,3290,2951,3276,3310,3029,0.010035831,1.649923779,1.655912115,0.453785598278,4500.0,0.420588374138,-0.00191209814511,-0.0331972427666,149.387588501,0.0,6000.0,-0.00187444256153,-0.00240810355172,0.0,0.0,0.349065840244,0.0216827709228,-0.00142645277083,0.308599114418,-0.00940786395222,-0.00940786395222,-0.00186116411351,0.01323957555,114.37940979,114.37940979,0.902368426323,62.8996810913,2018,2014,2556,2038,2038,2937,3426,3428,3248,3366,3091,3047,3154,3145,3237,2860,3410,3420,3254,3372,3142,3354,3389,3195
1508404608330013050,166,1508404608329746874,plot_matl,0.25,-4000.0,0.233955547214,0.0127136548981,-0.0160444471985,-61.114528656,0.349065840244,0.0715225115418,-0.00186191604007,0.233799904585,-0.00131496111862,-0.00131496111862,-0.00266168941744,-0.0221032351255,-87.3936538696,-87.3936538696,-58.6386222839,88.7172241211,2023,2056,2126,2023,2023,2670,3308,3335,3137,3287,3001,2971,3050,3088,3165,2963,3395,3387,3237,3290,2951,3276,3310,3029,0.010001906,1.659926143,1.660316396,0.453785598278,4500.0,0.420588374138,-0.00197001011111,-0.0331972427666,149.387588501,0.0,6000.0,-0.00182307208888,0.00997433718294,0.0,0.0,0.349065840244,0.0216827709228,-0.00142645277083,0.308599114418,-0.00940786395222,-0.00940786395222,-0.00186116411351,0.01323957555,114.37940979,114.37940979,0.902368426323,62.8996810913,2036,2032,2556,2038,2038,2937,3426,3427,3247,3365,3092,3048,3154,3145,3238,2858,3411,3420,3254,3372,3142,3354,3389,3195
1508404608339894288,167,1508404608339738101,plot_matl,0.25,-4000.0,0.23386220634,-0.0233022458851,-0.0161377917975,-69.9152069092,0.349065840244,0.0715225115418,-0.00186191604007,0.233799904585,-0.00131496111862,-0.00131496111862,-0.00266168941744,-0.0221032351255,-87.3936538696,-87.3936538696,-58.6386222839,88.7172241211,2029,2064,2126,2025,2025,2670,3308,3335,3137,3287,3001,2971,3050,3088,3165,2963,3395,3387,3235,3290,2950,3280,3309,3031,0.009990033,1.669916884,1.668335511,0.453785598278,4500.0,0.420588374138,-0.00197001011111,-0.0331972427666,149.387588501,0.0,6000.0,-0.00184132019058,-0.00307434238493,0.0,0.0,0.349065840244,0.0216827709228,-0.00142645277083,0.308599114418,-0.00940786395222,-0.00940786395222,-0.00186116411351,0.01323957555,114.37940979,114.37940979,0.902368426323,62.8996810913,2030,2028,2557,2038,2038,2937,3426,3427,3247,3365,3092,3048,3154,3145,3238,2858,3411,3418,3255,3369,3143,3354,3389,3194
1508404608349977650,168,1508404608349742300,plot_matl,0.25,-4000.0,0.233781576157,-0.0217083077878,-0.0162184275687,-70.2660522461,0.349065840244,0.0715225115418,-0.00186191604007,0.233799904585,-0.00131496111862,-0.00131496111862,-0.00266168941744,-0.0221032351255,-87.3936538696,-87.3936538696,-58.6386222839,88.7172241211,1996,2028,2126,2025,2025,2669,3309,3335,3138,3290,2999,2972,3049,3086,3164,2963,3395,3387,3235,3290,2950,3280,3309,3031,0.010004889,1.679921575,1.680821352,0.453785598278,4500.0,0.420588374138,-0.0013193449704,-0.0331972427666,149.387588501,0.0,6000.0,-0.00185649259947,-0.00275948783383,0.0,0.0,0.349065840244,0.0216827709228,-0.00142645277083,0.308599114418,-0.00940786395222,-0.00940786395222,-0.00186116411351,0.01323957555,114.37940979,114.37940979,0.902368426323,62.8996810913,2011,2009,2557,2038,2038,2937,3426,3428,3248,3366,3093,3046,3155,3144,3239,2858,3411,3418,3255,3369,3143,3354,3389,3194
1508404608360105911,169,1508404608359748059,plot_matl,0.25,-4000.0,0.233781576157,-0.0217083077878,-0.0162184275687,-70.2660522461,0.349065840244,0.0715225115418,-0.00184216967318,0.23382088542,-0.000728687620722,-0.000728687620722,-0.00304818619043,-0.0225001405925,-87.4488220215,-87.4488220215,-58.3998031616,88.2989120483,2021,2053,2127,2025,2025,2669,3309,3335,3138,3290,2999,2972,3049,3086,3164,2962,3394,3388,3236,3291,2951,3278,3308,3029,0.010005918,1.689927508,1.691000142,0.453785598278,4500.0,0.420588374138,2.04026696338e-06,-0.0331972427666,149.387588501,0.0,6000.0,-0.00184279913083,0.0103740440682,0.0,0.0,0.349065840244,0.0216827709228,-0.00137375527993,0.308463603258,-0.00864772498608,-0.00864772498608,-0.00294896261767,-0.0457682721317,114.660430908,114.660430908,0.884304404259,62.7872581482,2026,2030,2556,2038,2038,2937,3426,3428,3248,3366,3093,3046,3155,3144,3239,2858,3411,3418,3256,3370,3143,3353,3389,3196
1508404608370187690,170,1508404608369778283,plot_matl,0.25,-4000.0,0.233778595924,0.0162706971169,-0.0162214096636,-60.885887146,0.349065840244,0.0715225115418,-0.00184216967318,0.23382088542,-0.000728687620722,-0.000728687620722,-0.00304818619043,-0.0225001405925,-87.4488220215,-87.4488220215,-58.3998031616,88.2989120483,2024,2057,2127,2026,2026,2670,3308,3335,3138,3287,3002,2971,3049,3086,3164,2962,3394,3388,3236,3291,2951,3278,3308,3029,0.010030147,1.699958003,1.70512499,0.453785598278,4500.0,0.420588374138,1.67468044765e-06,-0.0331972427666,149.387588501,0.0,6000.0,-0.00184453267138,0.0104255611077,0.0,0.0,0.349065840244,0.0216827709228,-0.00137375527993,0.308463603258,-0.00864772498608,-0.00864772498608,-0.00294896261767,-0.0457682721317,114.660430908,114.660430908,0.884304404259,62.7872581482,2033,2028,2556,2039,2039,2937,3429,3429,3246,3366,3093,3048,3154,3144,3239,2858,3411,3418,3256,3370,3143,3353,3389,3196
1508404608380034799,171,1508404608379750587,plot_matl,0.25,-4000.0,0.233688309789,-0.0197963565588,-0.016311686486,-69.7426605225,0.349065840244,0.0715225115418,-0.00184216967318,0.23382088542,-0.000728687620722,-0.000728687620722,-0.00304818619043,-0.0225001405925,-87.4488220215,-87.4488220215,-58.3998031616,88.2989120483,2001,2039,2127,2026,2026,2670,3308,3335,3138,3287,3002,2971,3049,3086,3166,2962,3394,3390,3234,3291,2953,3279,3309,3029,0.009971819,1.709930247,1.705181049,0.453785598278,4500.0,0.420588374138,-0.00104610831477,-0.0331972427666,149.387588501,0.0,6000.0,-0.00183692737482,-0.00315360166132,0.0,0.0,0.349065840244,0.0216827709228,-0.00137375527993,0.308463603258,-0.00864772498608,-0.00864772498608,-0.00294896261767,-0.0457682721317,114.660430908,114.660430908,0.884304404259,62.7872581482,2007,2015,2556,2039,2039,2937,3429,3429,3246,3366,3093,3048,3154,3144,3238,2859,3410,3421,3253,3369,3144,3352,3389,3196
1508404608390084675,172,1508404608389754956,plot_matl,0.25,-4000.0,0.23375274241,0.0168669652194,-0.0162472501397,-60.9179649353,0.349065840244,0.0715225115418,-0.00184216967318,0.23382088542,-0.000728687620722,-0.000728687620722,-0.00304818619043,-0.0225001405925,-87.4488220215,-87.4488220215,-58.3998031616,88.2989120483,2025,2077,2128,2024,2024,2670,3311,3338,3137,3289,3000,2971,3049,3086,3166,2962,3394,3390,3234,3291,2953,3279,3309,3030,0.010004257,1.719934812,1.720732204,0.453785598278,4500.0,0.420588374138,-0.00142052327283,-0.0331972427666,149.387588501,0.0,6000.0,-0.00183006050065,-0.00331560894847,0.0,0.0,0.349065840244,0.0216827709228,-0.00137375527993,0.308463603258,-0.00864772498608,-0.00864772498608,-0.00294896261767,-0.0457682721317,114.660430908,114.660430908,0.884304404259,62.7872581482,2023,2032,2557,2037,2037,2938,3430,3427,3246,3364,3093,3048,3154,3144,3238,2859,3410,3421,3253,3369,3144,3352,3389,3193
1508404608400042270,173,1508404608399779020,plot_matl,0.25,-4000.0,0.233800277114,-0.0219699367881,-0.0161997228861,-69.86302948,0.349065840244,0.0715225115418,-0.0018396936357,0.233739718795,-0.000473156047519,-0.000473156047519,-0.00310975383036,0.017110414803,-87.4412078857,-87.4412078857,-58.4287071228,88.8022384644,2025,2082,2128,2024,2024,2670,3311,3338,3137,3289,3000,2972,3049,3086,3165,2962,3394,3388,3236,3292,2952,3279,3309,3030,0.010023512,1.729958764,1.734067576,0.453785598278,4500.0,0.420588374138,-0.000654272327665,-0.0331972427666,149.387588501,0.0,6000.0,-0.00184599123895,-0.00297557190061,0.0,0.0,0.349065840244,0.0216827709228,-0.00136726698838,0.308405667543,-0.00844143424183,-0.00844143424183,-0.00308268005028,0.0172409936786,114.832366943,114.832366943,0.71160453558,62.7453918457,2027,2033,2557,2037,2037,2938,3430,3427,3246,3364,3093,3048,3155,3143,3237,2858,3410,3420,3255,3372,3144,3352,3389,3193
1508404608409894565,174,1508404608409738438,plot_matl,0.25,-4000.0,0.233809351921,0.0157364420593,-0.0161906406283,-60.9040908813,0.349065840244,0.0715225115418,-0.0018396936357,0.233739718795,-0.000473156047519,-0.000473156047519,-0.00310975383036,0.017110414803,-87.4412078857,-87.4412078857,-58.4287071228,88.8022384644,1989,2043,2126,2027,2027,2669,3309,3335,3138,3289,3000,2972,3049,3086,3165,2962,3394,3388,3236,3292,2952,3278,3310,3031,0.009958003,1.739917436,1.732692522,0.453785598278,4500.0,0.421937853098,0.0272788703442,-0.0318477600813,143.314926147,0.0,6000.0,-0.00184844678733,0.0104946205392,0.0,0.0,0.349065840244,0.0216827709228,-0.00136726698838,0.308405667543,-0.00844143424183,-0.00844143424183,-0.00308268005028,0.0172409936786,114.832366943,114.832366943,0.71160453558,62.7453918457,2004,2008,2557,2040,2040,2937,3427,3427,3247,3364,3093,3048,3155,3143,3237,2858,3410,3420,3255,3372,3144,3355,3389,3195
1508404608420160413,175,1508404608419769581,plot_matl,0.25,-4000.0,0.233822911978,0.0154972886667,-0.0161770824343,-60.9760246277,0.349065840244,0.0715225115418,-0.0018396936357,0.233739718795,-0.000473156047519,-0.000473156047519,-0.00310975383036,0.017110414803,-87.4412078857,-87.4412078857,-58.4287071228,88.8022384644,2018,2052,2126,2027,2027,2669,3309,3335,3138,3288,2999,2973,3047,3085,3163,2963,3394,3391,3234,3292,2952,3278,3310,3031,0.01003302,1.749949732,1.7557785,0.453785598278,4500.0,0.420588374138,3.74245501007e-05,-0.0331972427666,149.387588501,0.0,6000.0,-0.00183847313747,0.0102832978591,0.0,0.0,0.349065840244,0.0216827709228,-0.00136726698838,0.308405667543,-0.00844143424183,-0.00844143424183,-0.00308268005028,0.0172409936786,114.832366943,114.832366943,0.71160453558,62.7453918457,2023,2024,2557,2040,2040,2937,3427,3427,3247,3367,3092,3047,3154,3144,3238,2858,3411,3419,3256,3372,3144,3355,3389,3195
1508404608429907653,176,1508404608429742858,plot_matl,0.25,-4000.0,0.233787834644,-0.0217284727842,-0.016212169081,-70.1353683472,0.349065840244,0.0715225115418,-0.0018396936357,0.233739718795,-0.000473156047519,-0.000473156047519,-0.00310975383036,0.017110414803,-87.4412078857,-87.4412078857,-58.4287071228,88.8022384644,2033,2062,2126,2024,2024,2671,3308,3335,3138,3288,2999,2973,3047,3085,3163,2963,3394,3391,3234,3288,2952,3279,3307,3029,0.009970731,1.759922125,1.754848656,0.453785598278,4500.0,0.420588374138,0.00103882863186,-0.0331972427666,149.387588501,0.0,6000.0,-0.00186666229274,-0.00256307329983,0.0,0.0,0.349065840244,0.0216827709228,-0.00136726698838,0.308405667543,-0.00844143424183,-0.00844143424183,-0.00308268005028,0.0172409936786,114.832366943,114.832366943,0.71160453558,62.7453918457,2028,2025,2556,2037,2037,2938,3427,3427,3247,3367,3092,3047,3154,3144,3238,2858,3411,3419,3256,3370,3142,3353,3390,3192
1508404608439929658,177,1508404608439735396,plot_matl,0.25,-4000.0,0.233897656202,0.0139614138752,-0.016102341935,-61.3662223816,0.349065840244,0.0715225115418,-0.0018533419352,0.233824491501,0.00028938811738,0.00028938811738,-0.00283246487379,-0.0224161632359,-87.4472961426,-87.4472961426,-58.4295349121,89.1307525635,1998,2030,2126,2024,2024,2671,3308,3337,3137,3289,2999,2971,3047,3086,3165,2963,3396,3391,3234,3288,2952,3279,3307,3029,0.009992015,1.769914225,1.768586655,0.453785598278,4500.0,0.420588374138,0.0022925962694,-0.0331972427666,149.387588501,0.0,6000.0,-0.00186424574349,-0.00259463582188,0.0,0.0,0.349065840244,0.0216827709228,-0.00131783634424,0.308592766523,-0.00959816854447,-0.00959816854447,-0.00406996719539,-0.0483127981424,114.985092163,114.985092163,0.751444518566,62.7581558228,2008,2005,2556,2037,2037,2938,3427,3427,3248,3368,3093,3047,3153,3145,3240,2859,3410,3419,3256,3370,3142,3353,3390,3192
1508404608449948640,178,1508404608449780553,plot_matl,0.25,-4000.0,0.233956739306,0.012784557417,-0.0160432569683,-61.3413772583,0.349065840244,0.0715225115418,-0.0018533419352,0.233824491501,0.00028938811738,0.00028938811738,-0.00283246487379,-0.0224161632359,-87.4472961426,-87.4472961426,-58.4295349121,89.1307525635,2015,2062,2128,2026,2026,2671,3308,3337,3137,3289,2999,2971,3047,3086,3165,2963,3396,3388,3236,3290,2951,3278,3306,3029,0.010044392,1.779959035,1.787901776,0.453785598278,4500.0,0.419238895178,-0.0253214798868,-0.0345467217267,155.460250854,0.0,6000.0,-0.00186379614752,0.0107984989882,0.0,0.0,0.349065840244,0.0216827709228,-0.00131783634424,0.308592766523,-0.00959816854447,-0.00959816854447,-0.00406996719539,-0.0483127981424,114.985092163,114.985092163,0.751444518566,62.7581558228,2021,2023,2557,2037,2037,2938,3427,3427,3248,3368,3093,3047,3153,3145,3240,2859,3410,3420,3255,3370,3143,3354,3389,3196
1508404608460104566,179,1508404608459750343,plot_matl,0.25,-4000.0,0.233956739306,0.012784557417,-0.0160432569683,-61.3413772583,0.349065840244,0.0715225115418,-0.0018533419352,0.233824491501,0.00028938811738,0.00028938811738,-0.00283246487379,-0.0224161632359,-87.4472961426,-87.4472961426,-58.4295349121,89.1307525635,2026,2059,2128,2026,2026,2672,3308,3338,3138,3289,3000,2970,3049,3085,3166,2963,3396,3388,3236,3290,2951,3278,3306,3029,0.009971184,1.789929626,1.784841936,0.453785598278,4500.0,0.419238895178,-0.0253214798868,-0.0345467217267,155.460250854,0.0,6000.0,-0.0018526193453,-0.00285019772127,0.0,0.0,0.349065840244,0.0216827709228,-0.00131783634424,0.308592766523,-0.00959816854447,-0.00959816854447,-0.00406996719539,-0.0483127981424,114.985092163,114.985092163,0.751444518566,62.7581558228,2033,2027,2557,2037,2037,2937,3426,3428,3249,3368,3092,3048,3156,3146,3238,2859,3410,3420,3255,3370,3143,3354,3389,3196
1508404608470154218,180,1508404608469767055,plot_matl,0.25,-4000.0,0.233921661973,0.0134781310335,-0.0160783398896,-61.0865287781,0.349065840244,0.0715225115418,-0.0018533419352,0.233824491501,0.00028938811738,0.00028938811738,-0.00283246487379,-0.0224161632359,-87.4472961426,-87.4472961426,-58.4295349121,89.1307525635,2017,2042,2127,2026,2026,2672,3308,3338,3138,3289,3000,2970,3049,3085,3166,2963,3397,3390,3234,3289,2952,3279,3306,3028,0.010017765,1.79994691,1.8031977,0.453785598278,4500.0,0.420588374138,0.00176026148256,-0.0331972427666,149.387588501,0.0,6000.0,-0.00184212450404,-0.00305728428066,0.0,0.0,0.349065840244,0.0216827709228,-0.00131783634424,0.308592766523,-0.00959816854447,-0.00959816854447,-0.00406996719539,-0.0483127981424,114.985092163,114.985092163,0.751444518566,62.7581558228,2026,2017,2557,2037,2037,2937,3426,3428,3249,3368,3092,3048,3156,3146,3238,2858,3412,3419,3256,3371,3142,3354,3389,3195
1508404608480134879,181,1508404608479780014,plot_matl,0.25,-4000.0,0.233802884817,0.0158834420145,-0.0161971170455,-60.9629135132,0.349065840244,0.0715225115418,-0.00185407081153,0.233930125833,0.000693674373906,0.000693674373906,-0.00281989667565,-0.024615097791,-87.2190093994,-87.2190093994,-58.5089416504,88.909324646,2046,2073,2127,2025,2025,2672,3308,3335,3139,3289,2999,2970,3050,3085,3166,2963,3397,3390,3234,3289,2952,3279,3306,3028,0.010011549,1.809959507,1.812090369,0.453785598278,4500.0,0.420588374138,0.00191966444254,-0.0331972427666,149.387588501,0.0,6000.0,-0.00184288166929,0.0103871729225,0.0,0.0,0.349065840244,0.0240919683129,-0.00128882494755,0.308959543705,0.0151677271351,0.0151677271351,-0.00465256394818,0.00608663167804,115.018562317,115.018562317,0.944554746151,62.8100585938,2045,2039,2557,2036,2036,2939,3427,3426,3247,3367,3091,3048,3154,3146,3238,2858,3412,3419,3256,3371,3142,3354,3389,3195
1508404608490166419,182,1508404608489785655,plot_matl,0.25,-4000.0,0.233905941248,0.0137576106936,-0.0160940531641,-61.2298355103,0.349065840244,0.0715225115418,-0.00185407081153,0.233930125833,0.000693674373906,0.000693674373906,-0.00281989667565,-0.024615097791,-87.2190093994,-87.2190093994,-58.5089416504,88.909324646,2041,2077,2127,2025,2025,2672,3308,3335,3139,3289,2999,2970,3050,3087,3165,2962,3394,3388,3232,3289,2952,3279,3310,3028,0.010005016,1.819965184,1.820912912,0.453785598278,4500.0,0.420588374138,0.00157420313917,-0.0331972427666,149.387588501,0.0,6000.0,-0.00185753323603,-0.00272746174596,0.0,0.0,0.349065840244,0.0240919683129,-0.00128882494755,0.308959543705,0.0151677271351,0.0151677271351,-0.00465256394818,0.00608663167804,115.018562317,115.018562317,0.944554746151,62.8100585938,2041,2040,2557,2036,2036,2939,3427,3426,3247,3367,3091,3048,3154,3144,3240,2859,3412,3418,3255,3370,3140,3355,3390,3195
1508404608500240723,183,1508404608499764847,plot_matl,0.25,-4000.0,0.23393188417,0.0132334316149,-0.0160681176931,-61.1173858643,0.349065840244,0.0715225115418,-0.00185407081153,0.233930125833,0.000693674373906,0.000693674373906,-0.00281989667565,-0.024615097791,-87.2190093994,-87.2190093994,-58.5089416504,88.909324646,2030,2068,2127,2022,2022,2672,3309,3335,3136,3290,3001,2970,3050,3087,3165,2962,3394,3388,3232,3289,2952,3279,3310,3029,0.009980315,1.829944927,1.826397645,0.453785598278,4500.0,0.421937853098,0.0284838415682,-0.0318477600813,143.314926147,0.0,6000.0,-0.00184617075138,-0.00295070046559,0.0,0.0,0.349065840244,0.0240919683129,-0.00128882494755,0.308959543705,0.0151677271351,0.0151677271351,-0.00465256394818,0.00608663167804,115.018562317,115.018562317,0.944554746151,62.8100585938,2025,2033,2557,2035,2035,2938,3426,3428,3249,3366,3093,3048,3154,3144,3240,2859,3412,3418,3255,3370,3140,3355,3390,3196
1508404608510280610,184,1508404608509816378,plot_matl,0.25,-4000.0,0.233985379338,0.0121954437345,-0.0160146225244,-60.9225578308,0.349065840244,0.0715225115418,-0.00185407081153,0.233930125833,0.000693674373906,0.000693674373906,-0.00281989667565,-0.024615097791,-87.2190093994,-87.2190093994,-58.5089416504,88.909324646,2053,2089,2127,2022,2022,2672,3309,3335,3136,3290,3001,2971,3050,3088,3164,2961,3393,3387,3235,3291,2951,3279,3310,3029,0.010052022,1.839996468,1.849572048,0.453785598278,4500.0,0.419238895178,-0.0251384153962,-0.0345467217267,155.460250854,0.0,6000.0,-0.00186165503692,-0.00264933356084,0.0,0.0,0.349065840244,0.0240919683129,-0.00128882494755,0.308959543705,0.0151677271351,0.0151677271351,-0.00465256394818,0.00608663167804,115.018562317,115.018562317,0.944554746151,62.8100585938,2048,2054,2557,2035,2035,2938,3426,3428,3249,3366,3093,3047,3157,3145,3239,2858,3410,3420,3254,3372,3143,3355,3390,3196
1508404608520072001,185,1508404608519757428,plot_matl,0.25,-4000.0,0.233985379338,0.0121954437345,-0.0160146225244,-60.9225578308,0.349065840244,0.0715225115418,-0.00186037819367,0.23396062851,0.000551392964553,0.000551392964553,-0.00266595440917,0.0126585345715,-87.2166137695,-87.2166137695,-58.7083473206,89.0366973877,2053,2089,2127,2022,2022,2672,3309,3335,3136,3290,3001,2971,3050,3088,3164,2961,3393,3387,3235,3291,2951,3279,3310,3029,0.00993863,1.849937052,1.83864655,0.453785598278,4500.0,0.419238895178,-0.0251384153962,-0.0345467217267,155.460250854,0.0,6000.0,-0.00186165503692,-0.00264933356084,0.0,0.0,0.349065840244,0.0240919683129,-0.00131906720344,0.308831274509,0.0148615194485,0.0148615194485,-0.00405030231923,0.00869662873447,114.875717163,114.875717163,0.870895385742,62.7897605896,2048,2054,2557,2035,2035,2938,3426,3428,3249,3366,3093,3047,3157,3145,3239,2858,3410,3420,3254,3372,3143,3355,3390,3196
1508404608530226651,186,1508404608529828247,plot_matl,0.25,-4000.0,0.234040275216,-0.026768265292,-0.0159597210586,-70.1626586914,0.349065840244,0.0715225115418,-0.00186037819367,0.23396062851,0.000551392964553,0.000551392964553,-0.00266595440917,0.0126585345715,-87.2166137695,-87.2166137695,-58.7083473206,89.0366973877,2021,2046,2126,2024,2024,2671,3319,3348,3147,3290,3001,2971,3050,3088,3164,2961,3393,3387,3235,3291,2951,3279,3308,3031,0.010070339,1.86000751,1.873083054,0.453785598278,4500.0,0.420588374138,-0.000122003810247,-0.0331972427666,149.387588501,0.0,6000.0,-0.00187397527043,-0.00242433627136,0.0,0.0,0.349065840244,0.0240919683129,-0.00131906720344,0.308831274509,0.0148615194485,0.0148615194485,-0.00405030231923,0.00869662873447,114.875717163,114.875717163,0.870895385742,62.7897605896,2039,2030,2556,2037,2037,2938,3437,3440,3255,3366,3093,3047,3157,3145,3239,2858,3410,3420,3254,3372,3143,3353,3390,3195
1508404608540078629,187,1508404608539781796,plot_matl,0.25,-4000.0,0.233963042498,-0.0252544339746,-0.0160369500518,-70.2446594238,0.349065840244,0.0715225115418,-0.00186037819367,0.23396062851,0.000551392964553,0.000551392964553,-0.00266595440917,0.0126585345715,-87.2166137695,-87.2166137695,-58.7083473206,89.0366973877,2026,2056,2126,2024,2024,2671,3319,3348,3147,3290,3006,2977,3053,3090,3169,2967,3399,3390,3236,3291,2951,3279,3308,3031,0.00995328,1.869961455,1.86126336,0.453785598278,4500.0,0.420588374138,-9.98844843707e-05,-0.0331972427666,149.387588501,0.0,6000.0,-0.00187123182695,-0.00248198839836,0.0,0.0,0.349065840244,0.0240919683129,-0.00131906720344,0.308831274509,0.0148615194485,0.0148615194485,-0.00405030231923,0.00869662873447,114.875717163,114.875717163,0.870895385742,62.7897605896,2032,2030,2556,2037,2037,2938,3437,3440,3255,3366,3096,3052,3159,3150,3241,2861,3414,3421,3260,3373,3143,3353,3390,3195
1508404608550001297,188,1508404608549753976,plot_matl,0.25,-4000.0,0.233976498246,0.0124050844461,-0.0160234980285,-61.1266136169,0.349065840244,0.0715225115418,-0.00186037819367,0.23396062851,0.000551392964553,0.000551392964553,-0.00266595440917,0.0126585345715,-87.2166137695,-87.2166137695,-58.7083473206,89.0366973877,2035,2069,2126,2023,2023,2672,3311,3336,3147,3290,3006,2977,3053,3090,3169,2967,3399,3390,3236,3291,2952,3282,3312,3033,0.009971351,1.879933202,1.874613988,0.453785598278,4500.0,0.420588374138,-0.00102357799187,-0.0331972427666,149.387588501,0.0,6000.0,-0.00186899024993,0.0109044797719,0.0,0.0,0.349065840244,0.0240919683129,-0.00131906720344,0.308831274509,0.0148615194485,0.0148615194485,-0.00405030231923,0.00869662873447,114.875717163,114.875717163,0.870895385742,62.7897605896,2031,2033,2556,2037,2037,2939,3430,3431,3255,3366,3096,3052,3159,3150,3241,2861,3414,3421,3260,3373,3144,3356,3391,3195
1508404608560265019,189,1508404608559782018,plot_matl,0.25,-4000.0,0.233945995569,0.012958586216,-0.0160540044308,-61.2800178528,0.349065840244,0.0715225115418,-0.00187145115342,0.233988583088,-0.000501665170304,-0.000501665170304,-0.00246865605004,0.0121596967801,-87.2859191895,-87.2859191895,-58.662815094,88.7812728882,2004,2052,2126,2023,2023,2672,3311,3336,3140,3290,3003,2972,3048,3088,3167,2962,3396,3389,3236,3291,2952,3282,3312,3033,0.010028623,1.889961592,1.895409747,0.453785598278,4500.0,0.420588374138,-0.00083741574781,-0.0331972427666,149.387588501,0.0,6000.0,-0.00185436371248,-0.00281531619839,0.0,0.0,0.349065840244,0.0240919683129,-0.00133064039983,0.309100300074,0.0157566480339,0.0157566480339,-0.00384797295555,0.00337094930001,114.733215332,114.733215332,1.19022452831,62.2844009399,2017,2018,2556,2037,2037,2939,3430,3431,3249,3369,3093,3049,3155,3146,3239,2859,3410,3421,3260,3373,3144,3356,3391,3195
1508404608570158336,190,1508404608569764523,plot_matl,0.25,-4000.0,0.233889892697,-0.0238395091146,-0.0161101073027,-70.1522521973,0.349065840244,0.0715225115418,-0.00187145115342,0.233988583088,-0.000501665170304,-0.000501665170304,-0.00246865605004,0.0121596967801,-87.2859191895,-87.2859191895,-58.662815094,88.7812728882,2023,2062,2126,2025,2025,2672,3311,3336,3140,3290,3003,2972,3048,3088,3167,2962,3396,3389,3235,3291,2953,3278,3309,3029,0.009981492,1.899943957,1.89648348,0.453785598278,4500.0,0.420588374138,-0.00117661105469,-0.0331972427666,149.387588501,0.0,6000.0,-0.00184236117639,-0.0030560400337,0.0,0.0,0.349065840244,0.0240919683129,-0.00133064039983,0.309100300074,0.0157566480339,0.0157566480339,-0.00384797295555,0.00337094930001,114.733215332,114.733215332,1.19022452831,62.2844009399,2023,2023,2556,2037,2037,2938,3430,3431,3249,3369,3093,3049,3155,3146,3239,2859,3410,3421,3256,3370,3142,3354,3390,3196
1508404608580317556,191,1508404608579830198,plot_matl,0.25,-4000.0,0.233877852559,-0.0235772747546,-0.0161221399903,-70.1243896484,0.349065840244,0.0715225115418,-0.00187145115342,0.233988583088,-0.000501665170304,-0.000501665170304,-0.00246865605004,0.0121596967801,-87.2859191895,-87.2859191895,-58.662815094,88.7812728882,2010,2048,2126,2025,2025,2672,3308,3336,3138,3289,3003,2971,3049,3088,3166,2960,3396,3389,3235,3291,2953,3278,3309,3029,0.01006633,1.910009682,1.92266903,0.453785598278,4500.0,0.421937853098,0.0262561365962,-0.0318477600813,143.314926147,0.0,6000.0,-0.00183285784442,0.0101878149435,0.0,0.0,0.349065840244,0.0240919683129,-0.00133064039983,0.309100300074,0.0157566480339,0.0157566480339,-0.00384797295555,0.00337094930001,114.733215332,114.733215332,1.19022452831,62.2844009399,2019,2015,2556,2037,2037,2938,3428,3427,3249,3365,3094,3047,3155,3145,3238,2858,3410,3421,3256,3370,3142,3354,3390,3196
