%time,field.header.seq,field.header.stamp,field.header.frame_id,field.FFJ4_set_point,field.FFJ4_position_gain,field.FFJ4_process_value,field.FFJ4_process_value_dot,field.FFJ4_error,field.FFJ4_command,field.FFJ1,field.FFJ2,field.FFJ3,field.FFJ4,field.FFJ1_dot,field.FFJ2_dot,field.FFJ3_dot,field.FFJ4_dot,field.FFJ1_tao,field.FFJ2_tao,field.FFJ3_tao,field.FFJ4_tao,field.pac0,field.pac1,field.pdc0,field.tac0,field.tdc0,field.el0,field.el1,field.el2,field.el3,field.el4,field.el5,field.el6,field.el7,field.el8,field.el9,field.el10,field.el11,field.el12,field.el13,field.el14,field.el15,field.el16,field.el17,field.el18,field.dt,field.time,field.test_time2,field.FFJ0_set_point,field.FFJ0_position_gain,field.FFJ0_process_value,field.FFJ0_process_value_dot,field.FFJ0_error,field.FFJ0_command,field.FFJ3_set_point,field.FFJ3_position_gain,field.FFJ3_process_value,field.FFJ3_process_value_dot,field.FFJ3_error,field.FFJ3_command,field.MFJ1,field.MFJ2,field.MFJ3,field.MFJ4,field.MFJ1_dot,field.MFJ2_dot,field.MFJ3_dot,field.MFJ4_dot,field.MFJ1_tao,field.MFJ2_tao,field.MFJ3_tao,field.MFJ4_tao,field.Mpac0,field.Mpac1,field.Mpdc0,field.Mtac0,field.Mtdc0,field.Mel0,field.Mel1,field.Mel2,field.Mel3,field.Mel4,field.Mel5,field.Mel6,field.Mel7,field.Mel8,field.Mel9,field.Mel10,field.Mel11,field.Mel12,field.Mel13,field.Mel14,field.Mel15,field.Mel16,field.Mel17,field.Mel18
1508403588976440394,113,1508403588976160306,plot_matl,0.25,-2000.0,0.209857150912,-0.0311596989632,-0.040142852813,-87.7476730347,0.349065840244,0.0202422197908,-0.0106277838349,0.209914699197,0.00975662190467,0.00975662190467,-7.24615092622e-05,-0.0323349311948,-94.4114227295,-94.4114227295,-0.413745731115,105.5390625,2011,2043,2135,2027,2027,2643,3296,3328,3129,3281,2991,2959,3038,3083,3160,2981,3399,3391,3241,3291,2955,3271,3302,3027,0.009965176,1.130021397,1.126064888,0.401425719261,4500.0,0.367958575487,-0.00782170984894,-0.0334671400487,150.602127075,0.0,6000.0,-0.0106502389535,0.000281776447082,-0.0106502389535,63.7878875732,0.349065840244,0.0216827709228,-0.0294095147401,0.306057095528,-0.0218090415001,-0.0218090415001,-0.00432729767635,-0.0589691139758,156.961334229,156.961334229,-247.033340454,-63.4027290344,2014,2014,2635,2041,2041,3061,3441,3439,3295,3376,3122,2998,3141,3086,3217,2696,3372,3393,3217,3350,3115,3338,3380,3190
1508403588986281957,114,1508403588986140997,plot_matl,0.25,-2000.0,0.209814921021,0.00759379798546,-0.040185071528,-78.5342330933,0.349065840244,0.0202422197908,-0.0106277838349,0.209914699197,0.00975662190467,0.00975662190467,-7.24615092622e-05,-0.0323349311948,-94.4114227295,-94.4114227295,-0.413745731115,105.5390625,2010,2050,2135,2027,2027,2643,3296,3328,3127,3280,2994,2959,3037,3083,3158,2980,3397,3389,3241,3291,2955,3271,3302,3027,0.009979237,1.140001467,1.137633018,0.401425719261,4500.0,0.367958575487,-0.00883639324456,-0.0334671400487,150.602127075,0.0,6000.0,-0.0106593314558,0.000488384685013,-0.0106593314558,63.7854652405,0.349065840244,0.0216827709228,-0.0294095147401,0.306057095528,-0.0218090415001,-0.0218090415001,-0.00432729767635,-0.0589691139758,156.961334229,156.961334229,-247.033340454,-63.4027290344,2019,2027,2635,2041,2041,3061,3441,3439,3291,3375,3120,2997,3141,3085,3218,2696,3373,3394,3217,3350,3115,3338,3380,3190
1508403588996294903,115,1508403588996136105,plot_matl,0.25,-2000.0,0.209814921021,0.00759379798546,-0.040185071528,-78.5342330933,0.349065840244,0.0202422197908,-0.0106277838349,0.209914699197,0.00975662190467,0.00975662190467,-7.24615092622e-05,-0.0323349311948,-94.4114227295,-94.4114227295,-0.413745731115,105.5390625,2018,2057,2135,2027,2027,2642,3296,3328,3127,3280,2994,2959,3037,3083,3158,2980,3397,3389,3241,3288,2957,3272,3301,3026,0.009995229,1.1499965,1.149451335,0.401425719261,4500.0,0.367958575487,-0.00883639324456,-0.0334671400487,150.602127075,0.0,6000.0,-0.0106542631984,0.000399615470087,-0.0106542631984,63.7916107178,0.349065840244,0.0216827709228,-0.0294095147401,0.306057095528,-0.0218090415001,-0.0218090415001,-0.00432729767635,-0.0589691139758,156.961334229,156.961334229,-247.033340454,-63.4027290344,2025,2032,2635,2043,2043,3057,3441,3439,3291,3375,3120,2997,3141,3085,3218,2696,3373,3394,3220,3350,3116,3339,3380,3190
1508403589006321953,116,1508403589006140990,plot_matl,0.25,-2000.0,0.209800094366,0.00786327198148,-0.0401999019086,-78.4990844727,0.349065840244,0.0202422197908,-0.0106547102332,0.209741383791,0.00916495267302,0.00916495267302,0.000407436949899,0.00905659701675,-94.2203674316,-94.2203674316,-0.898315250874,105.470581055,2025,2061,2135,2027,2027,2642,3298,3325,3130,3279,2991,2962,3036,3084,3159,2982,3397,3389,3241,3288,2957,3272,3301,3026,0.010004856,1.160001483,1.160563296,0.401425719261,4500.0,0.367958575487,-0.00760345859453,-0.0334671400487,150.602127075,0.0,6000.0,-0.0106501225382,0.000327087065671,-0.0106501225382,63.7869911194,0.349065840244,0.0216827709228,-0.0294629652053,0.306303143501,-0.0220266357064,-0.0220266357064,-0.00326596596278,-0.00204157829285,156.530319214,156.530319214,-247.267044067,-63.4125022888,2032,2032,2635,2043,2043,3057,3441,3441,3293,3376,3122,2999,3141,3086,3217,2697,3373,3394,3220,3350,3116,3339,3380,3190
1508403589016316547,117,1508403589016160851,plot_matl,0.25,-2000.0,0.209703549743,0.00981199834496,-0.0402964539826,-78.2836608887,0.349065840244,0.0202422197908,-0.0106547102332,0.209741383791,0.00916495267302,0.00916495267302,0.000407436949899,0.00905659701675,-94.2203674316,-94.2203674316,-0.898315250874,105.470581055,2036,2068,2134,2028,2028,2642,3298,3325,3130,3279,2991,2962,3036,3084,3159,2982,3396,3391,3244,3291,2957,3272,3301,3026,0.01001998,1.170021568,1.17233766,0.401425719261,4500.0,0.367958575487,-0.00629325397313,-0.0334671400487,150.602127075,0.0,6000.0,-0.0106573756784,0.000486757751787,-0.0106573756784,63.7904586792,0.349065840244,0.0216827709228,-0.0294629652053,0.306303143501,-0.0220266357064,-0.0220266357064,-0.00326596596278,-0.00204157829285,156.530319214,156.530319214,-247.267044067,-63.4125022888,2034,2028,2634,2037,2037,3057,3441,3441,3293,3376,3122,2999,3141,3086,3217,2697,3373,3393,3218,3352,3115,3340,3383,3190
1508403589026321106,118,1508403589026157600,plot_matl,0.25,-2000.0,0.209757447243,0.00876371748745,-0.0402425527573,-78.3952713013,0.349065840244,0.0202422197908,-0.0106547102332,0.209741383791,0.00916495267302,0.00916495267302,0.000407436949899,0.00905659701675,-94.2203674316,-94.2203674316,-0.898315250874,105.470581055,2038,2063,2134,2028,2028,2641,3298,3325,3129,3281,2992,2959,3037,3084,3159,2982,3396,3391,3244,3291,2957,3272,3301,3026,0.009996107,1.180018168,1.179540626,0.401425719261,4500.0,0.37065756321,0.0482534430921,-0.0307681746781,138.456787109,0.0,6000.0,-0.0106395669281,0.0135562913492,-0.0106395669281,59.7772674561,0.349065840244,0.0216827709228,-0.0294629652053,0.306303143501,-0.0220266357064,-0.0220266357064,-0.00326596596278,-0.00204157829285,156.530319214,156.530319214,-247.267044067,-63.4125022888,2036,2032,2634,2037,2037,3058,3442,3438,3295,3377,3123,2998,3141,3087,3217,2697,3373,3393,3218,3352,3115,3340,3383,3190
1508403589036361378,119,1508403589036137383,plot_matl,0.25,-2000.0,0.209697797894,0.00990344025195,-0.0403021946549,-78.3109893799,0.349065840244,0.0202422197908,-0.0106547102332,0.209741383791,0.00916495267302,0.00916495267302,0.000407436949899,0.00905659701675,-94.2203674316,-94.2203674316,-0.898315250874,105.470581055,2030,2066,2134,2028,2028,2641,3298,3325,3129,3281,2992,2959,3037,3084,3158,2983,3399,3390,3244,3289,2956,3273,3306,3024,0.009980132,1.189998008,1.187635708,0.401425719261,4500.0,0.369308084249,0.0215979944915,-0.0321176573634,144.529449463,0.0,6000.0,-0.0106380926445,0.000108371837996,-0.0106380926445,63.7898635864,0.349065840244,0.0216827709228,-0.0294629652053,0.306303143501,-0.0220266357064,-0.0220266357064,-0.00326596596278,-0.00204157829285,156.530319214,156.530319214,-247.267044067,-63.4125022888,2033,2030,2634,2037,2037,3058,3442,3438,3295,3377,3123,2998,3141,3087,3216,2698,3374,3391,3221,3352,3115,3339,3382,3191
1508403589046569444,120,1508403589046165919,plot_matl,0.25,-2000.0,0.209751680493,-0.0290712546557,-0.0402483232319,-87.1382904053,0.349065840244,0.0188927389681,-0.0106382220984,0.20968824625,-0.00261676660739,-0.00261676660739,0.00011047503358,-0.0278013721108,-94.3397064209,-94.3397064209,-0.433181703091,105.312133789,2020,2052,2134,2032,2032,2641,3298,3327,3126,3282,2992,2960,3037,3084,3158,2983,3399,3390,3244,3289,2956,3273,3306,3024,0.010030529,1.20002769,1.20366348,0.401425719261,4500.0,0.367958575487,-0.00555592915043,-0.0334671400487,150.602127075,0.0,6000.0,-0.0106243435293,0.0132521847263,-0.0106243435293,59.9513816833,0.349065840244,0.0216827709228,-0.0294553991407,0.306224554777,-0.0211383029819,-0.0211383029819,0.0119472034276,-0.0624302700162,156.904525757,156.904525757,-246.886444092,-63.3652458191,2021,2021,2635,2037,2037,3058,3443,3441,3291,3376,3121,2998,3141,3087,3216,2698,3374,3391,3221,3352,3115,3339,3382,3191
1508403589056491997,121,1508403589056158366,plot_matl,0.25,-2000.0,0.209724798799,-0.028564684093,-0.040275208652,-88.1197662354,0.349065840244,0.0188927389681,-0.0106382220984,0.20968824625,-0.00261676660739,-0.00261676660739,0.00011047503358,-0.0278013721108,-94.3397064209,-94.3397064209,-0.433181703091,105.312133789,2028,2048,2134,2032,2032,2641,3298,3327,3126,3282,2992,2960,3038,3084,3160,2982,3396,3391,3245,3289,2956,3271,3306,3024,0.009990668,1.21001956,1.208870828,0.401425719261,4500.0,0.367958575487,-0.00502863014117,-0.0334671400487,150.602127075,0.0,6000.0,-0.0106131993234,-0.000392138637835,-0.0106131993234,63.8015327454,0.349065840244,0.0216827709228,-0.0294553991407,0.306224554777,-0.0211383029819,-0.0211383029819,0.0119472034276,-0.0624302700162,156.904525757,156.904525757,-246.886444092,-63.3652458191,2022,2020,2635,2037,2037,3058,3443,3441,3291,3376,3121,2998,3140,3086,3216,2697,3371,3393,3219,3349,3115,3339,3382,3191
1508403589066472039,122,1508403589066172748,plot_matl,0.25,-2000.0,0.209740251303,0.00898314919323,-0.0402597486973,-78.2720108032,0.349065840244,0.0188927389681,-0.0106382220984,0.20968824625,-0.00261676660739,-0.00261676660739,0.00011047503358,-0.0278013721108,-94.3397064209,-94.3397064209,-0.433181703091,105.312133789,2045,2067,2134,2036,2036,2639,3297,3327,3128,3279,2992,2960,3038,3084,3160,2982,3396,3391,3245,3289,2956,3271,3306,3025,0.010014633,1.220033956,1.221785226,0.401425719261,4500.0,0.369308084249,0.0215345919132,-0.0321176573634,144.529449463,0.0,6000.0,-0.0106183737516,-0.000290137977572,-0.0106183737516,63.7918701172,0.349065840244,0.0216827709228,-0.0294553991407,0.306224554777,-0.0211383029819,-0.0211383029819,0.0119472034276,-0.0624302700162,156.904525757,156.904525757,-246.886444092,-63.3652458191,2041,2038,2635,2038,2038,3057,3440,3438,3294,3375,3121,2998,3140,3086,3216,2697,3371,3393,3219,3349,3115,3339,3382,3191
1508403589076530347,123,1508403589076161075,plot_matl,0.25,-2000.0,0.209720686078,0.00934895407408,-0.0402793064713,-78.4687271118,0.349065840244,0.0188927389681,-0.0106382220984,0.20968824625,-0.00261676660739,-0.00261676660739,0.00011047503358,-0.0278013721108,-94.3397064209,-94.3397064209,-0.433181703091,105.312133789,2011,2052,2134,2036,2036,2639,3297,3327,3128,3279,2993,2959,3038,3084,3157,2983,3396,3392,3246,3290,2956,3271,3306,3025,0.009988583,1.230022623,1.228595709,0.401425719261,4500.0,0.369308084249,0.0205197241157,-0.0321176573634,144.529449463,0.0,6000.0,-0.0106334388256,1.49037350639e-05,-0.0106334388256,63.7895507812,0.349065840244,0.0216827709228,-0.0294553991407,0.306224554777,-0.0211383029819,-0.0211383029819,0.0119472034276,-0.0624302700162,156.904525757,156.904525757,-246.886444092,-63.3652458191,2020,2023,2635,2038,2038,3057,3440,3438,3294,3375,3122,2998,3141,3086,3217,2698,3372,3393,3220,3350,3115,3339,3382,3191
1508403589086432854,124,1508403589086161071,plot_matl,0.25,-2000.0,0.209737122059,-0.0288066640496,-0.0402628853917,-86.8992996216,0.349065840244,0.0188927389681,-0.0106334751472,0.2097119838,-0.00316942273639,-0.00316942273639,1.51801577886e-05,-0.0283586215228,-94.193862915,-94.193862915,-0.0344263650477,105.012435913,2025,2064,2133,2035,2035,2638,3295,3326,3128,3279,2993,2959,3038,3084,3157,2983,3396,3392,3246,3290,2956,3273,3305,3027,0.009998734,1.2400223,1.239843016,0.401425719261,4500.0,0.366609096527,-0.0332674458623,-0.0348166190088,156.674789429,0.0,6000.0,-0.0106330774724,1.22016253954e-05,-0.0106330774724,63.7893409729,0.349065840244,0.0240919683129,-0.0294712856412,0.306167662144,0.00261873356067,0.00261873356067,0.0123037323356,0.000529481680132,157.240402222,157.240402222,-247.293731689,-63.4788856506,2019,2022,2635,2041,2041,3058,3441,3440,3294,3375,3122,2998,3141,3086,3217,2698,3372,3393,3220,3350,3117,3339,3382,3192
1508403589096290987,125,1508403589096142334,plot_matl,0.25,-2000.0,0.209820181131,0.0074466955848,-0.0401798114181,-78.6112136841,0.349065840244,0.0188927389681,-0.0106334751472,0.2097119838,-0.00316942273639,-0.00316942273639,1.51801577886e-05,-0.0283586215228,-94.193862915,-94.193862915,-0.0344263650477,105.012435913,2038,2085,2133,2035,2035,2638,3295,3326,3127,3279,2992,2961,3038,3081,3160,2984,3398,3391,3246,3290,2956,3273,3305,3027,0.009979614,1.250002844,1.24745175,0.401425719261,4500.0,0.367958575487,-0.00695047806948,-0.0334671400487,150.602127075,0.0,6000.0,-0.0106327813119,9.9832759588e-06,-0.0106327813119,63.7888069153,0.349065840244,0.0240919683129,-0.0294712856412,0.306167662144,0.00261873356067,0.00261873356067,0.0123037323356,0.000529481680132,157.240402222,157.240402222,-247.293731689,-63.4788856506,2046,2053,2635,2041,2041,3058,3441,3440,3294,3378,3121,2998,3143,3086,3216,2699,3372,3393,3220,3350,3117,3339,3382,3192
1508403589106449701,126,1508403589106150578,plot_matl,0.25,-2000.0,0.209859460592,0.00666683167219,-0.0401405356824,-78.6665267944,0.349065840244,0.0188927389681,-0.0106334751472,0.2097119838,-0.00316942273639,-0.00316942273639,1.51801577886e-05,-0.0283586215228,-94.193862915,-94.193862915,-0.0344263650477,105.012435913,2012,2069,2133,2031,2031,2637,3295,3326,3127,3279,2992,2961,3038,3081,3160,2984,3398,3391,3242,3290,2957,3273,3303,3025,0.010008572,1.260011341,1.261080072,0.401425719261,4500.0,0.367958575487,-0.00620416691527,-0.0334671400487,150.602127075,0.0,6000.0,-0.0106325400993,8.17591626401e-06,-0.0106325400993,63.7885704041,0.349065840244,0.0240919683129,-0.0294712856412,0.306167662144,0.00261873356067,0.00261873356067,0.0123037323356,0.000529481680132,157.240402222,157.240402222,-247.293731689,-63.4788856506,2024,2038,2635,2043,2043,3056,3441,3440,3294,3378,3121,2998,3143,3086,3216,2699,3372,3393,3222,3350,3116,3339,3380,3188
1508403589116546861,127,1508403589116175679,plot_matl,0.25,-2000.0,0.209921479225,0.0433231890202,-0.0400785170496,-69.660987854,0.349065840244,0.0188927389681,-0.0106334751472,0.2097119838,-0.00316942273639,-0.00316942273639,1.51801577886e-05,-0.0283586215228,-94.193862915,-94.193862915,-0.0344263650477,105.012435913,2031,2083,2133,2031,2031,2637,3297,3328,3129,3282,2992,2960,3037,3084,3158,2983,3398,3391,3242,3290,2957,3273,3303,3025,0.010025131,1.270036798,1.273191637,0.401425719261,4500.0,0.367958575487,-0.0055428892374,-0.0334671400487,150.602127075,0.0,6000.0,-0.0106201823801,-0.000240299748839,-0.0106201823801,63.789981842,0.349065840244,0.0240919683129,-0.0294712856412,0.306167662144,0.00261873356067,0.00261873356067,0.0123037323356,0.000529481680132,157.240402222,157.240402222,-247.293731689,-63.4788856506,2033,2047,2635,2043,2043,3056,3441,3440,3292,3376,3123,2998,3142,3086,3217,2700,3372,3393,3222,3350,3116,3339,3380,3188
1508403589126363896,128,1508403589126154479,plot_matl,0.25,-2000.0,0.209934979677,0.00507651502267,-0.0400650203228,-78.8465881348,0.349065840244,0.0188927389681,-0.0106199532747,0.209877744317,-0.00282793981023,-0.00282793981023,-0.000245198199991,0.00629108538851,-94.3384094238,-94.3384094238,-0.381591498852,105.168785095,2033,2081,2133,2031,2031,2637,3297,3328,3129,3282,2992,2960,3037,3084,3158,2983,3397,3391,3241,3290,2958,3271,3303,3024,0.009978004,1.280015368,1.277184512,0.401425719261,4500.0,0.369308084249,0.0211777258664,-0.0321176573634,144.529449463,0.0,6000.0,-0.010622240603,-0.000196394961677,-0.010622240603,63.7913169861,0.349065840244,0.0240919683129,-0.0294532421976,0.306232213974,0.00466225016862,0.00466225016862,0.0119316326454,-0.000789730576798,157.242538452,157.242538452,-246.867401123,-63.2686500549,2036,2051,2634,2039,2039,3056,3441,3440,3292,3376,3123,2998,3142,3086,3217,2700,3373,3393,3220,3350,3114,3341,3379,3189
1508403589136443234,129,1508403589136167483,plot_matl,0.25,-2000.0,0.209934979677,0.00507651502267,-0.0400650203228,-78.8465881348,0.349065840244,0.0188927389681,-0.0106199532747,0.209877744317,-0.00282793981023,-0.00282793981023,-0.000245198199991,0.00629108538851,-94.3384094238,-94.3384094238,-0.381591498852,105.168785095,2033,2081,2133,2031,2031,2637,3297,3328,3129,3282,2992,2960,3037,3084,3158,2983,3397,3391,3241,3290,2958,3271,3303,3024,0.010014071,1.290029078,1.291815159,0.401425719261,4500.0,0.369308084249,0.0211777258664,-0.0321176573634,144.529449463,0.0,6000.0,-0.010622240603,-0.000196394961677,-0.010622240603,63.7913169861,0.349065840244,0.0240919683129,-0.0294532421976,0.306232213974,0.00466225016862,0.00466225016862,0.0119316326454,-0.000789730576798,157.242538452,157.242538452,-246.867401123,-63.2686500549,2036,2051,2634,2039,2039,3056,3441,3440,3292,3376,3123,2998,3142,3086,3217,2700,3373,3393,3220,3350,3114,3341,3379,3189
1508403589146685039,130,1508403589146205377,plot_matl,0.25,-2000.0,0.209934979677,0.00507651502267,-0.0400650203228,-78.8465881348,0.349065840244,0.0188927389681,-0.0106199532747,0.209877744317,-0.00282793981023,-0.00282793981023,-0.000245198199991,0.00629108538851,-94.3384094238,-94.3384094238,-0.381591498852,105.168785095,2024,2054,2133,2031,2031,2637,3297,3327,3128,3281,2993,2961,3037,3083,3158,2983,3397,3391,3241,3290,2958,3271,3303,3024,0.010037519,1.300066998,1.30487747,0.401425719261,4500.0,0.369308084249,0.0211777258664,-0.0321176573634,144.529449463,0.0,6000.0,-0.010622240603,-0.000196394961677,-0.010622240603,63.7913169861,0.349065840244,0.0240919683129,-0.0294532421976,0.306232213974,0.00466225016862,0.00466225016862,0.0119316326454,-0.000789730576798,157.242538452,157.242538452,-246.867401123,-63.2686500549,2021,2023,2634,2039,2039,3055,3441,3442,3292,3375,3121,2999,3141,3086,3217,2700,3373,3393,3220,3350,3114,3341,3379,3189
1508403589156822590,131,1508403589156231566,plot_matl,0.25,-2000.0,0.210014984012,0.00595658505335,-0.0399850085378,-78.7873916626,0.349065840244,0.0188927389681,-0.0106199532747,0.209877744317,-0.00282793981023,-0.00282793981023,-0.000245198199991,0.00629108538851,-94.3384094238,-94.3384094238,-0.381591498852,105.168785095,2030,2061,2133,2031,2031,2637,3297,3327,3128,3281,2993,2961,3037,3083,3179,2999,3416,3406,3266,3313,2974,3293,3319,3042,0.010026574,1.310093166,1.313481194,0.401425719261,4500.0,0.369308084249,0.0187295321375,-0.0321176573634,144.529449463,0.0,6000.0,-0.0106153422967,-0.00103199947625,-0.0106153422967,63.8279418945,0.349065840244,0.0240919683129,-0.0294532421976,0.306232213974,0.00466225016862,0.00466225016862,0.0119316326454,-0.000789730576798,157.242538452,157.242538452,-246.867401123,-63.2686500549,2025,2030,2634,2039,2039,3055,3441,3442,3292,3375,3121,2999,3141,3086,3238,2713,3388,3408,3243,3370,3132,3356,3398,3206
1508403589166730411,132,1508403589166240655,plot_matl,0.25,-2000.0,0.210003778338,0.00567065831274,-0.0399962179363,-79.0987472534,0.349065840244,0.0175432581455,-0.0106162782758,0.210059419274,-0.0178928934038,-0.0178928934038,-0.000972057750914,-0.0329981856048,-94.078704834,-94.078704834,0.350695937872,104.785926819,2025,2065,2134,2032,2032,2649,3307,3336,3135,3288,2998,2968,3037,3083,3179,2999,3416,3406,3266,3313,2974,3293,3319,3042,0.010007721,1.320101983,1.321019172,0.401425719261,4500.0,0.367958575487,-0.00792795140296,-0.0334671400487,150.602127075,0.0,6000.0,-0.0106182685122,-0.000844523077831,-0.0106182685122,63.7885894775,0.349065840244,0.0216827709228,-0.0293155964464,0.306704849005,-0.0190203059465,-0.0190203059465,-0.00460875919089,-0.00673210201785,157.377944946,157.377944946,-246.644210815,-63.7588844299,2023,2031,2634,2039,2039,3068,3450,3449,3299,3383,3126,3004,3141,3086,3238,2713,3388,3408,3243,3370,3132,3356,3398,3206
1508403589176604543,133,1508403589176178642,plot_matl,0.25,-2000.0,0.21000687778,0.00527372350916,-0.0399931184947,-79.0911407471,0.349065840244,0.0175432581455,-0.0106162782758,0.210059419274,-0.0178928934038,-0.0178928934038,-0.000972057750914,-0.0329981856048,-94.078704834,-94.078704834,0.350695937872,104.785926819,2029,2045,2134,2032,2032,2649,3307,3336,3135,3288,2998,2968,3043,3088,3163,2984,3400,3393,3247,3293,2959,3276,3319,3042,0.009936214,1.330039508,1.321516462,0.401425719261,4500.0,0.367958575487,-0.00741859944537,-0.0334671400487,150.602127075,0.0,6000.0,-0.010631701909,-0.000472396728583,-0.010631701909,63.7886581421,0.349065840244,0.0216827709228,-0.0293155964464,0.306704849005,-0.0190203059465,-0.0190203059465,-0.00460875919089,-0.00673210201785,157.377944946,157.377944946,-246.644210815,-63.7588844299,2027,2025,2634,2039,2039,3068,3450,3449,3299,3383,3126,3004,3148,3093,3223,2700,3377,3397,3223,3355,3117,3342,3398,3206
1508403589186831888,134,1508403589186228505,plot_matl,0.25,-2000.0,0.209967195988,0.00574009260163,-0.0400328040123,-78.9934005737,0.349065840244,0.0175432581455,-0.0106162782758,0.210059419274,-0.0178928934038,-0.0178928934038,-0.000972057750914,-0.0329981856048,-94.078704834,-94.078704834,0.350695937872,104.785926819,2004,2037,2133,2032,2032,2644,3302,3328,3129,3284,2998,2968,3043,3088,3163,2984,3400,3393,3247,3293,2959,3276,3309,3028,0.010051946,1.340090171,1.346960764,0.401425719261,4500.0,0.369308084249,0.0187292341143,-0.0321176573634,144.529449463,0.0,6000.0,-0.0106316553429,-0.000386317929951,-0.0106316553429,63.7886810303,0.349065840244,0.0216827709228,-0.0293155964464,0.306704849005,-0.0190203059465,-0.0190203059465,-0.00460875919089,-0.00673210201785,157.377944946,157.377944946,-246.644210815,-63.7588844299,2018,2018,2634,2036,2036,3059,3446,3442,3294,3379,3126,3004,3148,3093,3223,2700,3377,3397,3223,3355,3117,3342,3385,3191
1508403589196630448,135,1508403589196168243,plot_matl,0.25,-2000.0,0.209906861186,0.00673625804484,-0.0400931313634,-78.8653030396,0.349065840244,0.0175432581455,-0.0106162782758,0.210059419274,-0.0178928934038,-0.0178928934038,-0.000972057750914,-0.0329981856048,-94.078704834,-94.078704834,0.350695937872,104.785926819,2004,2037,2133,2032,2032,2644,3302,3328,3129,3284,2998,2968,3043,3088,3163,2984,3400,3393,3247,3293,2959,3276,3309,3028,0.009938554,1.350029873,1.34170479,0.401425719261,4500.0,0.367958575487,-0.00852199178189,-0.0334671400487,150.602127075,0.0,6000.0,-0.01063161809,-0.000316738674883,-0.01063161809,63.7887115479,0.349065840244,0.0216827709228,-0.0293155964464,0.306704849005,-0.0190203059465,-0.0190203059465,-0.00460875919089,-0.00673210201785,157.377944946,157.377944946,-246.644210815,-63.7588844299,2018,2018,2634,2036,2036,3059,3446,3442,3294,3379,3126,3004,3148,3093,3223,2700,3377,3397,3223,3355,3117,3342,3385,3191
1508403589206650477,136,1508403589206165099,plot_matl,0.25,-2000.0,0.209959596395,-0.0325494520366,-0.0400404073298,-87.8612365723,0.349065840244,0.0188927389681,-0.0106316078454,0.209923550487,-0.0045430730097,-0.0045430730097,-0.000298085535178,0.00633955141529,-94.0609512329,-94.0609512329,0.376674592495,104.955764771,1998,2045,2133,2032,2032,2644,3302,3328,3129,3284,2993,2961,3040,3082,3161,2981,3399,3391,3243,3292,2959,3276,3309,3028,0.00999609,1.36002655,1.35946824,0.401425719261,4500.0,0.366609096527,-0.0339501984417,-0.0348166190088,156.674789429,0.0,6000.0,-0.0106315640733,-0.000217273380258,-0.0106315640733,63.7886924744,0.349065840244,0.0216827709228,-0.0293923374265,0.306248664856,-0.0196619387716,-0.0196619387716,-0.00394024886191,0.000337192264851,157.16734314,157.16734314,-246.542236328,-62.2965965271,2012,2022,2634,2036,2036,3059,3446,3442,3294,3379,3123,2999,3142,3086,3220,2698,3372,3395,3221,3350,3117,3342,3385,3191
1508403589216492651,137,1508403589216164222,plot_matl,0.25,-2000.0,0.20993180573,0.0058118859306,-0.0400681979954,-78.8001251221,0.349065840244,0.0188927389681,-0.0106316078454,0.209923550487,-0.0045430730097,-0.0045430730097,-0.000298085535178,0.00633955141529,-94.0609512329,-94.0609512329,0.376674592495,104.955764771,2001,2037,2134,2031,2031,2649,3306,3336,3129,3284,2993,2961,3040,3082,3161,2981,3399,3391,3243,3292,2975,3292,3320,3043,0.009998696,1.370025807,1.369821352,0.401425719261,4500.0,0.369308084249,0.0207336880267,-0.0321176573634,144.529449463,0.0,6000.0,-0.0106192920357,-0.000435034686234,-0.0106192920357,63.7943305969,0.349065840244,0.0216827709228,-0.0293923374265,0.306248664856,-0.0196619387716,-0.0196619387716,-0.00394024886191,0.000337192264851,157.16734314,157.16734314,-246.542236328,-62.2965965271,2015,2015,2634,2036,2036,3066,3450,3450,3294,3379,3123,2999,3142,3086,3220,2698,3372,3395,3221,3350,3133,3356,3397,3207
1508403589226544964,138,1508403589226146385,plot_matl,0.25,-2000.0,0.209881141782,0.00673797540367,-0.0401188619435,-78.7062530518,0.349065840244,0.0188927389681,-0.0106316078454,0.209923550487,-0.0045430730097,-0.0045430730097,-0.000298085535178,0.00633955141529,-94.0609512329,-94.0609512329,0.376674592495,104.955764771,2014,2049,2134,2031,2031,2649,3306,3336,3136,3288,2997,2967,3043,3087,3163,2987,3401,3394,3243,3292,2975,3292,3320,3043,0.009980034,1.380007243,1.377244692,0.401425719261,4500.0,0.369308084249,0.0208926424384,-0.0321176573634,144.529449463,0.0,6000.0,-0.0106214769185,-0.000356825708877,-0.0106214769185,63.7906188965,0.349065840244,0.0216827709228,-0.0293923374265,0.306248664856,-0.0196619387716,-0.0196619387716,-0.00394024886191,0.000337192264851,157.16734314,157.16734314,-246.542236328,-62.2965965271,2025,2027,2634,2036,2036,3066,3450,3450,3301,3383,3127,3003,3147,3092,3221,2702,3377,3397,3221,3350,3133,3356,3397,3207
1508403589236353433,139,1508403589236151606,plot_matl,0.25,-2000.0,0.209937363863,0.00551206571981,-0.0400626324117,-78.8945770264,0.349065840244,0.0188927389681,-0.0106316078454,0.209923550487,-0.0045430730097,-0.0045430730097,-0.000298085535178,0.00633955141529,-94.0609512329,-94.0609512329,0.376674592495,104.955764771,2015,2037,2134,2032,2032,2641,3306,3336,3136,3288,2997,2967,3043,3087,3163,2987,3401,3394,3249,3295,2959,3277,3309,3029,0.010005513,1.390012389,1.390766307,0.401425719261,4500.0,0.369308084249,0.0214600488544,-0.0321176573634,144.529449463,0.0,6000.0,-0.0106235733256,-0.00030187232187,-0.0106235733256,63.789352417,0.349065840244,0.0216827709228,-0.0293923374265,0.306248664856,-0.0196619387716,-0.0196619387716,-0.00394024886191,0.000337192264851,157.16734314,157.16734314,-246.542236328,-62.2965965271,2022,2016,2635,2041,2041,3059,3450,3450,3301,3383,3127,3003,3147,3092,3221,2702,3377,3397,3222,3354,3118,3345,3386,3194
1508403589246412855,140,1508403589246144194,plot_matl,0.25,-2000.0,0.209983170033,0.00451343692839,-0.0400168262422,-78.9833755493,0.349065840244,0.0175432581455,-0.0106222452596,0.209904968739,-0.0162975527346,-0.0162975527346,-0.000329318165313,0.00621854746714,-94.1576385498,-94.1576385498,0.287241876125,105.086105347,2006,2036,2134,2032,2032,2641,3299,3330,3129,3285,2994,2962,3039,3084,3160,2983,3401,3394,3249,3295,2959,3277,3309,3029,0.009992589,1.400005039,1.39896246,0.401425719261,4500.0,0.369308084249,0.0205621048808,-0.0321176573634,144.529449463,0.0,6000.0,-0.0106235733256,-0.00030187232187,-0.0106235733256,63.789352417,0.349065840244,0.0240919683129,-0.0293792895973,0.306130856276,0.00257548480295,0.00257548480295,0.0106899896637,0.00202587340027,157.357131958,157.357131958,-247.228652954,-61.5946006775,2010,2013,2635,2041,2041,3059,3445,3442,3295,3377,3125,2999,3143,3088,3217,2700,3377,3397,3222,3354,3118,3345,3386,3194
1508403589256289752,141,1508403589256135193,plot_matl,0.25,-2000.0,0.209983170033,0.00451343692839,-0.0400168262422,-78.9833755493,0.349065840244,0.0175432581455,-0.0106222452596,0.209904968739,-0.0162975527346,-0.0162975527346,-0.000329318165313,0.00621854746714,-94.1576385498,-94.1576385498,0.287241876125,105.086105347,2006,2036,2134,2032,2032,2641,3299,3330,3129,3285,2994,2962,3039,3084,3160,2983,3401,3394,3249,3295,2959,3277,3309,3029,0.009989688,1.409995636,1.408546008,0.401425719261,4500.0,0.369308084249,0.0205621048808,-0.0321176573634,144.529449463,0.0,6000.0,-0.0106250001118,-0.000247181655141,-0.0106250001118,63.7908859253,0.349065840244,0.0240919683129,-0.0293792895973,0.306130856276,0.00257548480295,0.00257548480295,0.0106899896637,0.00202587340027,157.357131958,157.357131958,-247.228652954,-61.5946006775,2010,2013,2635,2041,2041,3059,3445,3442,3295,3377,3125,2999,3143,3088,3217,2700,3377,3397,3222,3354,3118,3345,3386,3194
1508403589266247327,142,1508403589266132893,plot_matl,0.25,-2000.0,0.210125505924,-0.000233241415117,-0.0398744866252,-79.436706543,0.349065840244,0.0175432581455,-0.0106222452596,0.209904968739,-0.0162975527346,-0.0162975527346,-0.000329318165313,0.00621854746714,-94.1576385498,-94.1576385498,0.287241876125,105.086105347,2004,2050,2134,2026,2026,2641,3299,3330,3129,3285,2994,2962,3039,3084,3160,2983,3399,3394,3243,3292,2959,3272,3303,3025,0.009996759,1.419992905,1.419539778,0.401425719261,4500.0,0.367958575487,-0.00789207685739,-0.0334671400487,150.602127075,0.0,6000.0,-0.0106269596145,-0.0001720564469,-0.0106269596145,63.7888412476,0.349065840244,0.0240919683129,-0.0293792895973,0.306130856276,0.00257548480295,0.00257548480295,0.0106899896637,0.00202587340027,157.357131958,157.357131958,-247.228652954,-61.5946006775,2016,2024,2635,2041,2041,3059,3445,3442,3295,3377,3125,2999,3143,3088,3217,2700,3373,3394,3219,3351,3117,3340,3383,3190
1508403589276513437,143,1508403589276150529,plot_matl,0.25,-2000.0,0.210101753473,0.000529936107341,-0.0398982465267,-79.3685836792,0.349065840244,0.0175432581455,-0.0106222452596,0.209904968739,-0.0162975527346,-0.0162975527346,-0.000329318165313,0.00621854746714,-94.1576385498,-94.1576385498,0.287241876125,105.086105347,2009,2045,2134,2026,2026,2652,3311,3342,3140,3292,3001,2969,3047,3091,3160,2983,3399,3394,3243,3292,2959,3272,3303,3025,0.010019233,1.430011478,1.432750319,0.401425719261,4500.0,0.369308084249,0.0202338751405,-0.0321176573634,144.529449463,0.0,6000.0,-0.0106277735904,-0.000140856514918,-0.0106277735904,63.788860321,0.349065840244,0.0240919683129,-0.0293792895973,0.306130856276,0.00257548480295,0.00257548480295,0.0106899896637,0.00202587340027,157.357131958,157.357131958,-247.228652954,-61.5946006775,2019,2018,2635,2041,2041,3071,3453,3455,3307,3388,3131,3008,3149,3093,3217,2700,3373,3394,3219,3351,3117,3340,3383,3190
1508403589286556688,144,1508403589286173518,plot_matl,0.25,-2000.0,0.210050076246,0.00179351505358,-0.0399499237537,-78.5666351318,0.349065840244,0.0188927389681,-0.0106274662539,0.210132822394,-0.003514776472,-0.003514776472,-0.000152609718498,-0.000206879223697,-93.6822814941,-93.6822814941,0.212952211499,105.984008789,2013,2052,2134,2026,2026,2652,3311,3342,3140,3292,3001,2969,3047,3091,3166,2987,3404,3396,3251,3296,2962,3276,3308,3029,0.010022672,1.440034674,1.443264768,0.401425719261,4500.0,0.367958575487,-0.00575349200517,-0.0334671400487,150.602127075,0.0,6000.0,-0.0106284432113,-0.000115157628898,-0.0106284432113,63.806388855,0.349065840244,0.0240919683129,-0.0294412560761,0.305885761976,0.00217089778744,0.00217089778744,-0.00354012590833,0.00637805927545,157.284988403,157.284988403,-247.321716309,-61.6351013184,2019,2018,2635,2041,2041,3071,3453,3455,3307,3388,3131,3008,3149,3093,3224,2703,3379,3401,3224,3356,3122,3342,3387,3193
1508403589296348358,145,1508403589296156178,plot_matl,0.25,-2000.0,0.210050076246,0.00179351505358,-0.0399499237537,-78.5666351318,0.349065840244,0.0188927389681,-0.0106274662539,0.210132822394,-0.003514776472,-0.003514776472,-0.000152609718498,-0.000206879223697,-93.6822814941,-93.6822814941,0.212952211499,105.984008789,2016,2062,2134,2031,2031,2652,3298,3331,3131,3284,2993,2963,3040,3091,3166,2987,3404,3396,3251,3296,2962,3276,3308,3029,0.009980745,1.450016314,1.447208025,0.401425719261,4500.0,0.367958575487,-0.00575349200517,-0.0334671400487,150.602127075,0.0,6000.0,-0.0106284432113,-0.000115157628898,-0.0106284432113,63.806388855,0.349065840244,0.0240919683129,-0.0294412560761,0.305885761976,0.00217089778744,0.00217089778744,-0.00354012590833,0.00637805927545,157.284988403,157.284988403,-247.321716309,-61.6351013184,2021,2032,2635,2038,2038,3071,3444,3442,3296,3377,3126,2999,3143,3093,3224,2703,3379,3401,3224,3356,3122,3342,3387,3193
1508403589306321184,146,1508403589306141874,plot_matl,0.25,-2000.0,0.210114359856,0.000128721309011,-0.0398856401443,-79.1659317017,0.349065840244,0.0188927389681,-0.0106274662539,0.210132822394,-0.003514776472,-0.003514776472,-0.000152609718498,-0.000206879223697,-93.6822814941,-93.6822814941,0.212952211499,105.984008789,2018,2045,2134,2031,2031,2652,3298,3331,3131,3284,2993,2963,3040,3085,3162,2988,3406,3396,3248,3293,2961,3278,3309,3029,0.009986434,1.460002309,1.458019364,0.401425719261,4500.0,0.367958575487,-0.00653191888705,-0.0334671400487,150.602127075,0.0,6000.0,-0.0106290960684,-9.01542734937e-05,-0.0106290960684,63.7980384827,0.349065840244,0.0240919683129,-0.0294412560761,0.305885761976,0.00217089778744,0.00217089778744,-0.00354012590833,0.00637805927545,157.284988403,157.284988403,-247.321716309,-61.6351013184,2025,2020,2635,2038,2038,3071,3444,3442,3296,3377,3126,2999,3143,3087,3217,2701,3380,3399,3225,3357,3120,3345,3386,3193
1508403589316253760,147,1508403589316150479,plot_matl,0.25,-2000.0,0.209991589189,-0.0350558385253,-0.0400084070861,-88.1541595459,0.349065840244,0.0188927389681,-0.0106274662539,0.210132822394,-0.003514776472,-0.003514776472,-0.000152609718498,-0.000206879223697,-93.6822814941,-93.6822814941,0.212952211499,105.984008789,2018,2045,2134,2031,2031,2652,3298,3331,3131,3284,2993,2963,3040,3085,3162,2988,3406,3396,3248,3293,2961,3278,3309,3029,0.010008241,1.470011248,1.471211427,0.401425719261,4500.0,0.367958575487,-0.00686660502106,-0.0334671400487,150.602127075,0.0,6000.0,-0.0106295198202,-7.38828675821e-05,-0.0106295198202,63.7888031006,0.349065840244,0.0240919683129,-0.0294412560761,0.305885761976,0.00217089778744,0.00217089778744,-0.00354012590833,0.00637805927545,157.284988403,157.284988403,-247.321716309,-61.6351013184,2025,2020,2635,2038,2038,3071,3444,3442,3296,3377,3126,2999,3143,3087,3217,2701,3380,3399,3225,3357,3120,3345,3386,3193
1508403589326305870,148,1508403589326137792,plot_matl,0.25,-2000.0,0.209991589189,-0.0350558385253,-0.0400084070861,-88.1541595459,0.349065840244,0.0202422197908,-0.0106412637979,0.209981143475,0.0100594898686,0.0100594898686,0.000421042350354,0.00394786801189,-94.0069580078,-94.0069580078,0.0842043831944,106.248413086,2023,2056,2135,2034,2034,2646,3302,3330,3136,3290,3000,2967,3044,3088,3164,2986,3399,3395,3246,3293,2958,3278,3309,3029,0.009987317,1.47999841,1.478122916,0.401425719261,4500.0,0.367958575487,-0.00805297587067,-0.0334671400487,150.602127075,0.0,6000.0,-0.0106295198202,-7.38828675821e-05,-0.0106295198202,63.7888031006,0.349065840244,0.0240919683129,-0.0294907651842,0.305883228779,0.00341130117886,0.00341130117886,-0.00255796895362,0.00606222264469,157.150787354,157.150787354,-247.015350342,-61.6267967224,2026,2022,2635,2038,2038,3062,3445,3443,3301,3385,3129,3002,3147,3090,3222,2700,3377,3395,3222,3354,3120,3345,3386,3195
1508403589336413252,149,1508403589336154781,plot_matl,0.25,-2000.0,0.209979370236,0.0040251724422,-0.0400206334889,-78.4929962158,0.349065840244,0.0202422197908,-0.0106412637979,0.209981143475,0.0100594898686,0.0100594898686,0.000421042350354,0.00394786801189,-94.0069580078,-94.0069580078,0.0842043831944,106.248413086,2023,2056,2135,2034,2034,2646,3302,3330,3136,3290,3000,2967,3044,3088,3164,2986,3399,3395,3246,3293,2958,3278,3309,3029,0.01001677,1.49001506,1.49249873,0.401425719261,4500.0,0.367958575487,-0.00863123778254,-0.0334671400487,150.602127075,0.0,6000.0,-0.0106284432113,8.52619268699e-05,-0.0106284432113,63.7982368469,0.349065840244,0.0240919683129,-0.0294907651842,0.305883228779,0.00341130117886,0.00341130117886,-0.00255796895362,0.00606222264469,157.150787354,157.150787354,-247.015350342,-61.6267967224,2026,2022,2635,2038,2038,3062,3445,3443,3301,3385,3129,3002,3147,3090,3222,2700,3377,3395,3222,3354,3120,3345,3386,3195
1508403589346525581,150,1508403589346161967,plot_matl,0.25,-2000.0,0.209998294711,0.0416324362159,-0.0400017090142,-69.7623519897,0.349065840244,0.0202422197908,-0.0106412637979,0.209981143475,0.0100594898686,0.0100594898686,0.000421042350354,0.00394786801189,-94.0069580078,-94.0069580078,0.0842043831944,106.248413086,2055,2075,2135,2033,2033,2651,3306,3336,3137,3290,3000,2967,3044,3088,3164,2986,3399,3395,3246,3293,2958,3275,3306,3029,0.010009546,1.500023507,1.5014319,0.401425719261,4500.0,0.367958575487,-0.00759398238733,-0.0334671400487,150.602127075,0.0,6000.0,-0.010629135184,6.56270058244e-05,-0.010629135184,63.7891197205,0.349065840244,0.0240919683129,-0.0294907651842,0.305883228779,0.00341130117886,0.00341130117886,-0.00255796895362,0.00606222264469,157.150787354,157.150787354,-247.015350342,-61.6267967224,2052,2040,2635,2037,2037,3067,3451,3449,3302,3385,3129,3002,3147,3090,3222,2700,3377,3395,3222,3354,3120,3342,3385,3192
1508403589356495205,151,1508403589356161835,plot_matl,0.25,-2000.0,0.209998294711,0.0416324362159,-0.0400017090142,-69.7623519897,0.349065840244,0.0202422197908,-0.0106412637979,0.209981143475,0.0100594898686,0.0100594898686,0.000421042350354,0.00394786801189,-94.0069580078,-94.0069580078,0.0842043831944,106.248413086,2055,2075,2135,2033,2033,2651,3306,3336,3137,3290,3000,2967,3044,3088,3164,2986,3399,3395,3246,3293,2958,3275,3306,3029,0.009999001,1.510023386,1.509849151,0.401425719261,4500.0,0.367958575487,-0.00759398238733,-0.0334671400487,150.602127075,0.0,6000.0,-0.010629135184,6.56270058244e-05,-0.010629135184,63.7891197205,0.349065840244,0.0240919683129,-0.0294907651842,0.305883228779,0.00341130117886,0.00341130117886,-0.00255796895362,0.00606222264469,157.150787354,157.150787354,-247.015350342,-61.6267967224,2052,2040,2635,2037,2037,3067,3451,3449,3302,3385,3129,3002,3147,3090,3222,2700,3377,3395,3222,3354,3120,3342,3385,3192
1508403589366585545,152,1508403589366180707,plot_matl,0.25,-2000.0,0.210165143013,0.0382808074355,-0.0398348644376,-70.4589767456,0.349065840244,0.0188927389681,-0.0106296949089,0.210018128157,-0.00584783125669,-0.00584783125669,4.97438923048e-05,-0.0347284898162,-94.3070373535,-94.3070373535,0.0966865122318,106.927131653,2040,2091,2135,2033,2033,2651,3306,3336,3137,3289,2998,2965,3044,3088,3165,2985,3423,3410,3264,3293,2958,3275,3306,3029,0.010018466,1.520042338,1.522806832,0.401425719261,4500.0,0.367958575487,-0.0129861766472,-0.0334671400487,150.602127075,0.0,6000.0,-0.0106299575418,4.22915218223e-05,-0.0106299575418,63.7887649536,0.349065840244,0.0240919683129,-0.029467895627,0.306727439165,-0.00104215065949,-0.00104215065949,0.0111041171476,-0.00129260518588,157.097198486,157.097198486,-247.753189087,-62.3343315125,2051,2059,2635,2037,2037,3067,3451,3449,3302,3382,3127,3004,3146,3090,3221,2701,3397,3414,3242,3354,3120,3342,3385,3192
1508403589376596358,153,1508403589376219183,plot_matl,0.25,-2000.0,0.210134625435,0.00100970664062,-0.0398653782904,-79.4714202881,0.349065840244,0.0188927389681,-0.0106296949089,0.210018128157,-0.00584783125669,-0.00584783125669,4.97438923048e-05,-0.0347284898162,-94.3070373535,-94.3070373535,0.0966865122318,106.927131653,2067,2095,2133,2033,2033,2648,3307,3336,3137,3289,2998,2965,3044,3088,3165,2985,3423,3410,3264,3310,2974,3289,3318,3042,0.010037399,1.530080228,1.535722047,0.401425719261,4500.0,0.367958575487,-0.0130267255008,-0.0334671400487,150.602127075,0.0,6000.0,-0.010630226694,3.46344568243e-05,-0.010630226694,63.7884788513,0.349065840244,0.0240919683129,-0.029467895627,0.306727439165,-0.00104215065949,-0.00104215065949,0.0111041171476,-0.00129260518588,157.097198486,157.097198486,-247.753189087,-62.3343315125,2066,2062,2635,2040,2040,3065,3450,3449,3302,3382,3127,3004,3146,3090,3221,2701,3397,3414,3242,3372,3132,3357,3397,3203
1508403589386622562,154,1508403589386165035,plot_matl,0.25,-2000.0,0.210140615702,0.000877569138538,-0.0398593842983,-79.4924926758,0.349065840244,0.0188927389681,-0.0106296949089,0.210018128157,-0.00584783125669,-0.00584783125669,4.97438923048e-05,-0.0347284898162,-94.3070373535,-94.3070373535,0.0966865122318,106.927131653,2047,2074,2133,2033,2033,2648,3307,3337,3135,3288,2998,2967,3044,3090,3166,2987,3400,3410,3264,3310,2974,3289,3318,3042,0.009947029,1.540026725,1.531842466,0.401425719261,4500.0,0.367958575487,-0.0125960092992,-0.0334671400487,150.602127075,0.0,6000.0,-0.0106180394068,-0.000218514585868,-0.0106180394068,63.7847366333,0.349065840244,0.0240919683129,-0.029467895627,0.306727439165,-0.00104215065949,-0.00104215065949,0.0111041171476,-0.00129260518588,157.097198486,157.097198486,-247.753189087,-62.3343315125,2053,2048,2635,2040,2040,3065,3450,3450,3299,3383,3126,3004,3147,3093,3223,2703,3376,3414,3242,3372,3132,3357,3397,3203
1508403589396384646,155,1508403589396140811,plot_matl,0.25,-2000.0,0.210140615702,0.000877569138538,-0.0398593842983,-79.4924926758,0.349065840244,0.0188927389681,-0.0106296949089,0.210018128157,-0.00584783125669,-0.00584783125669,4.97438923048e-05,-0.0347284898162,-94.3070373535,-94.3070373535,0.0966865122318,106.927131653,2047,2074,2133,2033,2033,2648,3307,3337,3135,3288,2998,2967,3044,3090,3166,2987,3400,3410,3264,3310,2974,3289,3318,3042,0.009972647,1.550001439,1.545760285,0.401425719261,4500.0,0.367958575487,-0.0125960092992,-0.0334671400487,150.602127075,0.0,6000.0,-0.0106180394068,-0.000218514585868,-0.0106180394068,63.7847366333,0.349065840244,0.0240919683129,-0.029467895627,0.306727439165,-0.00104215065949,-0.00104215065949,0.0111041171476,-0.00129260518588,157.097198486,157.097198486,-247.753189087,-62.3343315125,2053,2048,2635,2040,2040,3065,3450,3450,3299,3383,3126,3004,3147,3093,3223,2703,3376,3414,3242,3372,3132,3357,3397,3203
1508403589406408160,156,1508403589406211085,plot_matl,0.25,-2000.0,0.210118234158,0.00106744712684,-0.0398817658424,-79.42628479,0.349065840244,0.0188927389681,-0.01061909087,0.210141092539,-0.00605872971937,-0.00605872971937,-0.000201375354663,-0.0370386019349,-94.2877502441,-94.2877502441,-0.280348032713,106.985946655,2059,2071,2133,2033,2033,2642,3299,3333,3134,3285,2994,2964,3042,3086,3162,2987,3400,3395,3246,3293,2961,3276,3305,3027,0.010070212,1.560071914,1.570953072,0.401425719261,4500.0,0.367958575487,-0.01277951058,-0.0334671400487,150.602127075,0.0,6000.0,-0.0106405327097,0.000240424749791,-0.0106405327097,63.7899665833,0.349065840244,0.0240919683129,-0.0294347070158,0.306722909212,-0.0016223739367,-0.0016223739367,-0.00437880819663,-0.00614033360034,157.253356934,157.253356934,-247.305740356,-60.8709564209,2053,2045,2633,2037,2037,3060,3446,3448,3299,3380,3126,3002,3145,3090,3222,2703,3376,3398,3223,3356,3119,3343,3386,3192
1508403589416474425,157,1508403589416164093,plot_matl,0.25,-2000.0,0.210099592805,0.00151537114289,-0.0399004109204,-79.3611755371,0.349065840244,0.0188927389681,-0.01061909087,0.210141092539,-0.00605872971937,-0.00605872971937,-0.000201375354663,-0.0370386019349,-94.2877502441,-94.2877502441,-0.280348032713,106.985946655,2041,2076,2133,2033,2033,2642,3299,3333,3134,3285,2994,2964,3042,3086,3162,2984,3399,3392,3244,3291,2957,3276,3306,3025,0.009953317,1.570024609,1.562670769,0.401425719261,4500.0,0.367958575487,-0.0114535568282,-0.0334671400487,150.602127075,0.0,6000.0,-0.0106388842687,0.000196808454348,-0.0106388842687,63.788192749,0.349065840244,0.0240919683129,-0.0294347070158,0.306722909212,-0.0016223739367,-0.0016223739367,-0.00437880819663,-0.00614033360034,157.253356934,157.253356934,-247.305740356,-60.8709564209,2038,2037,2634,2037,2037,3060,3446,3448,3299,3380,3126,3002,3145,3090,3222,2699,3374,3395,3220,3351,3116,3341,3386,3191
1508403589426536293,158,1508403589426174254,plot_matl,0.25,-2000.0,0.210056364536,0.00246111443266,-0.0399436317384,-78.90259552,0.349065840244,0.0188927389681,-0.01061909087,0.210141092539,-0.00605872971937,-0.00605872971937,-0.000201375354663,-0.0370386019349,-94.2877502441,-94.2877502441,-0.280348032713,106.985946655,2041,2076,2133,2033,2033,2642,3299,3333,3134,3285,2994,2964,3042,3086,3162,2984,3399,3392,3244,3291,2957,3276,3306,3025,0.01000964,1.580035301,1.58152312,0.401425719261,4500.0,0.369308084249,0.0153524708003,-0.0321176573634,144.529449463,0.0,6000.0,-0.0106259323657,-7.49604878365e-05,-0.0106259323657,63.8063201904,0.349065840244,0.0240919683129,-0.0294347070158,0.306722909212,-0.0016223739367,-0.0016223739367,-0.00437880819663,-0.00614033360034,157.253356934,157.253356934,-247.305740356,-60.8709564209,2038,2037,2634,2037,2037,3060,3446,3448,3299,3380,3126,3002,3145,3090,3222,2699,3374,3395,3220,3351,3116,3341,3386,3191
1508403589436710761,159,1508403589436234499,plot_matl,0.25,-2000.0,0.209978982806,-0.0338607430458,-0.0400210171938,-88.1182327271,0.349065840244,0.0188927389681,-0.01061909087,0.210141092539,-0.00605872971937,-0.00605872971937,-0.000201375354663,-0.0370386019349,-94.2877502441,-94.2877502441,-0.280348032713,106.985946655,2032,2076,2133,2036,2036,2641,3306,3335,3135,3288,2996,2967,3042,3086,3162,2984,3399,3392,3244,3291,2957,3276,3306,3025,0.010060669,1.590095418,1.599646371,0.401425719261,4500.0,0.367958575487,-0.0102154007182,-0.0334671400487,150.602127075,0.0,6000.0,-0.0106142982841,-0.000316436664434,-0.0106142982841,63.7897377014,0.349065840244,0.0240919683129,-0.0294347070158,0.306722909212,-0.0016223739367,-0.0016223739367,-0.00437880819663,-0.00614033360034,157.253356934,157.253356934,-247.305740356,-60.8709564209,2037,2040,2634,2037,2037,3060,3452,3446,3300,3382,3127,3004,3147,3090,3222,2699,3374,3395,3220,3351,3116,3341,3386,3191
1508403589446626606,160,1508403589446168726,plot_matl,0.25,-2000.0,0.209912270308,-0.0324766822159,-0.0400877296925,-87.9206924438,0.349065840244,0.0188927389681,-0.0106142982841,0.209978982806,-0.00510770035908,-0.00510770035908,-0.000316436664434,-0.0338607430458,-94.3393554688,-94.3393554688,-0.134302571416,106.159698486,2014,2052,2133,2036,2036,2641,3306,3335,3135,3288,2996,2967,3042,3087,3163,2982,3401,3393,3244,3290,2957,3275,3309,3025,0.009936819,1.600031038,1.58989104,0.401425719261,4500.0,0.367958575487,-0.00985278654844,-0.0334671400487,150.602127075,0.0,6000.0,-0.0106283202767,-3.61576567229e-05,-0.0106283202767,63.7888565063,0.349065840244,0.0240919683129,-0.0294579304755,0.306544750929,0.00088161684107,0.00088161684107,0.0118217682466,-0.00520778493956,156.865127563,156.865127563,-246.982910156,-61.0367965698,2024,2028,2634,2037,2037,3060,3452,3446,3300,3382,3127,3004,3147,3091,3221,2699,3376,3395,3219,3351,3117,3341,3384,3191
1508403589456474313,161,1508403589456154914,plot_matl,0.25,-2000.0,0.20996285975,0.00444620056078,-0.0400371477008,-78.9721755981,0.349065840244,0.0188927389681,-0.0106142982841,0.209978982806,-0.00510770035908,-0.00510770035908,-0.000316436664434,-0.0338607430458,-94.3393554688,-94.3393554688,-0.134302571416,106.159698486,2017,2053,2132,2033,2033,2644,3300,3329,3130,3281,2993,2967,3042,3087,3163,2982,3401,3393,3244,3290,2957,3275,3309,3026,0.009983612,1.610016459,1.607361532,0.401425719261,4500.0,0.367958575487,-0.0104118948802,-0.0334671400487,150.602127075,0.0,6000.0,-0.0106167560443,-0.000272261881037,-0.0106167560443,63.78956604,0.349065840244,0.0240919683129,-0.0294579304755,0.306544750929,0.00088161684107,0.00088161684107,0.0118217682466,-0.00520778493956,156.865127563,156.865127563,-246.982910156,-61.0367965698,2024,2022,2633,2038,2038,3061,3444,3441,3293,3378,3123,3004,3147,3091,3221,2699,3376,3395,3219,3351,3117,3341,3384,3194
1508403589466289412,162,1508403589466141892,plot_matl,0.25,-2000.0,0.209962293506,-0.0334683805704,-0.0400377102196,-88.0610427856,0.349065840244,0.0188927389681,-0.0106142982841,0.209978982806,-0.00510770035908,-0.00510770035908,-0.000316436664434,-0.0338607430458,-94.3393554688,-94.3393554688,-0.134302571416,106.159698486,2004,2020,2132,2033,2033,2644,3300,3329,3130,3281,2993,2962,3038,3083,3158,2980,3398,3391,3244,3291,2956,3275,3309,3026,0.009983736,1.62000213,1.617365232,0.401425719261,4500.0,0.367958575487,-0.01041352842,-0.0334671400487,150.602127075,0.0,6000.0,-0.010619411245,-0.000223051683861,-0.010619411245,63.7893333435,0.349065840244,0.0240919683129,-0.0294579304755,0.306544750929,0.00088161684107,0.00088161684107,0.0118217682466,-0.00520778493956,156.865127563,156.865127563,-246.982910156,-61.0367965698,2011,1997,2633,2038,2038,3061,3444,3441,3293,3378,3123,2999,3141,3089,3219,2696,3373,3393,3219,3352,3113,3341,3384,3194
1508403589476555029,163,1508403589476209916,plot_matl,0.25,-2000.0,0.209967404604,0.00437881145626,-0.0400325916708,-79.0363693237,0.349065840244,0.0188927389681,-0.0106142982841,0.209978982806,-0.00510770035908,-0.00510770035908,-0.000316436664434,-0.0338607430458,-94.3393554688,-94.3393554688,-0.134302571416,106.159698486,2000,2036,2133,2029,2029,2642,3299,3329,3129,3282,2991,2961,3039,3083,3161,2980,3396,3390,3243,3291,2956,3272,3305,3025,0.010069762,1.63007096,1.641371206,0.401425719261,4500.0,0.367958575487,-0.0100003108382,-0.0334671400487,150.602127075,0.0,6000.0,-0.0106082968414,-0.000441117677838,-0.0106082968414,63.7834205627,0.349065840244,0.0240919683129,-0.0294579304755,0.306544750929,0.00088161684107,0.00088161684107,0.0118217682466,-0.00520778493956,156.865127563,156.865127563,-246.982910156,-61.0367965698,2010,2010,2634,2039,2039,3059,3442,3440,3293,3377,3123,2998,3141,3088,3217,2695,3374,3394,3219,3352,3113,3340,3382,3189
1508403589486563040,164,1508403589486169303,plot_matl,0.25,-2000.0,0.210076287389,-0.035748757422,-0.0399237200618,-88.6013031006,0.349065840244,0.0188927389681,-0.0106082968414,0.209967404604,-0.00500015541911,-0.00500015541911,-0.000441117677838,0.00437881145626,-94.344329834,-94.344329834,0.0997298359871,105.333030701,2000,2036,2133,2029,2029,2642,3299,3329,3129,3282,2991,2961,3039,3083,3161,2980,3396,3390,3243,3291,2956,3272,3305,3025,0.009959031,1.640030508,1.633281084,0.401425719261,4500.0,0.367958575487,-0.011165519245,-0.0334671400487,150.602127075,0.0,6000.0,-0.0106251807883,-0.00010308570927,-0.0106251807883,63.789981842,0.349065840244,0.0240919683129,-0.0294870380312,0.306569725275,0.00278752949089,0.00278752949089,-0.00282980385236,-0.00679267896339,156.653076172,156.653076172,-246.965148926,-61.4275398254,2010,2010,2634,2039,2039,3059,3442,3440,3293,3377,3123,2998,3141,3088,3217,2695,3374,3394,3219,3352,3113,3340,3382,3189
1508403589496555668,165,1508403589496165508,plot_matl,0.25,-2000.0,0.210198417306,-0.000291390228085,-0.0398015752435,-79.6448898315,0.349065840244,0.0188927389681,-0.0106082968414,0.209967404604,-0.00500015541911,-0.00500015541911,-0.000441117677838,0.00437881145626,-94.344329834,-94.344329834,0.0997298359871,105.333030701,1983,2038,2134,2029,2029,2642,3300,3329,3129,3282,2991,2961,3039,3083,3161,2980,3396,3390,3243,3289,2956,3273,3303,3025,0.009996064,1.650026924,1.64935056,0.401425719261,4500.0,0.369308084249,0.0155681688339,-0.0321176573634,144.529449463,0.0,6000.0,-0.0106263216585,-8.43165908009e-05,-0.0106263216585,63.7904052734,0.349065840244,0.0240919683129,-0.0294870380312,0.306569725275,0.00278752949089,0.00278752949089,-0.00282980385236,-0.00679267896339,156.653076172,156.653076172,-246.965148926,-61.4275398254,1999,2004,2634,2043,2043,3059,3442,3440,3293,3377,3123,2998,3141,3088,3217,2695,3374,3394,3219,3351,3114,3339,3382,3191
1508403589506538262,166,1508403589506155480,plot_matl,0.25,-2000.0,0.210164755583,0.00041988393059,-0.0398352481425,-79.5447998047,0.349065840244,0.0188927389681,-0.0106082968414,0.209967404604,-0.00500015541911,-0.00500015541911,-0.000441117677838,0.00437881145626,-94.344329834,-94.344329834,0.0997298359871,105.333030701,2011,2045,2134,2029,2029,2642,3300,3329,3127,3282,2994,2960,3038,3081,3159,2980,3397,3390,3243,3289,2956,3273,3303,3025,0.009989515,1.660016569,1.65825949,0.401425719261,4500.0,0.369308084249,0.0137357534841,-0.0321176573634,144.529449463,0.0,6000.0,-0.0106158591807,-0.000312916672556,-0.0106158591807,63.7914390564,0.349065840244,0.0240919683129,-0.0294870380312,0.306569725275,0.00278752949089,0.00278752949089,-0.00282980385236,-0.00679267896339,156.653076172,156.653076172,-246.965148926,-61.4275398254,2017,2024,2634,2043,2043,3059,3442,3440,3294,3376,3123,2999,3143,3086,3217,2697,3372,3394,3219,3351,3114,3339,3382,3191
1508403589516436194,167,1508403589516165381,plot_matl,0.25,-2000.0,0.210172176361,0.000288419250865,-0.0398278199136,-79.5672531128,0.349065840244,0.0188927389681,-0.0106082968414,0.209967404604,-0.00500015541911,-0.00500015541911,-0.000441117677838,0.00437881145626,-94.344329834,-94.344329834,0.0997298359871,105.333030701,2012,2052,2134,2026,2026,2642,3300,3329,3127,3282,2994,2960,3038,3081,3159,2980,3397,3390,3243,3289,2955,3274,3305,3026,0.010019029,1.67002649,1.673177843,0.401425719261,4500.0,0.367958575487,-0.0125605668873,-0.0334671400487,150.602127075,0.0,6000.0,-0.0106186820194,-0.000256250728853,-0.0106186820194,63.790397644,0.349065840244,0.0240919683129,-0.0294870380312,0.306569725275,0.00278752949089,0.00278752949089,-0.00282980385236,-0.00679267896339,156.653076172,156.653076172,-246.965148926,-61.4275398254,2011,2015,2635,2040,2040,3059,3442,3440,3294,3376,3123,2999,3143,3086,3217,2697,3372,3391,3218,3350,3114,3338,3382,3190
1508403589526621164,168,1508403589526189484,plot_matl,0.25,-2000.0,0.210144028068,0.000884435838088,-0.0398559756577,-79.476600647,0.349065840244,0.0188927389681,-0.0106186820194,0.210172176361,-0.00628028344363,-0.00628028344363,-0.000256250728853,0.000288419250865,-94.342956543,-94.342956543,-0.220280751586,105.184318542,2016,2054,2134,2026,2026,2642,3296,3326,3127,3280,2995,2965,3043,3086,3162,2980,3397,3390,3243,3289,2955,3274,3305,3026,0.01001463,1.680050955,1.68245784,0.401425719261,4500.0,0.369308084249,0.0167599003762,-0.0321176573634,144.529449463,0.0,6000.0,-0.0106213307008,-0.000203083502129,-0.0106213307008,63.7924499512,0.349065840244,0.0240919683129,-0.0295034814626,0.306545227766,0.00839873403311,0.00839873403311,-0.00244252779521,-0.00683904578909,156.835357666,156.835357666,-247.087081909,-61.9667129517,2017,2018,2635,2040,2040,3059,3441,3440,3293,3375,3129,3004,3144,3088,3221,2697,3372,3391,3218,3350,3114,3338,3382,3190
1508403589536517670,169,1508403589536153198,plot_matl,0.25,-2000.0,0.21004268527,-0.0349772349,-0.0399573147297,-88.1705322266,0.349065840244,0.0188927389681,-0.0106186820194,0.210172176361,-0.00628028344363,-0.00628028344363,-0.000256250728853,0.000288419250865,-94.342956543,-94.342956543,-0.220280751586,105.184318542,2030,2058,2133,2026,2026,2642,3296,3326,3127,3280,2995,2965,3043,3086,3162,2984,3400,3391,3245,3293,2959,3273,3304,3027,0.009962776,1.69001427,1.683709144,0.401425719261,4500.0,0.367958575487,-0.0100510194898,-0.0334671400487,150.602127075,0.0,6000.0,-0.0106101986021,0.0129929026589,-0.0106101986021,59.8224563599,0.349065840244,0.0240919683129,-0.0295034814626,0.306545227766,0.00839873403311,0.00839873403311,-0.00244252779521,-0.00683904578909,156.835357666,156.835357666,-247.087081909,-61.9667129517,2032,2033,2634,2040,2040,3059,3441,3440,3293,3375,3129,3004,3144,3088,3221,2699,3374,3397,3221,3350,3117,3341,3383,3193
1508403589546573528,170,1508403589546173585,plot_matl,0.25,-2000.0,0.210002109408,0.00380018400028,-0.0399978868663,-79.0635604858,0.349065840244,0.0188927389681,-0.0106186820194,0.210172176361,-0.00628028344363,-0.00628028344363,-0.000256250728853,0.000288419250865,-94.342956543,-94.342956543,-0.220280751586,105.184318542,2026,2052,2133,2030,2030,2640,3298,3328,3128,3282,2990,2961,3037,3086,3162,2984,3400,3391,3245,3293,2959,3273,3304,3027,0.010020215,1.700034881,1.70343655,0.401425719261,4500.0,0.367958575487,-0.00866457633674,-0.0334671400487,150.602127075,0.0,6000.0,-0.0106275072321,-0.0135071557015,-0.0106275072321,67.906288147,0.349065840244,0.0240919683129,-0.0295034814626,0.306545227766,0.00839873403311,0.00839873403311,-0.00244252779521,-0.00683904578909,156.835357666,156.835357666,-247.087081909,-61.9667129517,2027,2028,2634,2040,2040,3057,3442,3440,3294,3378,3121,2998,3142,3088,3221,2699,3374,3397,3221,3350,3117,3341,3383,3193
1508403589556534863,171,1508403589556183963,plot_matl,0.25,-2000.0,0.209966540337,0.00452370382845,-0.0400334559381,-79.0351409912,0.349065840244,0.0188927389681,-0.0106186820194,0.210172176361,-0.00628028344363,-0.00628028344363,-0.000256250728853,0.000288419250865,-94.342956543,-94.342956543,-0.220280751586,105.184318542,2033,2061,2133,2030,2030,2640,3298,3328,3128,3282,2990,2961,3037,3083,3159,2981,3397,3389,3246,3289,2955,3272,3303,3027,0.010010683,1.710045328,1.711826793,0.401425719261,4500.0,0.369308084249,0.0196585729718,-0.0321176573634,144.529449463,0.0,6000.0,-0.0106143541634,-0.000334888580255,-0.0106143541634,63.7846946716,0.349065840244,0.0240919683129,-0.0295034814626,0.306545227766,0.00839873403311,0.00839873403311,-0.00244252779521,-0.00683904578909,156.835357666,156.835357666,-247.087081909,-61.9667129517,2036,2041,2634,2040,2040,3057,3442,3440,3294,3378,3121,2998,3142,3088,3218,2698,3374,3393,3219,3351,3115,3338,3380,3193
1508403589566567959,172,1508403589566165921,plot_matl,0.25,-2000.0,0.209973156452,0.00436214823276,-0.0400268360972,-79.0215530396,0.349065840244,0.0188927389681,-0.0106140254065,0.209962248802,-0.00360587448813,-0.00360587448813,0.013075305149,0.00461066095158,-94.1072998047,-94.1072998047,-0.609753608704,105.924629211,2046,2073,2134,2031,2031,2640,3296,3325,3127,3281,2991,2961,3037,3083,3159,2981,3397,3389,3246,3289,2955,3272,3303,3027,0.009981492,1.720027233,1.716816624,0.401425719261,4500.0,0.367958575487,-0.00669474713504,-0.0334671400487,150.602127075,0.0,6000.0,-0.0106174396351,-0.000274436082691,-0.0106174396351,63.7879066467,0.349065840244,0.0216827709228,-0.0294529311359,0.306446433067,-0.0141729619354,-0.0141729619354,0.0119501482695,-0.00472158472985,156.880477905,156.880477905,-247.693115234,-62.5121459961,2043,2046,2634,2038,2038,3059,3441,3438,3294,3376,3122,2998,3142,3088,3218,2698,3374,3393,3219,3351,3115,3338,3380,3191
1508403589576376007,173,1508403589576144264,plot_matl,0.25,-2000.0,0.209945529699,0.00491143018007,-0.0400544703007,-78.8219146729,0.349065840244,0.0188927389681,-0.0106140254065,0.209962248802,-0.00360587448813,-0.00360587448813,0.013075305149,0.00461066095158,-94.1072998047,-94.1072998047,-0.609753608704,105.924629211,2034,2070,2134,2031,2031,2640,3296,3325,3127,3281,2991,2963,3036,3083,3157,2982,3396,3391,3243,3288,2956,3272,3303,3027,0.009976138,1.730004686,1.725871874,0.401425719261,4500.0,0.369308084249,0.0212270300835,-0.0321176573634,144.529449463,0.0,6000.0,-0.0106199979782,-0.000224316754611,-0.0106199979782,63.7952728271,0.349065840244,0.0216827709228,-0.0294529311359,0.306446433067,-0.0141729619354,-0.0141729619354,0.0119501482695,-0.00472158472985,156.880477905,156.880477905,-247.693115234,-62.5121459961,2032,2041,2634,2038,2038,3059,3441,3438,3294,3376,3122,2998,3141,3086,3219,2698,3374,3393,3220,3350,3115,3338,3380,3191
