%time,field.header.seq,field.header.stamp,field.header.frame_id,field.FFJ4_set_point,field.FFJ4_position_gain,field.FFJ4_process_value,field.FFJ4_process_value_dot,field.FFJ4_error,field.FFJ4_command,field.FFJ1,field.FFJ2,field.FFJ3,field.FFJ4,field.FFJ1_dot,field.FFJ2_dot,field.FFJ3_dot,field.FFJ4_dot,field.FFJ1_tao,field.FFJ2_tao,field.FFJ3_tao,field.FFJ4_tao,field.pac0,field.pac1,field.pdc0,field.tac0,field.tdc0,field.el0,field.el1,field.el2,field.el3,field.el4,field.el5,field.el6,field.el7,field.el8,field.el9,field.el10,field.el11,field.el12,field.el13,field.el14,field.el15,field.el16,field.el17,field.el18,field.dt,field.time,field.test_time2,field.FFJ0_set_point,field.FFJ0_position_gain,field.FFJ0_process_value,field.FFJ0_process_value_dot,field.FFJ0_error,field.FFJ0_command,field.FFJ3_set_point,field.FFJ3_position_gain,field.FFJ3_process_value,field.FFJ3_process_value_dot,field.FFJ3_error,field.FFJ3_command,field.MFJ1,field.MFJ2,field.MFJ3,field.MFJ4,field.MFJ1_dot,field.MFJ2_dot,field.MFJ3_dot,field.MFJ4_dot,field.MFJ1_tao,field.MFJ2_tao,field.MFJ3_tao,field.MFJ4_tao,field.Mpac0,field.Mpac1,field.Mpdc0,field.Mtac0,field.Mtdc0,field.Mel0,field.Mel1,field.Mel2,field.Mel3,field.Mel4,field.Mel5,field.Mel6,field.Mel7,field.Mel8,field.Mel9,field.Mel10,field.Mel11,field.Mel12,field.Mel13,field.Mel14,field.Mel15,field.Mel16,field.Mel17,field.Mel18
1508403367157476794,84,1508403367157206052,plot_matl,0.25,-2000.0,0.214640915394,0.0238186866045,-0.0353590808809,-64.9014816284,0.349065840244,0.0229411832988,-0.0126329865307,0.21462777257,0.0093444166705,0.0093444166705,0.0135718584061,-0.013809427619,-83.4864578247,-83.4864578247,-0.0508347228169,96.1005935669,2051,2093,2144,2032,2032,2620,3292,3323,3120,3278,2986,2956,3033,3083,3156,2998,3398,3393,3249,3292,2959,3271,3303,3024,0.009993391,0.840001488,0.839444844,0.401425719261,4500.0,0.37200704217,0.0190480798483,-0.0294186938554,132.384124756,0.0,6000.0,-0.012645916082,-0.0130005171522,-0.012645916082,79.842048645,0.349065840244,0.0240919683129,-0.0281296912581,0.308729827404,0.00237904069945,0.00237904069945,0.000516161846463,0.0107863787562,161.622085571,161.622085571,-236.922180176,-70.7849960327,2051,2051,2637,2037,2037,3059,3438,3436,3287,3372,3117,3003,3142,3089,3217,2701,3371,3390,3217,3349,3114,3339,3379,3187
1508403367167386517,85,1508403367167206289,plot_matl,0.25,-2000.0,0.214721783996,-0.0142192123458,-0.0352782122791,-74.3754653931,0.349065840244,0.0229411832988,-0.0125453155488,0.21471644938,0.00877189543098,0.00877189543098,-0.00106336281169,-0.0140352444723,-83.3454055786,-83.3454055786,0.0494571737945,96.5431213379,2006,2039,2144,2032,2032,2620,3292,3323,3120,3278,2986,2955,3033,3083,3169,3010,3413,3402,3255,3298,2959,3271,3303,3024,0.010000375,0.850002053,0.850031875,0.401425719261,4500.0,0.37065756321,-0.00933212693781,-0.0307681746781,138.456787109,0.0,6000.0,-0.0125484103337,-0.00102199229877,-0.0125484103337,75.7593307495,0.349065840244,0.0240919683129,-0.0281239598989,0.309198707342,0.0018443701556,0.0018443701556,0.000400158576667,0.000984571874142,161.446380615,161.446380615,-237.061950684,-70.7042312622,2012,2014,2637,2037,2037,3059,3438,3436,3287,3372,3118,3001,3142,3090,3232,2710,3383,3401,3225,3356,3114,3339,3379,3187
1508403367177381361,86,1508403367177204001,plot_matl,0.25,-2000.0,0.214684441686,-0.0137518933043,-0.0353155620396,-74.2305297852,0.349065840244,0.0215917024761,-0.0125693138689,0.214713230729,-0.00384189328179,-0.00384189328179,-0.000742489879485,0.0235169194639,-83.4939346313,-83.4939346313,0.0892692133784,96.3946990967,2010,2044,2144,2035,2035,2624,3296,3326,3120,3278,2986,2955,3033,3083,3169,3010,3413,3402,3255,3298,2965,3277,3308,3032,0.009997593,0.859999399,0.859792998,0.401425719261,4500.0,0.37065756321,-0.00933212693781,-0.0307681746781,138.456787109,0.0,6000.0,-0.012562232092,-0.000837171683088,-0.012562232092,75.7536392212,0.349065840244,0.0240919683129,-0.0281055439264,0.309020638466,0.00212198705412,0.00212198705412,2.44552102231e-05,0.00472133141011,161.613449097,161.613449097,-237.058120728,-70.0208358765,2017,2023,2637,2041,2041,3060,3443,3439,3287,3372,3118,3001,3142,3090,3232,2710,3383,3401,3225,3356,3117,3346,3384,3194
1508403367187427233,87,1508403367187212595,plot_matl,0.25,-2000.0,0.214690044522,-0.0140147609636,-0.035309959203,-74.2430648804,0.349065840244,0.0215917024761,-0.0125693138689,0.214713230729,-0.00384189328179,-0.00384189328179,-0.000742489879485,0.0235169194639,-83.4939346313,-83.4939346313,0.0892692133784,96.3946990967,1995,2030,2144,2035,2035,2624,3296,3326,3123,3281,2990,2957,3034,3086,3159,2999,3399,3393,3255,3298,2965,3277,3308,3032,0.010008634,0.870008013,0.870751158,0.401425719261,4500.0,0.37200704217,0.0196354221553,-0.0294186938554,132.384124756,0.0,6000.0,-0.0125736352056,-0.000684706203174,-0.0125736352056,75.7525024414,0.349065840244,0.0240919683129,-0.0281055439264,0.309020638466,0.00212198705412,0.00212198705412,2.44552102231e-05,0.00472133141011,161.613449097,161.613449097,-237.058120728,-70.0208358765,2006,2010,2637,2041,2041,3060,3443,3439,3293,3375,3120,3005,3144,3091,3217,2702,3371,3394,3225,3356,3117,3346,3384,3194
1508403367197464940,88,1508403367197216319,plot_matl,0.25,-2000.0,0.214693829417,0.0236233435571,-0.0353061705828,-65.1342315674,0.349065840244,0.0215917024761,-0.012579375878,0.214677423239,-0.00338040967472,-0.00338040967472,-0.00060794869205,0.0240293294191,-83.3286437988,-83.3286437988,-0.132856413722,96.358505249,2003,2052,2145,2032,2032,2626,3296,3326,3123,3281,2990,2957,3034,3086,3159,2999,3399,3393,3247,3294,2959,3272,3301,3026,0.010003906,0.88001187,0.880343728,0.401425719261,4500.0,0.37065756321,-0.00623927358538,-0.0307681746781,138.456787109,0.0,6000.0,-0.0125828832388,-0.00056105008116,-0.0125828832388,75.7523727417,0.349065840244,0.0216827709228,-0.0280793309212,0.309010118246,-0.0221430025995,-0.0221430025995,-0.000503351446241,0.00493078352883,161.683486938,161.683486938,-237.095443726,-69.7275161743,2010,2020,2637,2040,2040,3061,3443,3439,3293,3375,3120,3005,3144,3091,3217,2702,3371,3394,3218,3349,3114,3339,3380,3187
1508403367207378301,89,1508403367207207082,plot_matl,0.25,-2000.0,0.214796632528,0.0213588327169,-0.0352033749223,-65.5743255615,0.349065840244,0.0202422197908,-0.0125876255333,0.214751496911,-0.0161172132939,-0.0161172132939,-0.000497637200169,0.0223590712994,-83.1778411865,-83.1778411865,0.000375471601728,96.1839523315,2003,2052,2145,2032,2032,2626,3296,3326,3123,3281,2990,2957,3034,3086,3159,2999,3399,3393,3247,3294,2959,3272,3301,3026,0.009989591,0.890002313,0.889073599,0.401425719261,4500.0,0.37065756321,-0.00406025769189,-0.0307681746781,138.456787109,0.0,6000.0,-0.012590485625,-0.000459395057987,-0.012590485625,75.7456588745,0.349065840244,0.0240919683129,-0.0280838403851,0.30894652009,0.00316975172609,0.00316975172609,-0.000412018998759,0.00623969221488,161.740921021,161.740921021,-237.094589233,-69.5547332764,2010,2020,2637,2040,2040,3061,3443,3439,3293,3375,3120,3005,3144,3091,3217,2702,3371,3394,3218,3349,3114,3339,3380,3187
1508403367217337485,90,1508403367217201965,plot_matl,0.25,-2000.0,0.214711219072,-0.0149744357914,-0.0352887809277,-74.3178405762,0.349065840244,0.0229411832988,-0.0125943738967,0.214737400413,0.0112992199138,0.0112992199138,-0.000407415442169,0.0224692542106,-83.1114273071,-83.1114273071,0.00197937875055,96.2184448242,2023,2082,2144,2035,2035,2626,3293,3323,3123,3279,2988,2957,3032,3082,3159,2996,3398,3391,3246,3291,2958,3268,3304,3026,0.009994728,0.899997127,0.89952552,0.401425719261,4500.0,0.37065756321,-0.00482116919011,-0.0307681746781,138.456787109,0.0,6000.0,-0.0125967143103,-0.000376113748644,-0.0125967143103,75.7516098022,0.349065840244,0.0265011657029,-0.0280745364726,0.309003353119,0.0264724623412,0.0264724623412,-0.0006048027426,0.0051084337756,161.787887573,161.787887573,-236.900756836,-69.4586715698,2037,2042,2638,2040,2040,3061,3440,3438,3291,3373,3120,3003,3142,3089,3217,2698,3371,3393,3217,3349,3111,3338,3381,3187
1508403367227340983,91,1508403367227200856,plot_matl,0.25,-2000.0,0.214668318629,-0.014205487445,-0.035331685096,-74.208984375,0.349065840244,0.0215917024761,-0.012604419142,0.214655652642,-0.00202960101888,-0.00202960101888,-0.000273097539321,-0.0140012437478,-83.0681228638,-83.0681228638,-0.255811244249,96.2938766479,2071,2095,2144,2035,2035,2626,3292,3323,3124,3279,2985,2955,3033,3082,3159,2996,3398,3391,3246,3291,2958,3268,3304,3026,0.009998626,0.909996005,0.909874966,0.401425719261,4500.0,0.37065756321,-0.00341762811877,-0.0307681746781,138.456787109,0.0,6000.0,-0.0126018133014,-0.000307935959427,-0.0126018133014,75.7517166138,0.349065840244,0.0240919683129,-0.0280446782708,0.308728635311,0.00173121492844,0.00173121492844,0.014139411971,-0.0512136518955,161.621047974,161.621047974,-236.952789307,-69.5112380981,2064,2058,2638,2040,2040,3060,3440,3436,3290,3373,3117,3003,3144,3089,3217,2698,3371,3393,3217,3349,3111,3338,3381,3187
1508403367237315994,92,1508403367237200067,plot_matl,0.25,-2000.0,0.214707195759,-0.01507993415,-0.0352928079665,-74.3704833984,0.349065840244,0.0215917024761,-0.0125960474834,0.214689403772,-0.00141275359783,-0.00141275359783,-0.000465219258331,-0.0148154413328,-83.3661422729,-83.3661422729,-0.29399561882,96.1375961304,2085,2097,2144,2035,2035,2626,3292,3323,3124,3279,2985,2955,3033,3082,3159,2994,3400,3392,3246,3290,2955,3269,3304,3024,0.00999924,0.91999522,0.91993008,0.401425719261,4500.0,0.37065756321,-0.0037471910473,-0.0307681746781,138.456787109,0.0,6000.0,-0.0126059884205,-0.000252105877735,-0.0126059884205,75.7527542114,0.349065840244,0.0216827709228,-0.0280693974346,0.308657228947,-0.0211239624768,-0.0211239624768,-0.000708094856236,0.0120866931975,161.657287598,161.657287598,-236.971588135,-69.4724197388,2077,2067,2638,2040,2040,3060,3440,3436,3290,3373,3117,3003,3144,3089,3217,2695,3370,3390,3218,3349,3110,3338,3378,3185
1508403367247368858,93,1508403367247205891,plot_matl,0.25,-2000.0,0.214736282825,-0.0158259049058,-0.0352637246251,-74.4712905884,0.349065840244,0.0215917024761,-0.0126012098044,0.214718237519,-0.0025959732011,-0.0025959732011,-0.00038182042772,0.0224033053964,-83.4743423462,-83.4743423462,-0.244749248028,96.0667953491,2051,2103,2144,2036,2036,2625,3292,3323,3121,3278,2986,2958,3033,3082,3159,2994,3400,3392,3246,3290,2955,3269,3304,3024,0.010006103,0.930001363,0.930567579,0.401425719261,4500.0,0.37200704217,0.0231111105531,-0.0294186938554,132.384124756,0.0,6000.0,-0.012598211877,-0.000430259533459,-0.012598211877,75.7548980713,0.349065840244,0.0240919683129,-0.0280631203204,0.308659791946,0.00304870377295,0.00304870377295,-0.000837528670672,0.0120488675311,161.718719482,161.718719482,-237.049057007,-69.5754699707,2055,2066,2637,2039,2039,3060,3438,3437,3288,3372,3116,3004,3144,3089,3217,2695,3370,3390,3218,3349,3110,3338,3378,3185
1508403367257347378,94,1508403367257201125,plot_matl,0.25,-2000.0,0.214694485068,-0.0150450691581,-0.0353055074811,-74.239982605,0.349065840244,0.0229411832988,-0.0126054948196,0.214717075229,0.0102771418169,0.0102771418169,-0.000312588788802,0.0223794449121,-83.5823364258,-83.5823364258,-0.236735463142,96.2765350342,2064,2094,2144,2036,2036,2625,3292,3323,3121,3278,2986,2958,3032,3082,3159,2995,3400,3393,3246,3290,2956,3270,3304,3024,0.009994496,0.939996126,0.939482624,0.401425719261,4500.0,0.37200704217,0.0208629351109,-0.0294186938554,132.384124756,0.0,6000.0,-0.0126030696556,-0.000351781665813,-0.0126030696556,75.7499542236,0.349065840244,0.0240919683129,-0.0280705671757,0.308770447969,0.00384261948057,0.00384261948057,-0.00068566808477,0.00987876392901,161.622238159,161.622238159,-236.934783936,-69.6948165894,2068,2072,2637,2039,2039,3060,3438,3437,3288,3372,3116,3004,3144,3088,3220,2698,3373,3389,3217,3346,3110,3338,3378,3185
1508403367267326833,95,1508403367267197473,plot_matl,0.25,-2000.0,0.214728325605,0.0221068616956,-0.0352716743946,-65.5808334351,0.349065840244,0.0229411832988,-0.0126054948196,0.214717075229,0.0102771418169,0.0102771418169,-0.000312588788802,0.0223794449121,-83.5823364258,-83.5823364258,-0.236735463142,96.2765350342,2051,2098,2142,2034,2034,2620,3290,3321,3121,3277,2986,2958,3032,3082,3159,2995,3400,3393,3246,3290,2956,3270,3301,3025,0.009995948,0.949992226,0.94961506,0.401425719261,4500.0,0.37065756321,-0.00619745021686,-0.0307681746781,138.456787109,0.0,6000.0,-0.0125943021849,-0.000547174015082,-0.0125943021849,75.7393112183,0.349065840244,0.0240919683129,-0.0280705671757,0.308770447969,0.00384261948057,0.00384261948057,-0.00068566808477,0.00987876392901,161.622238159,161.622238159,-236.934783936,-69.6948165894,2056,2061,2635,2041,2041,3058,3438,3437,3291,3374,3116,3004,3144,3088,3220,2698,3373,3389,3217,3346,3110,3338,3378,3187
1508403367277334824,96,1508403367277199621,plot_matl,0.25,-2000.0,0.214761957526,-0.0164201781154,-0.0352380387485,-74.1599578857,0.349065840244,0.0215917024761,-0.0126026803628,0.21481192112,-0.00365409278311,-0.00365409278311,-0.000397060677642,0.0204595085233,-83.4347305298,-83.4347305298,0.0813215970993,96.1470718384,2056,2097,2142,2034,2034,2620,3290,3321,3121,3277,2985,2957,3035,3085,3156,2997,3397,3392,3245,3289,2956,3270,3301,3025,0.010002844,0.959994908,0.960273024,0.401425719261,4500.0,0.37200704217,0.0202013272792,-0.0294186938554,132.384124756,0.0,6000.0,-0.0125998537987,-0.000447710684966,-0.0125998537987,75.7397384644,0.349065840244,0.0240919683129,-0.0280567537993,0.308835893869,0.00478034513071,0.00478034513071,-0.000966193212662,0.00863227527589,161.682922363,161.682922363,-237.24369812,-69.711555481,2057,2059,2635,2041,2041,3058,3438,3437,3291,3374,3117,3004,3143,3091,3217,2703,3372,3391,3216,3347,3110,3338,3378,3187
1508403367287332034,97,1508403367287199349,plot_matl,0.25,-2000.0,0.21485248208,0.0196321569383,-0.0351475179195,-65.6122055054,0.349065840244,0.0215917024761,-0.0126026803628,0.21481192112,-0.00365409278311,-0.00365409278311,-0.000397060677642,0.0204595085233,-83.4347305298,-83.4347305298,0.0813215970993,96.1470718384,2050,2103,2141,2035,2035,2616,3289,3321,3121,3277,2985,2957,3035,3085,3156,2997,3397,3392,3245,3289,2956,3269,3301,3022,0.009999838,0.969994786,0.969984286,0.401425719261,4500.0,0.37065756321,-0.00724162440747,-0.0307681746781,138.456787109,0.0,6000.0,-0.0126043735072,-0.000366731139366,-0.0126043735072,75.7500534058,0.349065840244,0.0240919683129,-0.0280567537993,0.308835893869,0.00478034513071,0.00478034513071,-0.000966193212662,0.00863227527589,161.682922363,161.682922363,-237.24369812,-69.711555481,2059,2064,2634,2043,2043,3056,3438,3436,3291,3374,3117,3004,3143,3091,3217,2703,3372,3391,3216,3347,3110,3339,3381,3187
1508403367297305659,98,1508403367297200306,plot_matl,0.25,-2000.0,0.214888378978,-0.0190051514655,-0.0351116172969,-74.8223266602,0.349065840244,0.0229411832988,-0.0126197841018,0.214890912175,0.010153029114,0.010153029114,-6.60621444695e-05,-0.0190413184464,-83.5618667603,-83.5618667603,0.210107281804,96.1523742676,2048,2074,2141,2035,2035,2616,3289,3321,3119,3278,2982,2958,3033,3082,3156,2997,3402,3390,3245,3289,2956,3269,3301,3022,0.010000531,0.979995207,0.980052038,0.401425719261,4500.0,0.37065756321,-0.00641689542681,-0.0307681746781,138.456787109,0.0,6000.0,-0.0126201761886,-6.09441558481e-05,-0.0126201761886,75.749458313,0.349065840244,0.0216827709228,-0.0280360784382,0.308915913105,-0.019906565547,-0.019906565547,-0.00137168203946,0.0069985659793,161.672103882,161.672103882,-237.199295044,-69.6109542847,2045,2043,2634,2043,2043,3056,3438,3436,3288,3371,3114,3005,3144,3089,3217,2704,3370,3391,3216,3347,3110,3339,3381,3187
1508403367307317298,99,1508403367307197973,plot_matl,0.25,-2000.0,0.214888378978,-0.0190051514655,-0.0351116172969,-74.8223266602,0.349065840244,0.0215917024761,-0.0126207023859,0.214921504259,-0.00258392258547,-0.00258392258547,-5.40721666766e-05,-0.019673248753,-83.639175415,-83.639175415,-0.0437053889036,96.3374710083,2048,2074,2141,2035,2035,2616,3289,3321,3119,3278,2982,2958,3033,3082,3156,2997,3402,3390,3245,3289,2956,3269,3301,3022,0.009997055,0.989992913,0.989708445,0.401425719261,4500.0,0.37065756321,-0.00641689542681,-0.0307681746781,138.456787109,0.0,6000.0,-0.0126201761886,-6.09441558481e-05,-0.0126201761886,75.749458313,0.349065840244,0.0240919683129,-0.028021004051,0.308923125267,0.00360481557436,0.00360481557436,-0.00167519203387,0.00683911750093,161.731613159,161.731613159,-237.023635864,-69.5004196167,2045,2043,2634,2043,2043,3056,3438,3436,3288,3371,3114,3005,3144,3089,3217,2704,3370,3391,3216,3347,3110,3339,3381,3187
1508403367317292834,100,1508403367317198898,plot_matl,0.25,-2000.0,0.214953795075,-0.0203223954886,-0.0350462049246,-74.9851531982,0.349065840244,0.0215917024761,-0.0126214539632,0.214943960309,-0.00311445025727,-0.00311445025727,-4.4254513341e-05,-0.020146375522,-83.7119827271,-83.7119827271,0.114113777876,96.2708969116,2073,2086,2141,2034,2034,2618,3289,3321,3119,3278,2982,2958,3033,3082,3156,2997,3402,3390,3245,3290,2957,3271,3300,3021,0.010001263,0.999994019,1.0001263,0.401425719261,4500.0,0.37065756321,-0.00528582790866,-0.0307681746781,138.456787109,0.0,6000.0,-0.0126210218295,-4.98959125252e-05,-0.0126210218295,75.7492675781,0.349065840244,0.0240919683129,-0.0280232168734,0.308863401413,0.00249688583426,0.00249688583426,-0.00162837386597,-0.0538108125329,161.509735107,161.509735107,-237.030899048,-69.4899520874,2059,2053,2634,2038,2038,3058,3438,3436,3288,3371,3114,3005,3144,3089,3217,2704,3370,3391,3216,3347,3110,3338,3378,3186
1508403367327291356,101,1508403367327199819,plot_matl,0.25,-2000.0,0.214865252376,-0.0185690000653,-0.035134755075,-74.8065643311,0.349065840244,0.0215917024761,-0.0126095302403,0.214865624905,-0.00307395821437,-0.00307395821437,-0.000294200377539,-0.0185736361891,-83.6462173462,-83.6462173462,-0.158266276121,96.4479293823,2078,2111,2141,2034,2034,2618,3289,3321,3117,3276,2982,2958,3033,3083,3156,2996,3402,3390,3245,3290,2957,3271,3300,3021,0.01000071,1.00999501,1.01007171,0.401425719261,4500.0,0.37065756321,-0.00618239864707,-0.0307681746781,138.456787109,0.0,6000.0,-0.0126107111573,-0.000271505035926,-0.0126107111573,75.7512283325,0.349065840244,0.0216827709228,-0.0280247982591,0.308820158243,-0.020955292508,-0.020955292508,-0.00159219594207,-0.0530025884509,161.509872437,161.509872437,-237.012557983,-69.7194976807,2063,2063,2634,2038,2038,3058,3438,3435,3287,3370,3114,3005,3143,3089,3217,2700,3370,3391,3216,3347,3110,3338,3378,3186
1508403367337359448,102,1508403367337201250,plot_matl,0.25,-2000.0,0.214908644557,0.0184619314969,-0.035091355443,-65.7088241577,0.349065840244,0.0215917024761,-0.0125913312659,0.214974850416,-0.00297306501307,-0.00297306501307,-0.000664070714265,0.0171102508903,-83.4385375977,-83.4385375977,-0.520956397057,96.5171661377,2046,2080,2140,2035,2035,2620,3291,3321,3120,3276,2981,2956,3034,3083,3156,2996,3398,3391,3246,3290,2953,3270,3300,3022,0.010001604,1.019996398,1.020163608,0.401425719261,4500.0,0.37065756321,-0.00559123465791,-0.0307681746781,138.456787109,0.0,6000.0,-0.0126016065478,-0.000458461698145,-0.0126016065478,75.7521820068,0.349065840244,0.0240919683129,-0.0280093178153,0.30905264616,0.00343382358551,0.00343382358551,0.0134344194084,0.00418580602854,161.567398071,161.567398071,-237.258041382,-69.9718399048,2038,2039,2634,2041,2041,3058,3439,3437,3286,3372,3115,3005,3142,3092,3217,2700,3370,3391,3216,3348,3109,3337,3377,3186
1508403367347299688,103,1508403367347199077,plot_matl,0.25,-2000.0,0.21500132978,0.0165139846504,-0.0349986739457,-66.1713867188,0.349065840244,0.0215917024761,-0.0125913312659,0.214974850416,-0.00297306501307,-0.00297306501307,-0.000664070714265,0.0171102508903,-83.4385375977,-83.4385375977,-0.520956397057,96.5171661377,2039,2075,2140,2035,2035,2620,3291,3321,3120,3276,2981,2956,3034,3083,3158,2993,3399,3392,3245,3287,2953,3269,3300,3021,0.009997558,1.029994326,1.029748474,0.401425719261,4500.0,0.37065756321,-0.00548677705228,-0.0307681746781,138.456787109,0.0,6000.0,-0.0125939203426,-0.000612769683357,-0.0125939203426,75.744102478,0.349065840244,0.0240919683129,-0.0280093178153,0.30905264616,0.00343382358551,0.00343382358551,0.0134344194084,0.00418580602854,161.567398071,161.567398071,-237.258041382,-69.9718399048,2036,2042,2634,2041,2041,3058,3439,3437,3286,3372,3115,3005,3142,3092,3218,2696,3369,3389,3213,3347,3108,3339,3376,3187
1508403367357343832,104,1508403367357199487,plot_matl,0.25,-2000.0,0.214978262782,-0.0209232121706,-0.0350217334926,-75.0704345703,0.349065840244,0.0215917024761,-0.0125904697925,0.21496848762,-0.00303632207215,-0.00303632207215,-0.000690517481416,0.0171768348664,-83.4225082397,-83.4225082397,-0.0845131054521,96.3907852173,2039,2075,2140,2035,2035,2620,3291,3321,3120,3276,2981,2956,3034,3083,3158,2993,3399,3392,3245,3287,2953,3269,3300,3021,0.010000132,1.039994608,1.040013728,0.401425719261,4500.0,0.37065756321,-0.00689075281844,-0.0307681746781,138.456787109,0.0,6000.0,-0.0125995147973,-0.000501923204865,-0.0125995147973,75.7509155273,0.349065840244,0.0240919683129,-0.028011796996,0.30918058753,0.00249028531834,0.00249028531834,-0.00186542968731,0.00170693802647,161.604797363,161.604797363,-237.499328613,-70.1760559082,2036,2042,2634,2041,2041,3058,3439,3437,3286,3372,3115,3005,3142,3092,3218,2696,3369,3389,3213,3347,3108,3339,3376,3187
1508403367367307860,105,1508403367367199235,plot_matl,0.25,-2000.0,0.214961007237,-0.0206122621894,-0.0350389927626,-74.5179367065,0.349065840244,0.0215917024761,-0.0125904697925,0.21496848762,-0.00303632207215,-0.00303632207215,-0.000690517481416,0.0171768348664,-83.4225082397,-83.4225082397,-0.0845131054521,96.3907852173,2009,2043,2141,2037,2037,2621,3292,3318,3119,3275,2984,2957,3033,3084,3157,2995,3398,3392,3244,3288,2955,3269,3300,3021,0.009999804,1.049994473,1.04997942,0.401425719261,4500.0,0.37065756321,-0.00665889075026,-0.0307681746781,138.456787109,0.0,6000.0,-0.0125931156799,-0.000637364806607,-0.0125931156799,75.7317657471,0.349065840244,0.0240919683129,-0.028011796996,0.30918058753,0.00249028531834,0.00249028531834,-0.00186542968731,0.00170693802647,161.604797363,161.604797363,-237.499328613,-70.1760559082,2017,2018,2634,2044,2044,3058,3440,3435,3288,3370,3114,3004,3143,3091,3217,2696,3370,3390,3216,3345,3110,3337,3376,3187
1508403367377382163,106,1508403367377197601,plot_matl,0.25,-2000.0,0.215009018779,0.0163496118039,-0.0349909737706,-66.1247558594,0.349065840244,0.0215917024761,-0.0125589668751,0.215058982372,-0.00296336226165,-0.00296336226165,-0.00130935898051,0.0153358178213,-83.3904266357,-83.3904266357,0.074509344995,96.2862091064,2009,2043,2141,2037,2037,2621,3292,3318,3119,3275,2984,2957,3033,3084,3157,2995,3398,3392,3244,3288,2955,3269,3300,3021,0.009998325,1.059992904,1.05982245,0.401425719261,4500.0,0.37065756321,-0.00665889075026,-0.0307681746781,138.456787109,0.0,6000.0,-0.0125931156799,-0.000637364806607,-0.0125931156799,75.7317657471,0.349065840244,0.0240919683129,-0.0280286315829,0.309208422899,0.00246370839886,0.00246370839886,-0.00152551627252,0.0012570284307,161.494659424,161.494659424,-237.549743652,-70.2581100464,2017,2018,2634,2044,2044,3058,3440,3435,3288,3370,3114,3004,3143,3091,3217,2696,3370,3390,3216,3345,3110,3337,3376,3187
1508403367387359125,107,1508403367387199086,plot_matl,0.25,-2000.0,0.214949533343,0.017484921962,-0.0350504592061,-65.9893493652,0.349065840244,0.0215917024761,-0.012559697032,0.214956253767,-0.00392533279955,-0.00392533279955,-0.00130801869091,0.017378218472,-83.2267227173,-83.2267227173,0.0720484703779,96.2329483032,1991,2029,2141,2037,2037,2620,3292,3321,3119,3276,2984,2957,3033,3084,3157,2995,3398,3392,3244,3288,2955,3269,3300,3020,0.010000966,1.069994155,1.070103362,0.401425719261,4500.0,0.37065756321,-0.00829628109932,-0.0307681746781,138.456787109,0.0,6000.0,-0.0125646945089,-0.00120769068599,-0.0125646945089,75.7431869507,0.349065840244,0.0240919683129,-0.0280148871243,0.309103429317,0.00244806939736,0.00244806939736,-0.00181371869985,-0.0585250817239,161.469696045,161.469696045,-237.39276123,-70.5319366455,2000,2005,2634,2040,2040,3057,3438,3435,3287,3370,3114,3004,3143,3091,3217,2696,3370,3390,3216,3345,3110,3337,3378,3186
1508403367397313338,108,1508403367397199775,plot_matl,0.25,-2000.0,0.21486929059,-0.0188325289637,-0.0351307094097,-74.8313598633,0.349065840244,0.0215917024761,-0.01257152576,0.214871019125,-0.00368744158186,-0.00368744158186,-0.00107052724343,-0.0188382975757,-83.3063278198,-83.3063278198,0.0663892328739,96.1905822754,1991,2025,2142,2038,2038,2617,3291,3322,3119,3276,2984,2958,3032,3083,3158,2996,3399,3391,3244,3289,2957,3269,3300,3024,0.010001023,1.079995041,1.080110484,0.401425719261,4500.0,0.37065756321,-0.00783698726445,-0.0307681746781,138.456787109,0.0,6000.0,-0.0125881778076,-0.000728888204321,-0.0125881778076,75.7553253174,0.349065840244,0.0240919683129,-0.0280311014503,0.309076070786,0.00286737456918,0.00286737456918,-0.00148440955672,0.0038656136021,161.532348633,161.532348633,-237.290924072,-70.6135940552,2004,2004,2634,2042,2042,3057,3440,3435,3287,3370,3113,3005,3144,3091,3217,2701,3370,3389,3215,3348,3113,3339,3379,3186
1508403367407377845,109,1508403367407222984,plot_matl,0.25,-2000.0,0.214831933379,-0.0180728472769,-0.0351680703461,-74.6438446045,0.349065840244,0.0215917024761,-0.0125923138112,0.21490649879,-0.00373610015959,-0.00373610015959,-0.000646659522317,0.0183349344879,-83.3786773682,-83.3786773682,-0.240929111838,96.4499511719,2005,2030,2142,2038,2038,2617,3291,3322,3119,3275,2985,2957,3033,3084,3158,2999,3399,3391,3244,3289,2957,3269,3300,3024,0.010023309,1.090018237,1.092540681,0.401425719261,4500.0,0.37065756321,-0.00689357472584,-0.0307681746781,138.456787109,0.0,6000.0,-0.0125933475792,-0.000600016966928,-0.0125933475792,75.7509994507,0.349065840244,0.0240919683129,-0.0280443243682,0.309056401253,0.0023233324755,0.0023233324755,-0.00121586525347,0.0660446360707,161.413223267,161.413223267,-237.14982605,-70.5320053101,2013,2010,2634,2042,2042,3057,3440,3435,3287,3369,3116,3004,3143,3091,3217,2705,3371,3391,3215,3348,3113,3339,3379,3186
1508403367417332098,110,1508403367417197659,plot_matl,0.25,-2000.0,0.214770853519,-0.0168163720518,-0.0352291502059,-74.4649810791,0.349065840244,0.0215917024761,-0.0125968949869,0.214801952243,-0.00380710489117,-0.00380710489117,-0.00053244602168,-0.0174495633692,-83.2065505981,-83.2065505981,-0.199999123812,96.4034729004,1986,2023,2142,2037,2037,2615,3291,3322,3119,3275,2985,2957,3033,3084,3158,2999,3399,3391,3247,3291,2957,3272,3301,3024,0.009974208,1.099992698,1.09716288,0.401425719261,4500.0,0.37065756321,-0.00755686685443,-0.0307681746781,138.456787109,0.0,6000.0,-0.0125990435481,-0.00049150781706,-0.0125990435481,75.7504577637,0.349065840244,0.0240919683129,-0.0280275437981,0.308978915215,0.00327507522888,0.00327507522888,-0.00155638135038,-0.0561356805265,161.395401001,161.395401001,-237.117340088,-70.3652877808,1997,2002,2635,2041,2041,3056,3440,3435,3287,3369,3116,3004,3143,3091,3217,2705,3371,3391,3217,3346,3111,3338,3377,3185
1508403367427314641,111,1508403367427197100,plot_matl,0.25,-2000.0,0.214817836881,-0.0177442673594,-0.0351821631193,-74.672088623,0.349065840244,0.0215917024761,-0.0125927887857,0.214789867401,-0.00362357287668,-0.00362357287668,0.0127987805754,-0.0171652566642,-83.3038330078,-83.3038330078,0.00336668710224,96.0785446167,2015,2036,2142,2037,2037,2615,3289,3320,3116,3274,2984,2956,3034,3083,3155,2997,3399,3391,3247,3291,2957,3272,3301,3024,0.009999394,1.109992306,1.109932734,0.401425719261,4500.0,0.37065756321,-0.00758054479957,-0.0307681746781,138.456787109,0.0,6000.0,-0.0126037178561,-0.000402460602345,-0.0126037178561,75.7524261475,0.349065840244,0.0265011657029,-0.0280667487532,0.308799922466,0.0255459416658,0.0255459416658,-0.000764006865211,-0.0525293685496,161.527908325,161.527908325,-237.313232422,-70.1577911377,2016,2006,2635,2041,2041,3056,3439,3438,3287,3371,3116,3005,3143,3091,3219,2705,3371,3391,3217,3346,3111,3338,3377,3185
1508403367437325062,112,1508403367437199643,plot_matl,0.25,-2000.0,0.214799553156,0.0205809548497,-0.0352004393935,-65.1173477173,0.349065840244,0.0215917024761,-0.012575712055,0.214842364192,-0.00346335745417,-0.00346335745417,-0.000961982237641,-0.0182257182896,-83.2085113525,-83.2085113525,-0.0297843590379,96.1376953125,2003,2042,2143,2036,2036,2615,3289,3320,3116,3274,2984,2956,3034,3083,3155,2997,3401,3392,3247,3289,2956,3269,3301,3022,0.010002467,1.119994769,1.120276304,0.401425719261,4500.0,0.37200704217,0.0195189993829,-0.0294186938554,132.384124756,0.0,6000.0,-0.0125833135098,-0.00081750319805,-0.0125833135098,75.7685928345,0.349065840244,0.0240919683129,-0.0280605442822,0.308885902166,0.000998618430458,0.000998618430458,-0.000896271085367,0.00750782107934,161.539077759,161.539077759,-237.661804199,-70.2541046143,2015,2019,2636,2038,2038,3056,3439,3438,3287,3371,3116,3005,3143,3091,3219,2705,3372,3390,3217,3347,3110,3338,3380,3186
1508403367447383817,113,1508403367447222145,plot_matl,0.25,-2000.0,0.214776217937,-0.0547469966114,-0.0352237746119,-82.8267440796,0.349065840244,0.0215917024761,-0.0125715993345,0.21475186944,-0.00383836589754,-0.00383836589754,-0.00103512732312,-0.0163268111646,-83.3112487793,-83.3112487793,-0.0183679461479,96.3037719727,1998,2037,2143,2036,2036,2618,3290,3319,3119,3277,2982,2956,3033,3083,3155,2997,3401,3392,3247,3289,2956,3269,3301,3022,0.010022405,1.130017261,1.132531765,0.401425719261,4500.0,0.37065756321,-0.00692067295313,-0.0307681746781,138.456787109,0.0,6000.0,-0.0125794671476,-0.000888467184268,-0.0125794671476,75.7359619141,0.349065840244,0.0216827709228,-0.0280537512153,0.308685451746,-0.023072598502,-0.023072598502,0.0143099147826,0.0116090029478,161.553253174,161.553253174,-237.501541138,-70.2091751099,2000,2006,2636,2038,2038,3057,3438,3434,3289,3372,3116,3003,3142,3090,3219,2705,3372,3390,3217,3347,3110,3338,3380,3186
1508403367457394295,114,1508403367457204941,plot_matl,0.25,-2000.0,0.214688941836,-0.0150555446744,-0.0353110618889,-74.2799530029,0.349065840244,0.0215917024761,-0.0125694349408,0.214742973447,-0.00384442997165,-0.00384442997165,-0.00108214805368,-0.0161465797573,-83.0040588379,-83.0040588379,-0.211469188333,96.2136001587,2014,2050,2143,2036,2036,2618,3290,3319,3119,3277,2982,2956,3033,3083,3157,2996,3400,3390,3245,3291,2957,3269,3301,3023,0.009982704,1.140000052,1.138028256,0.401425719261,4500.0,0.37200704217,0.0185944866389,-0.0294186938554,132.384124756,0.0,6000.0,-0.0125624304637,0.0122011844069,-0.0125624304637,71.6813583374,0.349065840244,0.0216827709228,-0.0280628986657,0.308673411608,-0.0232726447284,-0.0232726447284,-0.000847641262226,-0.0499888025224,161.417388916,161.417388916,-237.70892334,-70.3856887817,2019,2027,2636,2038,2038,3057,3438,3434,3289,3372,3116,3003,3142,3090,3217,2701,3373,3390,3218,3347,3111,3338,3378,3186
1508403367467356365,115,1508403367467204026,plot_matl,0.25,-2000.0,0.214825794101,0.0200905017555,-0.0351742058992,-65.7465057373,0.349065840244,0.0215917024761,-0.0125694349408,0.214742973447,-0.00384442997165,-0.00384442997165,-0.00108214805368,-0.0161465797573,-83.0040588379,-83.0040588379,-0.211469188333,96.2136001587,2008,2024,2143,2035,2035,2620,3292,3321,3120,3277,2984,2956,3033,3083,3157,2996,3400,3390,3245,3291,2957,3269,3301,3023,0.009998961,1.149999186,1.149880515,0.401425719261,4500.0,0.37200704217,0.0191041659564,-0.0294186938554,132.384124756,0.0,6000.0,-0.0125736948103,-0.000998949632049,-0.0125736948103,75.73802948,0.349065840244,0.0216827709228,-0.0280628986657,0.308673411608,-0.0232726447284,-0.0232726447284,-0.000847641262226,-0.0499888025224,161.417388916,161.417388916,-237.70892334,-70.3856887817,2011,2004,2636,2040,2040,3058,3440,3438,3288,3372,3116,3003,3142,3090,3217,2701,3373,3390,3218,3347,3111,3338,3378,3186
1508403367477323913,116,1508403367477203980,plot_matl,0.25,-2000.0,0.214840292931,0.0198451280594,-0.0351597070694,-65.7080001831,0.349065840244,0.0242906641215,-0.0125628840178,0.214809536934,0.0232669729739,0.0232669729739,-0.00123659137171,-0.0174416303635,-83.305847168,-83.305847168,-0.0458254478872,96.3397140503,1995,2016,2143,2035,2035,2620,3292,3321,3120,3277,2984,2956,3034,3082,3158,2996,3399,3389,3246,3289,2958,3271,3301,3023,0.010000076,1.159999264,1.160008816,0.401425719261,4500.0,0.37065756321,-0.00719324545935,-0.0307681746781,138.456787109,0.0,6000.0,-0.0125829875469,-0.000817461521365,-0.0125829875469,75.7441177368,0.349065840244,0.0240919683129,-0.0280534531921,0.308653503656,0.000603698543273,0.000603698543273,-0.00103609729558,0.0123067703098,161.675079346,161.675079346,-237.572250366,-70.5135421753,2003,1997,2636,2040,2040,3058,3440,3438,3288,3372,3116,3003,3142,3089,3217,2700,3372,3391,3217,3349,3112,3336,3378,3186
1508403367487326941,117,1508403367487202109,plot_matl,0.25,-2000.0,0.214849412441,-0.0182557664812,-0.0351505801082,-74.7010726929,0.349065840244,0.0215917024761,-0.0125626474619,0.214817777276,-0.00325714517385,-0.00325714517385,-0.0012443017913,0.0202787257731,-83.305519104,-83.305519104,0.103988870978,96.3858642578,2010,2032,2144,2037,2037,2623,3292,3321,3120,3277,2984,2956,3034,3082,3158,2996,3399,3389,3246,3289,2958,3271,3302,3023,0.009998419,1.169997369,1.169815023,0.401425719261,4500.0,0.37065756321,-0.00790341757238,-0.0307681746781,138.456787109,0.0,6000.0,-0.0125547125936,-0.00140303443186,-0.0125547125936,75.7540817261,0.349065840244,0.0240919683129,-0.0280626267195,0.308593243361,0.00140266865492,0.00140266865492,-0.000848774507176,0.0134730907157,161.733825684,161.733825684,-237.716033936,-70.4250335693,2007,2012,2636,2040,2040,3060,3437,3437,3289,3372,3116,3003,3142,3089,3217,2700,3372,3391,3217,3349,3112,3336,3379,3186
1508403367497664682,118,1508403367497302305,plot_matl,0.25,-2000.0,0.214787691832,0.0208847764879,-0.0352123081684,-65.4234619141,0.349065840244,0.0215917024761,-0.0125626474619,0.214817777276,-0.00325714517385,-0.00325714517385,-0.0012443017913,0.0202787257731,-83.305519104,-83.305519104,0.103988870978,96.3858642578,2010,2032,2144,2037,2037,2623,3292,3321,3120,3277,2984,2956,3034,3082,3158,2996,3399,3389,3246,3289,2958,3271,3302,3023,0.010101423,1.180098431,1.191967914,0.401425719261,4500.0,0.37065756321,-0.00549404742196,-0.0307681746781,138.456787109,0.0,6000.0,-0.012567428872,-0.00114863645285,-0.012567428872,75.752166748,0.349065840244,0.0240919683129,-0.0280626267195,0.308593243361,0.00140266865492,0.00140266865492,-0.000848774507176,0.0134730907157,161.733825684,161.733825684,-237.716033936,-70.4250335693,2007,2012,2636,2040,2040,3060,3437,3437,3289,3372,3116,3003,3142,3089,3217,2700,3372,3391,3217,3349,3112,3336,3379,3186
1508403367507581582,119,1508403367507245545,plot_matl,0.25,-2000.0,0.214670598507,0.0232287012041,-0.0353294052184,-65.2247161865,0.349065840244,0.0215917024761,-0.0125831533223,0.214698001742,-0.00248536746949,-0.00248536746949,-0.000834064849187,0.0226809140295,-83.3472290039,-83.3472290039,0.208479896188,96.5638122559,1973,2023,2145,2035,2035,2622,3291,3321,3120,3277,2985,2955,3033,3083,3157,2997,3397,3390,3245,3291,2958,3270,3302,3025,0.009942443,1.190041481,1.183150717,0.401425719261,4500.0,0.37200704217,0.0222508516163,-0.0294186938554,132.384124756,0.0,6000.0,-0.0125778587535,-0.000939971359912,-0.0125778587535,75.7447509766,0.349065840244,0.0265011657029,-0.0280540455133,0.308681428432,0.0251525659114,0.0251525659114,-0.00102730002254,0.0735569521785,161.631668091,161.631668091,-237.259262085,-70.4703521729,1988,2001,2638,2041,2041,3059,3439,3437,3289,3372,3119,3004,3142,3090,3217,2698,3372,3393,3215,3347,3112,3338,3379,3188
1508403367517635468,120,1508403367517214508,plot_matl,0.25,-2000.0,0.214640021324,-0.0140636684373,-0.0353599824011,-74.096244812,0.349065840244,0.0215917024761,-0.0125907128677,0.214668542147,-0.00200910097919,-0.00200910097919,-0.00068281928543,0.0232744980603,-83.463973999,-83.463973999,0.505753219128,96.5295639038,1994,2032,2145,2035,2035,2622,3291,3321,3120,3278,2986,2956,3031,3081,3157,2998,3399,3390,3245,3291,2958,3270,3302,3025,0.009968247,1.200010047,1.19618964,0.401425719261,4500.0,0.37065756321,-0.00510454224423,-0.0307681746781,138.456787109,0.0,6000.0,-0.012586357072,-0.00076995434938,-0.012586357072,75.7513656616,0.349065840244,0.0240919683129,-0.0280918218195,0.308742135763,0.000149756262545,0.000149756262545,-0.0156063018367,0.0723189488053,161.659057617,161.659057617,-237.295120239,-70.2818603516,2011,2010,2638,2041,2041,3059,3439,3437,3290,3372,3118,3003,3143,3089,3216,2700,3371,3392,3215,3347,3112,3338,3379,3188
1508403367527534358,121,1508403367527218310,plot_matl,0.25,-2000.0,0.214650779963,0.0236422233284,-0.0353492163122,-64.8962631226,0.349065840244,0.0215917024761,-0.0125907128677,0.214668542147,-0.00200910097919,-0.00200910097919,-0.00068281928543,0.0232744980603,-83.463973999,-83.463973999,0.505753219128,96.5295639038,1994,2032,2145,2035,2035,2622,3291,3321,3120,3278,2986,2956,3031,3081,3157,2998,3399,3390,3245,3291,2958,3270,3302,3025,0.010002804,1.210013595,1.210339284,0.401425719261,4500.0,0.369308084249,-0.0303903203458,-0.0321176573634,144.529449463,0.0,6000.0,-0.012593338266,-0.000630295253359,-0.012593338266,75.7554092407,0.349065840244,0.0240919683129,-0.0280918218195,0.308742135763,0.000149756262545,0.000149756262545,-0.0156063018367,0.0723189488053,161.659057617,161.659057617,-237.295120239,-70.2818603516,2011,2010,2638,2041,2041,3059,3439,3437,3290,3372,3118,3003,3143,3089,3216,2700,3371,3392,3215,3347,3112,3338,3379,3188
1508403367537476028,122,1508403367537211234,plot_matl,0.25,-2000.0,0.21459159255,0.0248263180256,-0.0354084074497,-64.8587341309,0.349065840244,0.0215917024761,-0.0125969043002,0.214605376124,-0.00114225805737,-0.00114225805737,-0.000558957282919,-0.0133634451777,-83.387802124,-83.387802124,0.701635658741,96.7193450928,1994,2043,2145,2035,2035,2620,3291,3321,3120,3278,2986,2956,3031,3081,3157,2998,3399,3390,3246,3291,2957,3271,3302,3025,0.009993246,1.220006833,1.219176012,0.401425719261,4500.0,0.369308084249,-0.0303903203458,-0.0321176573634,144.529449463,0.0,6000.0,-0.012593338266,-0.000630295253359,-0.012593338266,75.7554092407,0.349065840244,0.0240919683129,-0.0280940644443,0.308506190777,0.000190250910237,0.000190250910237,-0.000214774059714,-0.0466135181487,161.687927246,161.687927246,-237.035766602,-70.0613174438,2007,2019,2638,2041,2041,3058,3439,3437,3290,3372,3118,3003,3143,3089,3216,2700,3371,3392,3218,3349,3112,3337,3380,3188
1508403367547678472,123,1508403367547260752,plot_matl,0.25,-2000.0,0.214534446597,-0.0498260781169,-0.0354655534029,-82.6287612915,0.349065840244,0.0215917024761,-0.0126019688323,0.214622586966,-0.00168400548864,-0.00168400548864,-0.000457624701085,-0.0137019297108,-83.0403366089,-83.0403366089,0.793738663197,96.620803833,2011,2051,2145,2036,2036,2620,3291,3323,3122,3278,2984,2957,3033,3083,3159,2999,3399,3392,3248,3289,2959,3272,3303,3025,0.010050493,1.230056635,1.236210639,0.401425719261,4500.0,0.369308084249,-0.0298384986818,-0.0321176573634,144.529449463,0.0,6000.0,-0.0126037141308,-0.000422719371272,-0.0126037141308,75.7474899292,0.349065840244,0.0216827709228,-0.0280959010124,0.308539152145,-0.0236636847258,-0.0236636847258,-0.000175837965799,0.0146180801094,161.675918579,161.675918579,-236.95098877,-70.121635437,2024,2023,2637,2039,2039,3058,3440,3437,3290,3373,3116,3001,3143,3089,3217,2699,3371,3390,3218,3347,3111,3339,3378,3188
1508403367557507992,124,1508403367557217276,plot_matl,0.25,-2000.0,0.214494481683,-0.0110862953588,-0.0355055257678,-73.4504013062,0.349065840244,0.0215917024761,-0.0125934416428,0.214502081275,-0.00113811460324,-0.00113811460324,-0.000630319642369,-0.0112388189882,-82.9759521484,-82.9759521484,0.595839262009,96.7244491577,2011,2051,2145,2036,2036,2620,3291,3323,3122,3278,2984,2957,3033,3083,3159,2999,3399,3392,3248,3289,2959,3272,3303,3025,0.009955415,1.240013325,1.23447146,0.401425719261,4500.0,0.37065756321,-0.00262594781816,-0.0307681746781,138.456787109,0.0,6000.0,-0.0126037141308,-0.000422719371272,-0.0126037141308,75.7474899292,0.349065840244,0.0240919683129,-0.0280950255692,0.30834081769,0.000139488984132,0.000139488984132,0.0151536120102,0.0186395030469,161.619232178,161.619232178,-236.969390869,-70.2007751465,2024,2023,2637,2039,2039,3058,3440,3437,3290,3373,3116,3001,3143,3089,3217,2699,3371,3390,3218,3347,3111,3339,3378,3188
1508403367567416707,125,1508403367567207296,plot_matl,0.25,-2000.0,0.214494481683,-0.0110862953588,-0.0355055257678,-73.4504013062,0.349065840244,0.0215917024761,-0.0125896437094,0.214498206973,-0.0011110403575,-0.0011110403575,-0.000715376751032,0.025301322341,-82.8989639282,-82.8989639282,0.654566526413,96.9075546265,2019,2060,2145,2036,2036,2623,3293,3321,3123,3277,2984,2956,3031,3095,3159,2999,3399,3392,3248,3289,2959,3272,3303,3025,0.009989006,1.250002527,1.24862575,0.401425719261,4500.0,0.37065756321,-0.00262594781816,-0.0307681746781,138.456787109,0.0,6000.0,-0.0125832464546,-0.000845397764351,-0.0125832464546,75.7297210693,0.349065840244,0.0240919683129,-0.0280612744391,0.308435827494,0.000109012828034,0.000109012828034,0.014566895552,0.0193458404392,161.702423096,161.702423096,-236.738632202,-69.9994812012,2029,2032,2637,2039,2039,3057,3439,3436,3288,3373,3117,3003,3142,3101,3217,2699,3371,3390,3218,3347,3111,3339,3378,3188
1508403367577431535,126,1508403367577208553,plot_matl,0.25,-2000.0,0.21449816227,0.0254940576851,-0.0355018340051,-64.9119110107,0.349065840244,0.0215917024761,-0.0125703727826,0.21449816227,-0.00122449058108,-0.00122449058108,-0.001116724452,0.0254940576851,-82.976234436,-82.976234436,0.901636660099,96.9712677002,2022,2045,2145,2036,2036,2623,3293,3321,3123,3277,2984,2956,3031,3095,3168,3007,3409,3400,3254,3297,2966,3276,3308,3029,0.010001466,1.260004033,1.260184716,0.401425719261,4500.0,0.37065756321,-0.00244898116216,-0.0307681746781,138.456787109,0.0,6000.0,-0.0125703727826,-0.001116724452,-0.0125703727826,75.7359619141,0.349065840244,0.0240919683129,-0.0280668586493,0.308372229338,9.48264059843e-05,9.48264059843e-05,-0.000680613680743,0.0202363692224,161.552383423,161.552383423,-236.642623901,-70.1719512939,2026,2013,2637,2039,2039,3057,3439,3436,3288,3373,3117,3003,3142,3101,3227,2708,3381,3398,3225,3355,3116,3344,3384,3191
1508403367587422610,127,1508403367587209333,plot_matl,0.25,-2000.0,0.214538410306,0.0248954165727,-0.0354615934193,-64.7206573486,0.349065840244,0.0215917024761,-0.0125691369176,0.214538410306,-0.0014777573524,-0.0014777573524,-0.00113389117178,0.0248954165727,-83.2100830078,-83.2100830078,0.815997362137,96.8325042725,1998,2037,2145,2035,2035,2626,3294,3326,3124,3280,2988,2957,3031,3095,3168,3007,3409,3400,3254,3297,2966,3276,3308,3029,0.010000353,1.27000455,1.270044831,0.401425719261,4500.0,0.37065756321,-0.00295551470481,-0.0307681746781,138.456787109,0.0,6000.0,-0.0125691369176,-0.00113389117178,-0.0125691369176,75.7517547607,0.349065840244,0.0216827709228,-0.0280866529793,0.308423995972,-0.0247066374868,-0.0247066374868,-0.000300293584587,0.018736621365,161.51751709,161.51751709,-236.663803101,-70.3880615234,2013,2010,2637,2038,2038,3062,3442,3441,3293,3375,3119,3004,3142,3101,3227,2708,3381,3398,3225,3355,3116,3344,3384,3191
1508403367597614630,128,1508403367597229322,plot_matl,0.25,-2000.0,0.214532136917,-0.0126869892702,-0.0354678593576,-73.7862701416,0.349065840244,0.0202422197908,-0.0125911654904,0.214532136917,-0.0148220760748,-0.0148220760748,-0.000685525301378,-0.0126869892702,-83.4433059692,-83.4433059692,0.331590861082,96.715965271,2006,2040,2145,2035,2035,2626,3294,3326,3124,3280,2988,2957,3033,3084,3159,2999,3402,3393,3249,3294,2961,3273,3308,3029,0.010021826,1.280025469,1.282793728,0.401425719261,4500.0,0.369308084249,-0.0296441521496,-0.0321176573634,144.529449463,0.0,6000.0,-0.0125911654904,-0.000685525301378,-0.0125911654904,75.7508850098,0.349065840244,0.0240919683129,-0.0280898306519,0.308343291283,-0.00030426424928,-0.00030426424928,-0.000245859642746,-0.041823823005,161.532272339,161.532272339,-236.907791138,-70.4692764282,2016,2018,2637,2038,2038,3062,3442,3441,3293,3375,3119,3004,3144,3090,3219,2701,3374,3395,3218,3348,3114,3338,3384,3191
1508403367607422431,129,1508403367607212573,plot_matl,0.25,-2000.0,0.214487433434,-0.0495543777943,-0.0355125591159,-82.6920547485,0.349065840244,0.0202422197908,-0.0125852199271,0.214487433434,-0.0148218814284,-0.0148218814284,-0.000800595269538,-0.0495543777943,-83.55909729,-83.55909729,0.263586074114,96.8764343262,2003,2043,2146,2034,2034,2623,3292,3324,3124,3279,2988,2957,3033,3084,3159,2999,3402,3393,3249,3294,2961,3273,3303,3025,0.009981887,1.290008064,1.287663423,0.401425719261,4500.0,0.369308084249,-0.0296437628567,-0.0321176573634,144.529449463,0.0,6000.0,-0.0125852199271,-0.000800595269538,-0.0125852199271,75.7500457764,0.349065840244,0.0216827709228,-0.0280924346298,0.308342814445,-0.0227787736803,-0.0227787736803,-0.000201284259674,-0.0421022288501,161.515640259,161.515640259,-236.860214233,-70.5348358154,2011,2015,2638,2039,2039,3061,3441,3437,3290,3374,3119,3004,3144,3090,3219,2701,3374,3395,3218,3348,3114,3338,3380,3188
1508403367617454144,130,1508403367617209453,plot_matl,0.25,-2000.0,0.214457541704,-0.0109198149294,-0.0355424582958,-73.6017684937,0.349065840244,0.0215917024761,-0.0125807477161,0.214457541704,-0.000710739055648,-0.000710739055648,-0.000889925810043,-0.0109198149294,-83.6004180908,-83.6004180908,-0.00887428037822,96.7140884399,1999,2038,2146,2034,2034,2623,3292,3324,3124,3279,2986,2957,3033,3083,3157,2999,3399,3392,3249,3290,2961,3273,3303,3025,0.009996301,1.30000471,1.29951913,0.401425719261,4500.0,0.37065756321,-0.0014214781113,-0.0307681746781,138.456787109,0.0,6000.0,-0.0125807477161,-0.000889925810043,-0.0125807477161,75.75440979,0.349065840244,0.0240919683129,-0.0280945710838,0.308282077312,0.000361226382665,0.000361226382665,-0.000164705721545,-0.0411248318851,161.543670654,161.543670654,-236.659439087,-70.4888076782,2011,2016,2638,2039,2039,3061,3441,3437,3290,3374,3118,3003,3142,3088,3218,2701,3371,3390,3218,3349,3114,3338,3380,3188
1508403367627411689,131,1508403367627209875,plot_matl,0.25,-2000.0,0.214364171028,-0.00892884191126,-0.0356358215213,-73.3091888428,0.349065840244,0.0215917024761,-0.012588724494,0.214364171028,-0.00106899812818,-0.00106899812818,-0.000728943385184,-0.00892884191126,-83.8176574707,-83.8176574707,0.0867969468236,96.8437652588,2002,2066,2146,2034,2034,2623,3291,3324,3124,3279,2986,2957,3033,3083,3157,2999,3399,3392,3249,3290,2959,3272,3303,3026,0.010000438,1.310005278,1.310057378,0.401425719261,4500.0,0.37065756321,-0.00213799625635,-0.0307681746781,138.456787109,0.0,6000.0,-0.012588724494,-0.000728943385184,-0.012588724494,75.7510681152,0.349065840244,0.0216827709228,-0.0280831288546,0.308189660311,-0.0243735350668,-0.0243735350668,-0.000400130578782,0.0224409103394,161.577392578,161.577392578,-236.514434814,-70.4811248779,2016,2027,2639,2040,2040,3060,3439,3438,3290,3374,3118,3003,3142,3088,3218,2701,3371,3390,3218,3349,3113,3338,3380,3188
1508403367637339350,132,1508403367637211638,plot_matl,0.25,-2000.0,0.214354246855,-0.00865608640015,-0.0356457494199,-73.2804641724,0.349065840244,0.0215917024761,-0.012595269829,0.214354246855,-0.00136337277945,-0.00136337277945,-0.000596834113821,-0.00865608640015,-83.7830886841,-83.7830886841,0.264761120081,96.8762969971,2005,2040,2146,2034,2034,2623,3291,3324,3121,3278,2987,2956,3032,3084,3156,2999,3399,3393,3249,3290,2959,3272,3303,3026,0.010001588,1.32000735,1.320209616,0.401425719261,4500.0,0.37065756321,-0.0027267455589,-0.0307681746781,138.456787109,0.0,6000.0,-0.012595269829,-0.000596834113821,-0.012595269829,75.7506637573,0.349065840244,0.0240919683129,-0.0280998386443,0.30821838975,-0.0013389729429,-0.0013389729429,-7.33906708774e-05,-0.0401183590293,161.579910278,161.579910278,-236.485305786,-70.7855834961,2015,2019,2639,2040,2040,3060,3439,3438,3290,3373,3118,3003,3144,3089,3217,2699,3372,3392,3218,3349,3113,3338,3380,3188
1508403367647362111,133,1508403367647201865,plot_matl,0.25,-2000.0,0.214344874024,-0.00840411987156,-0.0356551334262,-73.2598800659,0.349065840244,0.0215917024761,-0.012605022639,0.214480251074,-0.00307771330699,-0.00307771330699,-0.000400022312533,0.0268117692322,-83.4641418457,-83.4641418457,0.352036267519,96.7208251953,2022,2059,2146,2033,2033,2624,3291,3324,3121,3278,2987,2956,3032,3084,3156,2999,3399,3393,3246,3293,2960,3272,3304,3025,0.009989566,1.329997071,1.328612278,0.401425719261,4500.0,0.37065756321,-0.00571838254109,-0.0307681746781,138.456787109,0.0,6000.0,-0.0126006342471,-0.000488576653879,-0.0126006342471,75.750831604,0.349065840244,0.0265011657029,-0.0280895605683,0.308058261871,0.0256881937385,0.0256881937385,-0.000289683346637,-0.0370855182409,161.614196777,161.614196777,-236.336975098,-70.5592422485,2026,2027,2638,2035,2035,3059,3439,3438,3290,3373,3118,3003,3144,3089,3217,2699,3372,3392,3218,3347,3112,3339,3380,3188
1508403367657422515,134,1508403367657204110,plot_matl,0.25,-2000.0,0.214456483722,0.0273535214365,-0.0355435088277,-64.4610595703,0.349065840244,0.0215917024761,-0.012605022639,0.214480251074,-0.00307771330699,-0.00307771330699,-0.000400022312533,0.0268117692322,-83.4641418457,-83.4641418457,0.352036267519,96.7208251953,2050,2064,2146,2033,2033,2624,3293,3324,3122,3279,2986,2954,3033,3083,3158,2999,3399,3393,3246,3293,2960,3272,3304,3025,0.010002076,1.33999934,1.340278184,0.401425719261,4500.0,0.37065756321,-0.00556258251891,-0.0307681746781,138.456787109,0.0,6000.0,-0.0126336058602,0.000170592946233,-0.0126336058602,75.7484207153,0.349065840244,0.0265011657029,-0.0280895605683,0.308058261871,0.0256881937385,0.0256881937385,-0.000289683346637,-0.0370855182409,161.614196777,161.614196777,-236.336975098,-70.5592422485,2040,2037,2638,2035,2035,3059,3440,3439,3290,3372,3119,3002,3143,3089,3218,2699,3372,3392,3218,3347,3112,3339,3380,3188
1508403367667345621,135,1508403367667207214,plot_matl,0.25,-2000.0,0.214456483722,0.0273535214365,-0.0355435088277,-64.4610595703,0.349065840244,0.0215917024761,-0.0126336058602,0.214456483722,-0.00278129125945,-0.00278129125945,0.000170592946233,0.0273535214365,-83.6195907593,-83.6195907593,0.295569360256,96.5881500244,2043,2077,2146,2035,2035,2624,3293,3324,3122,3279,2986,2954,3033,3083,3158,2999,3398,3392,3249,3291,2959,3271,3302,3025,0.010003253,1.350002635,1.350439155,0.401425719261,4500.0,0.37065756321,-0.00556258251891,-0.0307681746781,138.456787109,0.0,6000.0,-0.0126336058602,0.000170592946233,-0.0126336058602,75.7484207153,0.349065840244,0.0240919683129,-0.0280922073871,0.308113217354,0.000664021586999,0.000664021586999,-0.000237262080191,0.0235621612519,161.644332886,161.644332886,-236.474578857,-70.7404251099,2039,2039,2639,2036,2036,3059,3440,3439,3290,3372,3119,3002,3143,3089,3218,2699,3371,3391,3218,3349,3114,3339,3379,3187
1508403367677460593,136,1508403367677213428,plot_matl,0.25,-2000.0,0.214543282986,0.0256734117866,-0.035456713289,-64.5913543701,0.349065840244,0.0215917024761,-0.0126336058602,0.214456483722,-0.00278129125945,-0.00278129125945,0.000170592946233,0.0273535214365,-83.6195907593,-83.6195907593,0.295569360256,96.5881500244,2053,2085,2146,2035,2035,2624,3291,3323,3122,3277,2987,2955,3033,3082,3158,2999,3398,3392,3249,3291,2959,3271,3302,3025,0.010006402,1.360008612,1.360870672,0.401425719261,4500.0,0.37065756321,-0.00605106959119,-0.0307681746781,138.456787109,0.0,6000.0,-0.0126211065799,-8.23744485388e-05,-0.0126211065799,75.7497634888,0.349065840244,0.0240919683129,-0.0280922073871,0.308113217354,0.000664021586999,0.000664021586999,-0.000237262080191,0.0235621612519,161.644332886,161.644332886,-236.474578857,-70.7404251099,2053,2051,2639,2036,2036,3060,3439,3435,3290,3373,3116,3002,3142,3090,3218,2699,3371,3391,3218,3349,3114,3339,3379,3187
1508403367687390990,137,1508403367687208214,plot_matl,0.25,-2000.0,0.214543282986,0.0256734117866,-0.035456713289,-64.5913543701,0.349065840244,0.0215917024761,-0.0126336058602,0.214456483722,-0.00278129125945,-0.00278129125945,0.000170592946233,0.0273535214365,-83.6195907593,-83.6195907593,0.295569360256,96.5881500244,2041,2073,2146,2035,2035,2624,3291,3323,3122,3277,2987,2955,3033,3082,3157,2998,3401,3392,3246,3290,2960,3269,3301,3025,0.009994189,1.370003517,1.369203893,0.401425719261,4500.0,0.37200704217,0.0212867986411,-0.0294186938554,132.384124756,0.0,6000.0,-0.0126211065799,-8.23744485388e-05,-0.0126211065799,75.7497634888,0.349065840244,0.0240919683129,-0.0280922073871,0.308113217354,0.000664021586999,0.000664021586999,-0.000237262080191,0.0235621612519,161.644332886,161.644332886,-236.474578857,-70.7404251099,2042,2041,2639,2036,2036,3060,3439,3435,3290,3373,3116,3002,3142,3090,3217,2698,3372,3389,3219,3346,3111,3337,3380,3187
1508403367697476387,138,1508403367697218438,plot_matl,0.25,-2000.0,0.21458864212,0.0248126387596,-0.0354113541543,-64.8575210571,0.349065840244,0.0229411832988,-0.0126217827201,0.214609265327,0.00922180619091,0.00922180619091,-6.74614857417e-05,0.0243929754943,-83.9191894531,-83.9191894531,0.675696194172,96.63722229,2034,2068,2145,2036,2036,2623,3291,3323,3122,3279,2985,2957,3033,3082,3157,2998,3401,3392,3246,3290,2960,3269,3301,3025,0.010010717,1.380013615,1.381478946,0.401425719261,4500.0,0.37065756321,-0.00774126267061,-0.0307681746781,138.456787109,0.0,6000.0,-0.012622336857,-5.52646815777e-05,-0.012622336857,75.7491989136,0.349065840244,0.0240919683129,-0.0280897077173,0.308149188757,-2.06849454116e-05,-2.06849454116e-05,-0.000299442675896,0.0226195398718,161.782150269,161.782150269,-236.559661865,-71.1905136108,2038,2033,2638,2041,2041,3059,3440,3436,3290,3374,3118,3003,3142,3090,3217,2698,3372,3389,3219,3346,3111,3337,3380,3187
1508403367707411094,139,1508403367707239104,plot_matl,0.25,-2000.0,0.21458864212,0.0248126387596,-0.0354113541543,-64.8575210571,0.349065840244,0.0229411832988,-0.0126217827201,0.214609265327,0.00922180619091,0.00922180619091,-6.74614857417e-05,0.0243929754943,-83.9191894531,-83.9191894531,0.675696194172,96.63722229,2024,2070,2145,2036,2036,2623,3291,3323,3122,3279,2985,2957,3031,3081,3157,2998,3400,3393,3245,3292,2960,3272,3301,3025,0.010020847,1.390035016,1.392897733,0.401425719261,4500.0,0.37065756321,-0.00774126267061,-0.0307681746781,138.456787109,0.0,6000.0,-0.012622336857,-5.52646815777e-05,-0.012622336857,75.7491989136,0.349065840244,0.0240919683129,-0.0280897077173,0.308149188757,-2.06849454116e-05,-2.06849454116e-05,-0.000299442675896,0.0226195398718,161.782150269,161.782150269,-236.559661865,-71.1905136108,2036,2040,2638,2041,2041,3059,3440,3436,3290,3374,3118,3003,3143,3089,3219,2700,3371,3393,3217,3348,3112,3339,3380,3187
1508403367717459321,140,1508403367717274758,plot_matl,0.25,-2000.0,0.214609906077,-0.0135286832228,-0.0353900976479,-74.0042495728,0.349065840244,0.0229411832988,-0.0126217827201,0.214609265327,0.00922180619091,0.00922180619091,-6.74614857417e-05,0.0243929754943,-83.9191894531,-83.9191894531,0.675696194172,96.63722229,2022,2059,2146,2030,2030,2621,3289,3322,3120,3278,2985,2957,3031,3081,3157,2998,3400,3393,3245,3292,2960,3272,3302,3026,0.010036852,1.40007127,1.40515928,0.401425719261,4500.0,0.37065756321,-0.00827726628631,-0.0307681746781,138.456787109,0.0,6000.0,-0.0126348519698,0.000203773757676,-0.0126348519698,75.7485809326,0.349065840244,0.0240919683129,-0.0280897077173,0.308149188757,-2.06849454116e-05,-2.06849454116e-05,-0.000299442675896,0.0226195398718,161.782150269,161.782150269,-236.559661865,-71.1905136108,2025,2030,2637,2039,2039,3057,3438,3438,3289,3372,3118,3003,3143,3089,3219,2700,3371,3393,3217,3348,3112,3339,3378,3185
1508403367727508577,141,1508403367727266995,plot_matl,0.25,-2000.0,0.214629545808,0.0239724330604,-0.0353704541922,-64.8458862305,0.349065840244,0.0229411832988,-0.0126217827201,0.214609265327,0.00922180619091,0.00922180619091,-6.74614857417e-05,0.0243929754943,-83.9191894531,-83.9191894531,0.675696194172,96.63722229,2021,2049,2146,2030,2030,2621,3289,3322,3120,3278,2986,2955,3032,3083,3157,2996,3399,3394,3246,3291,2960,3272,3302,3026,0.009990948,1.41006287,1.408723668,0.401425719261,4500.0,0.37065756321,-0.00772134633735,-0.0307681746781,138.456787109,0.0,6000.0,-0.0126330377534,0.000166839861777,-0.0126330377534,75.7475204468,0.349065840244,0.0240919683129,-0.0280897077173,0.308149188757,-2.06849454116e-05,-2.06849454116e-05,-0.000299442675896,0.0226195398718,161.782150269,161.782150269,-236.559661865,-71.1905136108,2026,2027,2637,2039,2039,3057,3438,3438,3289,3372,3118,3001,3144,3089,3217,2702,3373,3393,3217,3347,3112,3339,3378,3185
1508403367737671412,142,1508403367737231203,plot_matl,0.25,-2000.0,0.214639544487,0.0238028019667,-0.0353604517877,-64.8464431763,0.349065840244,0.0229411832988,-0.0126315513626,0.214577868581,0.00948171038181,0.00948171038181,0.000136577407829,0.0250734724104,-83.6885681152,-83.6885681152,0.861975610256,96.5573196411,2009,2054,2145,2030,2030,2620,3290,3323,3120,3278,2986,2955,3032,3083,3157,2996,3399,3394,3246,3291,2958,3270,3303,3025,0.009964253,1.420027443,1.414923926,0.401425719261,4500.0,0.37065756321,-0.00685141095892,-0.0307681746781,138.456787109,0.0,6000.0,-0.0126429833472,0.000373192160623,-0.0126429833472,75.7450866699,0.349065840244,0.0265011657029,-0.0280936900526,0.308515906334,0.0241425465792,0.0241425465792,-0.000196411347133,0.0151699939743,161.615081787,161.615081787,-236.499725342,-70.4769821167,2017,2023,2638,2039,2039,3059,3440,3438,3289,3372,3118,3001,3144,3089,3217,2702,3373,3393,3217,3347,3113,3337,3379,3189
1508403367747635032,143,1508403367747269211,plot_matl,0.25,-2000.0,0.214639544487,0.0238028019667,-0.0353604517877,-64.8464431763,0.349065840244,0.0229411832988,-0.0126315513626,0.214577868581,0.00948171038181,0.00948171038181,0.000136577407829,0.0250734724104,-83.6885681152,-83.6885681152,0.861975610256,96.5573196411,2022,2064,2145,2030,2030,2620,3290,3323,3120,3279,2985,2955,3033,3084,3159,2998,3401,3392,3246,3291,2958,3270,3303,3025,0.010036963,1.430064842,1.435285709,0.401425719261,4500.0,0.37065756321,-0.00559857860208,-0.0307681746781,138.456787109,0.0,6000.0,-0.0126429833472,0.000373192160623,-0.0126429833472,75.7450866699,0.349065840244,0.0265011657029,-0.0280936900526,0.308515906334,0.0241425465792,0.0241425465792,-0.000196411347133,0.0151699939743,161.615081787,161.615081787,-236.499725342,-70.4769821167,2025,2036,2638,2039,2039,3059,3440,3438,3288,3373,3118,3002,3142,3089,3217,2702,3370,3393,3217,3347,3113,3337,3379,3189
1508403367757584111,144,1508403367757220727,plot_matl,0.25,-2000.0,0.214547261596,-0.0122365197167,-0.0354527421296,-73.8320617676,0.349065840244,0.0229411832988,-0.0126315513626,0.214577868581,0.00948171038181,0.00948171038181,0.000136577407829,0.0250734724104,-83.6885681152,-83.6885681152,0.861975610256,96.5573196411,2034,2070,2145,2031,2031,2622,3290,3323,3120,3279,2985,2955,3033,3084,3159,2998,3401,3392,3248,3291,2959,3270,3302,3026,0.009951725,1.440016663,1.4330484,0.401425719261,4500.0,0.37065756321,-0.00559857860208,-0.0307681746781,138.456787109,0.0,6000.0,-0.0126396864653,0.00030536626582,-0.0126396864653,75.7481689453,0.349065840244,0.0265011657029,-0.0280936900526,0.308515906334,0.0241425465792,0.0241425465792,-0.000196411347133,0.0151699939743,161.615081787,161.615081787,-236.499725342,-70.4769821167,2031,2036,2637,2042,2042,3061,3440,3438,3288,3373,3118,3002,3142,3089,3217,2702,3370,3393,3217,3348,3112,3338,3379,3186
