%time,field.header.seq,field.header.stamp,field.header.frame_id,field.FFJ4_set_point,field.FFJ4_position_gain,field.FFJ4_process_value,field.FFJ4_process_value_dot,field.FFJ4_error,field.FFJ4_command,field.FFJ1,field.FFJ2,field.FFJ3,field.FFJ4,field.FFJ1_dot,field.FFJ2_dot,field.FFJ3_dot,field.FFJ4_dot,field.FFJ1_tao,field.FFJ2_tao,field.FFJ3_tao,field.FFJ4_tao,field.pac0,field.pac1,field.pdc0,field.tac0,field.tdc0,field.el0,field.el1,field.el2,field.el3,field.el4,field.el5,field.el6,field.el7,field.el8,field.el9,field.el10,field.el11,field.el12,field.el13,field.el14,field.el15,field.el16,field.el17,field.el18,field.dt,field.time,field.test_time2,field.FFJ0_set_point,field.FFJ0_position_gain,field.FFJ0_process_value,field.FFJ0_process_value_dot,field.FFJ0_error,field.FFJ0_command,field.FFJ3_set_point,field.FFJ3_position_gain,field.FFJ3_process_value,field.FFJ3_process_value_dot,field.FFJ3_error,field.FFJ3_command,field.MFJ1,field.MFJ2,field.MFJ3,field.MFJ4,field.MFJ1_dot,field.MFJ2_dot,field.MFJ3_dot,field.MFJ4_dot,field.MFJ1_tao,field.MFJ2_tao,field.MFJ3_tao,field.MFJ4_tao,field.Mpac0,field.Mpac1,field.Mpdc0,field.Mtac0,field.Mtdc0,field.Mel0,field.Mel1,field.Mel2,field.Mel3,field.Mel4,field.Mel5,field.Mel6,field.Mel7,field.Mel8,field.Mel9,field.Mel10,field.Mel11,field.Mel12,field.Mel13,field.Mel14,field.Mel15,field.Mel16,field.Mel17,field.Mel18
1508403200235745415,114,1508403200235179512,plot_matl,0.25,-1000.0,0.193910747766,-0.0123443268239,-0.0560892447829,-59.0541801453,0.349065840244,0.0323875546455,-0.0112133082002,0.193890497088,-0.000914190313779,-0.000914190313779,-0.00168177532032,-0.0118732266128,-33.6816596985,-33.6816596985,-1.21704232693,115.236541748,2018,2080,2126,2035,2035,2639,3294,3327,3127,3280,2989,2959,3037,3080,3157,2973,3393,3387,3237,3287,2948,3270,3301,3020,0.010031031,1.14002314,1.143537534,0.401425719261,4500.0,0.38010391593,-0.0286910571158,-0.021321805194,95.9481277466,0.0,6000.0,-0.0112047707662,-0.00185559829697,-0.0112047707662,67.7816085815,0.349065840244,0.0240919683129,-0.0297048073262,0.305866003036,-0.00118579040281,-0.00118579040281,0.00167765363585,0.00677106855437,156.841415405,156.841415405,-245.301757812,-63.4023666382,2030,2039,2639,2037,2037,3060,3442,3440,3294,3374,3122,2995,3139,3082,3216,2697,3372,3393,3220,3352,3118,3338,3382,3190
1508403200245615965,115,1508403200245171588,plot_matl,0.25,-1000.0,0.193869233131,-0.0114786932245,-0.0561307743192,-58.6683235168,0.349065840244,0.0323875546455,-0.0112133082002,0.193890497088,-0.000914190313779,-0.000914190313779,-0.00168177532032,-0.0118732266128,-33.6816596985,-33.6816596985,-1.21704232693,115.236541748,2044,2091,2127,2036,2036,2636,3295,3327,3127,3280,2989,2959,3037,3080,3157,2973,3393,3387,3237,3286,2950,3270,3301,3020,0.009991485,1.150015396,1.149020775,0.401425719261,4500.0,0.38145339489,-0.00165451760404,-0.0199723243713,89.8754577637,0.0,6000.0,-0.0112211629748,-0.00152185314801,-0.0112211629748,67.7434387207,0.349065840244,0.0240919683129,-0.0297048073262,0.305866003036,-0.00118579040281,-0.00118579040281,0.00167765363585,0.00677106855437,156.841415405,156.841415405,-245.301757812,-63.4023666382,2053,2053,2640,2038,2038,3058,3440,3440,3294,3374,3122,2995,3139,3082,3216,2697,3372,3393,3220,3352,3117,3339,3382,3192
1508403200255470484,116,1508403200255188480,plot_matl,0.25,-1000.0,0.193839803338,-0.0108341574669,-0.0561602003872,-58.5237998962,0.349065840244,0.0323875546455,-0.0112133082002,0.193890497088,-0.000914190313779,-0.000914190313779,-0.00168177532032,-0.0118732266128,-33.6816596985,-33.6816596985,-1.21704232693,115.236541748,2041,2073,2127,2036,2036,2636,3295,3326,3126,3279,2987,2959,3036,3081,3156,2975,3394,3387,3237,3286,2950,3270,3301,3020,0.010015449,1.160031672,1.161792084,0.401425719261,4500.0,0.38280287385,0.0248933751136,-0.0186228435487,83.8027954102,0.0,6000.0,-0.0112234894186,-0.00147891475353,-0.0112234894186,67.7372665405,0.349065840244,0.0240919683129,-0.0297048073262,0.305866003036,-0.00118579040281,-0.00118579040281,0.00167765363585,0.00677106855437,156.841415405,156.841415405,-245.301757812,-63.4023666382,2038,2041,2640,2038,2038,3058,3440,3440,3291,3377,3121,2994,3141,3085,3215,2699,3373,3393,3220,3352,3117,3339,3382,3192
1508403200265587579,117,1508403200265198898,plot_matl,0.25,-1000.0,0.193809941411,-0.0102807721123,-0.0561900660396,-58.5555267334,0.349065840244,0.0323875546455,-0.0112133082002,0.193890497088,-0.000914190313779,-0.000914190313779,-0.00168177532032,-0.0118732266128,-33.6816596985,-33.6816596985,-1.21704232693,115.236541748,2037,2090,2126,2036,2036,2636,3295,3326,3126,3279,2987,2959,3036,3081,3156,2975,3394,3385,3237,3285,2949,3269,3302,3021,0.010009981,1.170042065,1.171167777,0.401425719261,4500.0,0.38145339489,-0.00294773466885,-0.0199723243713,89.8754577637,0.0,6000.0,-0.0112366564572,-0.0012100309832,-0.0112366564572,67.7634658813,0.349065840244,0.0240919683129,-0.0297048073262,0.305866003036,-0.00118579040281,-0.00118579040281,0.00167765363585,0.00677106855437,156.841415405,156.841415405,-245.301757812,-63.4023666382,2036,2047,2640,2041,2041,3058,3440,3440,3291,3377,3121,2994,3141,3085,3215,2699,3373,3394,3220,3353,3118,3338,3382,3189
1508403200275452885,118,1508403200275172281,plot_matl,0.25,-1000.0,0.193782553077,-0.00972493551672,-0.0562174506485,-58.5077133179,0.349065840244,0.0337370336056,-0.0112422676757,0.193833366036,0.012027669698,0.012027669698,-0.00109545316081,-0.0107488166541,-33.6420478821,-33.6420478821,-1.82085931301,115.267868042,2046,2083,2126,2036,2036,2635,3294,3323,3122,3278,2988,2958,3034,3078,3156,2975,3394,3385,3237,3285,2949,3269,3302,3021,0.009972782,1.180015262,1.176788276,0.401425719261,4500.0,0.38145339489,-0.00290259276517,-0.0199723243713,89.8754577637,0.0,6000.0,-0.0112344948575,0.0121689531952,-0.0112344948575,63.8299560547,0.349065840244,0.0240919683129,-0.0297167673707,0.305902987719,-0.000774058513343,-0.000774058513343,0.0018806217704,0.00616556731984,156.742111206,156.742111206,-244.739822388,-63.7607650757,2047,2051,2640,2041,2041,3059,3442,3438,3292,3377,3121,2994,3139,3083,3216,2699,3373,3394,3220,3353,3118,3338,3382,3189
1508403200285441756,119,1508403200285176509,plot_matl,0.25,-1000.0,0.193794921041,-0.00996832828969,-0.05620508641,-58.5372695923,0.349065840244,0.0337370336056,-0.0112422676757,0.193833366036,0.012027669698,0.012027669698,-0.00109545316081,-0.0107488166541,-33.6420478821,-33.6420478821,-1.82085931301,115.267868042,2028,2071,2126,2036,2036,2635,3294,3323,3122,3278,2988,2958,3034,3078,3156,2974,3394,3384,3237,3286,2947,3271,3301,3022,0.01000443,1.190019711,1.19052717,0.401425719261,4500.0,0.38145339489,-0.00334727787413,-0.0199723243713,89.8754577637,0.0,6000.0,-0.0112346736714,-0.00124965701252,-0.0112346736714,67.7686920166,0.349065840244,0.0240919683129,-0.0297167673707,0.305902987719,-0.000774058513343,-0.000774058513343,0.0018806217704,0.00616556731984,156.742111206,156.742111206,-244.739822388,-63.7607650757,2029,2037,2638,2041,2041,3059,3442,3438,3292,3377,3121,2994,3139,3083,3216,2701,3373,3393,3221,3350,3116,3337,3382,3190
1508403200295567545,120,1508403200295162442,plot_matl,0.25,-1000.0,0.193698406219,-0.0066299517639,-0.0563015937805,-66.4087295532,0.349065840244,0.0337370336056,-0.0112422676757,0.193833366036,0.012027669698,0.012027669698,-0.00109545316081,-0.0107488166541,-33.6420478821,-33.6420478821,-1.82085931301,115.267868042,2029,2064,2126,2039,2039,2633,3293,3323,3123,3279,2989,2957,3036,3078,3156,2974,3394,3384,3237,3286,2947,3271,3301,3022,0.009986188,1.200006114,1.19834256,0.401425719261,4500.0,0.38145339489,-0.00250797020271,-0.0199723243713,89.8754577637,0.0,6000.0,-0.0112184649333,-0.00159389874898,-0.0112184649333,69.7661895752,0.349065840244,0.0240919683129,-0.0297167673707,0.305902987719,-0.000774058513343,-0.000774058513343,0.0018806217704,0.00616556731984,156.742111206,156.742111206,-244.739822388,-63.7607650757,2025,2031,2638,2043,2043,3057,3441,3440,3291,3374,3119,2995,3139,3083,3216,2701,3373,3393,3221,3350,3116,3337,3382,3190
1508403200305579010,121,1508403200305182963,plot_matl,0.25,-1000.0,0.193801313639,0.0289910063148,-0.0561986863613,-49.3353691101,0.349065840244,0.0337370336056,-0.0112422676757,0.193833366036,0.012027669698,0.012027669698,-0.00109545316081,-0.0107488166541,-33.6420478821,-33.6420478821,-1.82085931301,115.267868042,2032,2082,2126,2039,2039,2633,3293,3323,3123,3279,2989,2957,3036,3080,3157,2985,3403,3396,3245,3292,2953,3274,3306,3022,0.010020022,1.21002663,1.212422662,0.401425719261,4500.0,0.38145339489,-0.00249462923966,-0.0199723243713,89.8754577637,0.0,6000.0,-0.0111933443695,-0.00205288897268,-0.0111933443695,67.7998962402,0.349065840244,0.0240919683129,-0.0297167673707,0.305902987719,-0.000774058513343,-0.000774058513343,0.0018806217704,0.00616556731984,156.742111206,156.742111206,-244.739822388,-63.7607650757,2032,2041,2638,2043,2043,3057,3441,3440,3291,3374,3119,2995,3139,3084,3214,2710,3383,3402,3228,3358,3123,3343,3385,3190
1508403200315353658,122,1508403200315155027,plot_matl,0.25,-1000.0,0.193770676851,-0.00854207575321,-0.0562293305993,-58.5989990234,0.349065840244,0.0323875546455,-0.0111933443695,0.193801313639,-0.00124731461983,-0.00124731461983,-0.00205288897268,0.0289910063148,-34.1045074463,-34.1045074463,-1.76434588432,115.234893799,2013,2067,2126,2039,2039,2636,3299,3327,3127,3281,2991,2957,3036,3080,3157,2985,3403,3396,3245,3292,2953,3274,3306,3027,0.00997073,1.219997722,1.21642906,0.401425719261,4500.0,0.38145339489,-0.0035247229971,-0.0199723243713,89.8754577637,0.0,6000.0,-0.0112007278949,-0.00191510142758,-0.0112007278949,67.803276062,0.349065840244,0.0240919683129,-0.0296817626804,0.306078284979,-0.00149883958511,-0.00149883958511,0.0011746189557,0.00246893451549,156.37336731,156.37336731,-244.61265564,-63.722618103,2020,2032,2639,2039,2039,3059,3442,3441,3296,3377,3122,2995,3139,3084,3214,2710,3383,3402,3228,3358,3123,3343,3385,3195
1508403200325354339,123,1508403200325142901,plot_matl,0.25,-1000.0,0.193857908249,0.0273979250342,-0.0561420917511,-49.5411758423,0.349065840244,0.0323875546455,-0.0111933443695,0.193801313639,-0.00124731461983,-0.00124731461983,-0.00205288897268,0.0289910063148,-34.1045074463,-34.1045074463,-1.76434588432,115.234893799,2007,2049,2126,2039,2039,2636,3299,3327,3127,3281,2991,2960,3039,3082,3158,2975,3392,3387,3238,3286,2949,3274,3306,3027,0.009986284,1.229985097,1.228312932,0.401425719261,4500.0,0.38280287385,0.0228430666029,-0.0186228435487,83.8027954102,0.0,6000.0,-0.011218002066,-0.00156754162163,-0.011218002066,67.795501709,0.349065840244,0.0240919683129,-0.0296817626804,0.306078284979,-0.00149883958511,-0.00149883958511,0.0011746189557,0.00246893451549,156.37336731,156.37336731,-244.61265564,-63.722618103,2013,2022,2639,2039,2039,3059,3442,3441,3296,3377,3122,2997,3140,3084,3218,2701,3376,3395,3222,3353,3118,3343,3385,3195
1508403200335649136,124,1508403200335184958,plot_matl,0.25,-1000.0,0.193824067712,-0.00991548970342,-0.0561759322882,-58.8431816101,0.349065840244,0.0323875546455,-0.0111933443695,0.193801313639,-0.00124731461983,-0.00124731461983,-0.00205288897268,0.0289910063148,-34.1045074463,-34.1045074463,-1.76434588432,115.234893799,2019,2058,2126,2038,2038,2635,3297,3326,3127,3281,2991,2960,3039,3082,3158,2975,3392,3387,3238,3286,2949,3271,3301,3020,0.010043323,1.24002796,1.245372052,0.401425719261,4500.0,0.38145339489,-0.00461298692971,-0.0199723243713,89.8754577637,0.0,6000.0,-0.0112320939079,-0.00128401303664,-0.0112320939079,67.798500061,0.349065840244,0.0240919683129,-0.0296817626804,0.306078284979,-0.00149883958511,-0.00149883958511,0.0011746189557,0.00246893451549,156.37336731,156.37336731,-244.61265564,-63.722618103,2025,2025,2640,2039,2039,3058,3441,3441,3291,3377,3122,2997,3140,3084,3218,2701,3376,3395,3222,3353,3118,3338,3383,3191
1508403200345574264,125,1508403200345168710,plot_matl,0.25,-1000.0,0.193933159113,-0.012247399427,-0.0560668408871,-59.0407485962,0.349065840244,0.0323875546455,-0.0111933443695,0.193801313639,-0.00124731461983,-0.00124731461983,-0.00205288897268,0.0289910063148,-34.1045074463,-34.1045074463,-1.76434588432,115.234893799,1999,2037,2126,2038,2038,2635,3297,3326,3127,3280,2988,2956,3037,3080,3158,2975,3393,3386,3237,3286,2949,3271,3301,3020,0.009983742,1.250011807,1.24796775,0.401425719261,4500.0,0.38145339489,-0.00521544134244,-0.0199723243713,89.8754577637,0.0,6000.0,-0.011218778789,-0.00155030121095,-0.011218778789,67.7654724121,0.349065840244,0.0240919683129,-0.0296817626804,0.306078284979,-0.00149883958511,-0.00149883958511,0.0011746189557,0.00246893451549,156.37336731,156.37336731,-244.61265564,-63.722618103,2013,2008,2640,2039,2039,3058,3441,3441,3291,3377,3124,2994,3139,3085,3217,2700,3372,3392,3221,3353,3118,3338,3383,3191
1508403200355662398,126,1508403200355171876,plot_matl,0.25,-1000.0,0.193917453289,0.0258372146636,-0.0560825429857,-50.1869163513,0.349065840244,0.0323875546455,-0.011218778789,0.193933159113,-0.00260772067122,-0.00260772067122,-0.00155030121095,-0.012247399427,-34.1450271606,-34.1450271606,-1.72356390953,115.42640686,2005,2055,2127,2034,2034,2636,3293,3326,3127,3280,2988,2956,3037,3080,3158,2975,3393,3386,3237,3286,2948,3271,3300,3021,0.010003597,1.260015289,1.260453222,0.401425719261,4500.0,0.38145339489,-0.00427191657946,-0.0199723243713,89.8754577637,0.0,6000.0,-0.0112097980455,-0.0017564999871,-0.0112097980455,67.762802124,0.349065840244,0.0240919683129,-0.0296861696988,0.306130945683,-0.00109854107723,-0.00109854107723,0.0012778196251,0.00147784675937,156.155227661,156.155227661,-244.74357605,-63.2951698303,2009,2017,2640,2045,2045,3059,3440,3441,3291,3377,3124,2994,3139,3085,3217,2700,3372,3392,3221,3354,3118,3338,3379,3191
1508403200365458948,127,1508403200365160883,plot_matl,0.25,-1000.0,0.193904936314,-0.0119344908744,-0.0560950599611,-59.0105781555,0.349065840244,0.0323875546455,-0.011218778789,0.193933159113,-0.00260772067122,-0.00260772067122,-0.00155030121095,-0.012247399427,-34.1450271606,-34.1450271606,-1.72356390953,115.42640686,2017,2051,2127,2034,2034,2636,3293,3323,3125,3279,2990,2958,3037,3081,3157,2974,3392,3386,3237,3286,2948,3271,3300,3021,0.009988016,1.270003869,1.268478032,0.401425719261,4500.0,0.38145339489,-0.00297639798373,-0.0199723243713,89.8754577637,0.0,6000.0,-0.0112254107371,-0.00143804599065,-0.0112254107371,67.777130127,0.349065840244,0.0240919683129,-0.0296861696988,0.306130945683,-0.00109854107723,-0.00109854107723,0.0012778196251,0.00147784675937,156.155227661,156.155227661,-244.74357605,-63.2951698303,2021,2024,2640,2045,2045,3059,3440,3440,3292,3375,3120,2996,3140,3083,3217,2699,3373,3392,3221,3354,3118,3338,3379,3191
1508403200375505120,128,1508403200375163651,plot_matl,0.25,-1000.0,0.193861782551,-0.0111108757555,-0.0561382211745,-59.0275650024,0.349065840244,0.0323875546455,-0.011218778789,0.193933159113,-0.00260772067122,-0.00260772067122,-0.00155030121095,-0.012247399427,-34.1450271606,-34.1450271606,-1.72356390953,115.42640686,2016,2041,2126,2035,2035,2636,3293,3323,3125,3279,2990,2958,3037,3081,3157,2974,3392,3387,3237,3287,2951,3269,3301,3023,0.010002926,1.280006747,1.280374528,0.401425719261,4500.0,0.38145339489,-0.00286258617416,-0.0199723243713,89.8754577637,0.0,6000.0,-0.0112264361233,-0.00142914964817,-0.0112264361233,67.8052062988,0.349065840244,0.0240919683129,-0.0296861696988,0.306130945683,-0.00109854107723,-0.00109854107723,0.0012778196251,0.00147784675937,156.155227661,156.155227661,-244.74357605,-63.2951698303,2011,2010,2641,2043,2043,3059,3440,3440,3292,3375,3120,2996,3140,3083,3217,2699,3373,3394,3221,3350,3117,3338,3380,3191
1508403200385366745,129,1508403200385156057,plot_matl,0.25,-1000.0,0.193922311068,-0.0124052362517,-0.0560776926577,-58.806137085,0.349065840244,0.0323875546455,-0.011218778789,0.193933159113,-0.00260772067122,-0.00260772067122,-0.00155030121095,-0.012247399427,-34.1450271606,-34.1450271606,-1.72356390953,115.42640686,2014,2035,2126,2035,2035,2635,3296,3325,3124,3280,2989,2959,3035,3079,3155,2974,3392,3387,3237,3287,2951,3269,3301,3023,0.009990918,1.289998753,1.288828422,0.401425719261,4500.0,0.38010391593,-0.0296203289181,-0.021321805194,95.9481277466,0.0,6000.0,-0.0112025970593,-0.00190366827883,-0.0112025970593,67.7269210815,0.349065840244,0.0240919683129,-0.0296861696988,0.306130945683,-0.00109854107723,-0.00109854107723,0.0012778196251,0.00147784675937,156.155227661,156.155227661,-244.74357605,-63.2951698303,2015,2012,2641,2043,2043,3058,3440,3440,3293,3377,3123,2995,3139,3082,3216,2699,3373,3394,3221,3350,3117,3338,3380,3191
1508403200395424242,130,1508403200395155538,plot_matl,0.25,-1000.0,0.193943813443,0.0250470675528,-0.0560561902821,-50.4176902771,0.349065840244,0.0310380719602,-0.0112025970593,0.193922311068,-0.014810164459,-0.014810164459,-0.00190366827883,-0.0124052362517,-34.2179870605,-34.2179870605,-1.5234940052,115.831100464,2031,2034,2127,2035,2035,2635,3296,3325,3124,3280,2989,2959,3035,3079,3155,2974,3394,3387,3235,3286,2948,3270,3300,3021,0.009998675,1.299998051,1.29982775,0.401425719261,4500.0,0.38415235281,0.0525467135012,-0.0172733608633,77.7301254272,0.0,6000.0,-0.0112194847316,-0.00155915692449,-0.0112194847316,67.7538604736,0.349065840244,0.0240919683129,-0.0297102667391,0.306103467941,0.00108993356116,0.00108993356116,0.0017580606509,0.00191587919835,156.011901855,156.011901855,-244.790298462,-63.2861251831,2030,2013,2641,2043,2043,3058,3440,3440,3293,3377,3123,2995,3139,3082,3216,2699,3374,3393,3221,3352,3117,3338,3381,3190
1508403200405445471,131,1508403200405174412,plot_matl,0.25,-1000.0,0.193901136518,-0.0119802495465,-0.0560988709331,-58.8255844116,0.349065840244,0.0310380719602,-0.0112025970593,0.193922311068,-0.014810164459,-0.014810164459,-0.00190366827883,-0.0124052362517,-34.2179870605,-34.2179870605,-1.5234940052,115.831100464,2018,2039,2127,2036,2036,2636,3295,3325,3126,3277,2987,2957,3035,3079,3155,2974,3394,3387,3235,3286,2948,3270,3300,3021,0.010020312,1.310017744,1.312660872,0.401425719261,4500.0,0.38280287385,0.0251130573452,-0.0186228435487,83.8027954102,0.0,6000.0,-0.0112334014848,-0.00127525231801,-0.0112334014848,67.7547912598,0.349065840244,0.0240919683129,-0.0297102667391,0.306103467941,0.00108993356116,0.00108993356116,0.0017580606509,0.00191587919835,156.011901855,156.011901855,-244.790298462,-63.2861251831,2019,2016,2641,2038,2038,3057,3439,3440,3294,3374,3121,2993,3137,3082,3216,2699,3374,3393,3221,3352,3117,3338,3381,3190
1508403200415492712,132,1508403200415178715,plot_matl,0.25,-1000.0,0.193928137422,0.0253405496478,-0.0560718551278,-50.4708824158,0.349065840244,0.0310380719602,-0.0112025970593,0.193922311068,-0.014810164459,-0.014810164459,-0.00190366827883,-0.0124052362517,-34.2179870605,-34.2179870605,-1.5234940052,115.831100464,2018,2043,2127,2036,2036,2636,3295,3325,3126,3277,2987,2957,3035,3079,3156,2974,3392,3387,3238,3285,2949,3269,3301,3021,0.010003493,1.320021942,1.320461076,0.401425719261,4500.0,0.38145339489,-0.00128635019064,-0.0199723243713,89.8754577637,0.0,6000.0,-0.0112324934453,0.0121219735593,-0.0112324934453,64.0243682861,0.349065840244,0.0240919683129,-0.0297102667391,0.306103467941,0.00108993356116,0.00108993356116,0.0017580606509,0.00191587919835,156.011901855,156.011901855,-244.790298462,-63.2861251831,2021,2024,2641,2038,2038,3057,3439,3440,3294,3374,3121,2993,3137,3082,3216,2700,3372,3394,3220,3352,3118,3338,3382,3190
1508403200425552762,133,1508403200425196595,plot_matl,0.25,-1000.0,0.193921327591,-0.012410745956,-0.0560786724091,-58.8998794556,0.349065840244,0.0310380719602,-0.0112025970593,0.193922311068,-0.014810164459,-0.014810164459,-0.00190366827883,-0.0124052362517,-34.2179870605,-34.2179870605,-1.5234940052,115.831100464,2028,2048,2127,2039,2039,2634,3294,3324,3124,3277,2987,2957,3035,3079,3156,2974,3392,3387,3238,3285,2949,3269,3301,3021,0.010019478,1.330040413,1.332590574,0.401425719261,4500.0,0.38145339489,-0.000592414697167,-0.0199723243713,89.8754577637,0.0,6000.0,-0.0112440120429,-0.00106723490171,-0.0112440120429,67.758605957,0.349065840244,0.0240919683129,-0.0297102667391,0.306103467941,0.00108993356116,0.00108993356116,0.0017580606509,0.00191587919835,156.011901855,156.011901855,-244.790298462,-63.2861251831,2034,2029,2641,2038,2038,3059,3440,3438,3291,3377,3122,2993,3137,3082,3216,2700,3372,3394,3220,3352,3118,3338,3382,3191
1508403200435685360,134,1508403200435207992,plot_matl,0.25,-1000.0,0.193843007088,-0.0108276121318,-0.0561569929123,-58.7157669067,0.349065840244,0.0323875546455,-0.0112440120429,0.193921327591,-0.000296207348583,-0.000296207348583,-0.00106723490171,-0.012410745956,-34.0858154297,-34.0858154297,-2.22991251945,115.424087524,2028,2057,2127,2039,2039,2634,3294,3324,3124,3277,2987,2959,3034,3080,3156,2973,3394,3385,3236,3286,2947,3269,3301,3021,0.010009918,1.340051217,1.341329012,0.401425719261,4500.0,0.38145339489,-0.000484901043819,-0.0199723243713,89.8754577637,0.0,6000.0,-0.0112293986604,-0.00136399187613,-0.0112293986604,67.7681121826,0.349065840244,0.0265011657029,-0.0297493916005,0.306009560823,0.024050174281,0.024050174281,0.00253048958257,0.00390206393786,156.088989258,156.088989258,-245.013900757,-63.673412323,2032,2029,2641,2038,2038,3059,3440,3438,3291,3377,3122,2994,3140,3082,3216,2700,3374,3394,3221,3350,3118,3338,3382,3191
1508403200445677362,135,1508403200445188454,plot_matl,0.25,-1000.0,0.193846002221,-0.0108932359144,-0.0561540052295,-58.828212738,0.349065840244,0.0323875546455,-0.0112440120429,0.193921327591,-0.000296207348583,-0.000296207348583,-0.00106723490171,-0.012410745956,-34.0858154297,-34.0858154297,-2.22991251945,115.424087524,2033,2067,2126,2039,2039,2635,3297,3323,3124,3277,2987,2959,3034,3080,3156,2973,3394,3385,3236,3286,2947,3270,3299,3022,0.009979137,1.350031511,1.347183495,0.401425719261,4500.0,0.38145339489,-0.0014422145905,-0.0199723243713,89.8754577637,0.0,6000.0,-0.0112290028483,-0.0013546703849,-0.0112290028483,67.7835922241,0.349065840244,0.0265011657029,-0.0297493916005,0.306009560823,0.024050174281,0.024050174281,0.00253048958257,0.00390206393786,156.088989258,156.088989258,-245.013900757,-63.673412323,2028,2033,2640,2042,2042,3058,3440,3438,3292,3377,3122,2994,3140,3082,3216,2700,3374,3394,3221,3350,3118,3338,3381,3192
1508403200455569236,136,1508403200455172898,plot_matl,0.25,-1000.0,0.193919405341,-0.0123838661239,-0.0560806021094,-58.8872795105,0.349065840244,0.0323875546455,-0.0112440120429,0.193921327591,-0.000296207348583,-0.000296207348583,-0.00106723490171,-0.012410745956,-34.0858154297,-34.0858154297,-2.22991251945,115.424087524,2036,2077,2126,2039,2039,2635,3297,3323,3124,3277,2988,2959,3036,3080,3156,2973,3393,3386,3237,3286,2947,3270,3299,3022,0.009984794,1.36001618,1.357931984,0.401425719261,4500.0,0.38145339489,-0.00212161033414,-0.0199723243713,89.8754577637,0.0,6000.0,-0.0112287132069,0.0120545281097,-0.0112287132069,63.9898071289,0.349065840244,0.0265011657029,-0.0297493916005,0.306009560823,0.024050174281,0.024050174281,0.00253048958257,0.00390206393786,156.088989258,156.088989258,-245.013900757,-63.673412323,2035,2039,2640,2042,2042,3058,3440,3438,3292,3375,3123,2994,3138,3083,3216,2698,3372,3394,3222,3350,3118,3338,3381,3192
1508403200465549034,137,1508403200465195117,plot_matl,0.25,-1000.0,0.193919405341,-0.0123838661239,-0.0560806021094,-58.8872795105,0.349065840244,0.0323875546455,-0.0112440120429,0.193921327591,-0.000296207348583,-0.000296207348583,-0.00106723490171,-0.012410745956,-34.0858154297,-34.0858154297,-2.22991251945,115.424087524,2036,2077,2126,2039,2039,2635,3297,3323,3124,3277,2988,2959,3036,3080,3156,2973,3393,3386,3237,3286,2947,3270,3299,3022,0.010021327,1.370038168,1.372921799,0.401425719261,4500.0,0.38145339489,-0.00212161033414,-0.0199723243713,89.8754577637,0.0,6000.0,-0.0112287132069,0.0120545281097,-0.0112287132069,63.9898071289,0.349065840244,0.0265011657029,-0.0297493916005,0.306009560823,0.024050174281,0.024050174281,0.00253048958257,0.00390206393786,156.088989258,156.088989258,-245.013900757,-63.673412323,2035,2039,2640,2042,2042,3058,3440,3438,3292,3375,3123,2994,3138,3083,3216,2698,3372,3394,3222,3350,3118,3338,3381,3192
1508403200475543923,138,1508403200475175353,plot_matl,0.25,-1000.0,0.193837046623,-0.0107760354877,-0.0561629571021,-58.7331199646,0.349065840244,0.0323875546455,-0.0112235443667,0.193816617131,-0.00197454937734,-0.00197454937734,0.0120150018483,-0.0103325713426,-33.9806175232,-33.9806175232,-1.74332141876,114.723861694,2030,2079,2126,2040,2040,2648,3309,3323,3124,3277,2988,2959,3036,3080,3156,2973,3393,3386,3237,3285,2949,3271,3300,3021,0.009980351,1.380018487,1.377288438,0.401425719261,4500.0,0.38145339489,-0.00356410746463,-0.0199723243713,89.8754577637,0.0,6000.0,-0.011230384931,-0.00126985902898,-0.011230384931,67.7742385864,0.349065840244,0.0240919683129,-0.0299027543515,0.30619341135,-0.00032830494456,-0.00032830494456,0.00569614488631,4.8346719268e-05,156.644638062,156.644638062,-245.226669312,-63.9769134521,2038,2042,2640,2039,2039,3070,3451,3438,3292,3375,3123,2994,3138,3083,3216,2698,3372,3394,3222,3352,3115,3338,3382,3190
1508403200485667335,139,1508403200485178617,plot_matl,0.25,-1000.0,0.193841874599,0.0270199738443,-0.0561581254005,-50.0923118591,0.349065840244,0.0323875546455,-0.0112235443667,0.193816617131,-0.00197454937734,-0.00197454937734,0.0120150018483,-0.0103325713426,-33.9806175232,-33.9806175232,-1.74332141876,114.723861694,2030,2074,2126,2040,2040,2648,3309,3336,3133,3287,2995,2966,3040,3086,3161,2977,3397,3386,3237,3285,2949,3271,3300,3021,0.010003689,1.390021999,1.390512771,0.401425719261,4500.0,0.38010391593,-0.0291597656906,-0.021321805194,95.9481277466,0.0,6000.0,-0.0112181557342,-0.0015166674275,-0.0112181557342,67.7506484985,0.349065840244,0.0240919683129,-0.0299027543515,0.30619341135,-0.00032830494456,-0.00032830494456,0.00569614488631,4.8346719268e-05,156.644638062,156.644638062,-245.226669312,-63.9769134521,2040,2048,2640,2039,2039,3070,3451,3449,3301,3384,3127,3000,3144,3087,3220,2700,3378,3394,3222,3352,3115,3338,3382,3190
1508403200495678940,140,1508403200495187406,plot_matl,0.25,-1000.0,0.193947851658,0.0248745717108,-0.0560521520674,-50.0937385559,0.349065840244,0.0323875546455,-0.0112235443667,0.193816617131,-0.00197454937734,-0.00197454937734,0.0120150018483,-0.0103325713426,-33.9806175232,-33.9806175232,-1.74332141876,114.723861694,2033,2085,2126,2039,2039,2648,3309,3336,3133,3287,2995,2966,3040,3086,3161,2977,3397,3390,3239,3289,2951,3272,3304,3022,0.010008013,1.400030884,1.40112182,0.401425719261,4500.0,0.38280287385,0.0256892591715,-0.0186228435487,83.8027954102,0.0,6000.0,-0.0112076420337,-0.00173417746555,-0.0112076420337,67.7808990479,0.349065840244,0.0240919683129,-0.0299027543515,0.30619341135,-0.00032830494456,-0.00032830494456,0.00569614488631,4.8346719268e-05,156.644638062,156.644638062,-245.226669312,-63.9769134521,2038,2047,2639,2041,2041,3070,3451,3449,3301,3384,3127,3000,3144,3087,3220,2700,3378,3398,3224,3355,3122,3343,3385,3191
1508403200505614639,141,1508403200505187601,plot_matl,0.25,-1000.0,0.193894594908,-0.0119875986129,-0.0561054050922,-58.9245796204,0.349065840244,0.0323875546455,-0.0112235443667,0.193816617131,-0.00197454937734,-0.00197454937734,0.0120150018483,-0.0103325713426,-33.9806175232,-33.9806175232,-1.74332141876,114.723861694,2026,2064,2126,2039,2039,2639,3297,3325,3128,3278,2990,2961,3036,3082,3157,2977,3397,3390,3239,3289,2951,3272,3304,3022,0.009999007,1.410030707,1.409859987,0.401425719261,4500.0,0.38145339489,-0.00128925684839,-0.0199723243713,89.8754577637,0.0,6000.0,-0.0111992275342,-0.00191646127496,-0.0111992275342,67.7682952881,0.349065840244,0.0240919683129,-0.0299027543515,0.30619341135,-0.00032830494456,-0.00032830494456,0.00569614488631,4.8346719268e-05,156.644638062,156.644638062,-245.226669312,-63.9769134521,2028,2032,2639,2041,2041,3061,3441,3438,3294,3378,3122,2996,3141,3083,3217,2700,3378,3398,3224,3355,3122,3343,3385,3191
1508403200515723494,142,1508403200515184718,plot_matl,0.25,-1000.0,0.193955525756,0.0246564634144,-0.0560444742441,-50.6090507507,0.349065840244,0.0310380719602,-0.0111791109666,0.193895369768,-0.0139677040279,-0.0139677040279,0.0110931741074,-0.0120173888281,-33.9825286865,-33.9825286865,-2.15314698219,115.790878296,2039,2068,2125,2039,2039,2639,3297,3325,3128,3278,2990,2961,3036,3082,3157,2973,3394,3389,3236,3284,2948,3269,3302,3022,0.009999467,1.420028721,1.419924314,0.401425719261,4500.0,0.38145339489,-0.00058219418861,-0.0199723243713,89.8754577637,0.0,6000.0,-0.0111826714128,-0.00228585232981,-0.0111826714128,67.7261199951,0.349065840244,0.0265011657029,-0.0298343319446,0.305980682373,0.0229150895029,0.0229150895029,0.00428567593917,0.0044217640534,156.497955322,156.497955322,-245.22769165,-64.1749649048,2035,2035,2639,2041,2041,3061,3441,3438,3294,3378,3122,2996,3141,3083,3217,2699,3374,3394,3221,3352,3119,3338,3381,3192
1508403200525539887,143,1508403200525188445,plot_matl,0.25,-1000.0,0.193933710456,0.0250364709646,-0.0560662820935,-50.5569610596,0.349065840244,0.0310380719602,-0.0111791109666,0.193895369768,-0.0139677040279,-0.0139677040279,0.0110931741074,-0.0120173888281,-33.9825286865,-33.9825286865,-2.15314698219,115.790878296,2030,2037,2125,2039,2039,2636,3293,3325,3126,3280,2989,2958,3036,3082,3157,2973,3394,3389,3236,3284,2948,3269,3302,3022,0.010002029,1.430032278,1.430290147,0.401425719261,4500.0,0.38010391593,-0.02482027933,-0.021321805194,95.9481277466,0.0,6000.0,-0.0112032415345,-0.00187063263729,-0.0112032415345,67.732925415,0.349065840244,0.0265011657029,-0.0298343319446,0.305980682373,0.0229150895029,0.0229150895029,0.00428567593917,0.0044217640534,156.497955322,156.497955322,-245.22769165,-64.1749649048,2032,2024,2639,2038,2038,3058,3440,3440,3293,3375,3121,2996,3139,3083,3217,2699,3374,3394,3221,3352,3119,3338,3381,3192
1508403200535605870,144,1508403200535175264,plot_matl,0.25,-1000.0,0.194056987762,0.0225716661662,-0.0559430159628,-50.3778419495,0.349065840244,0.0310380719602,-0.0111791109666,0.193895369768,-0.0139677040279,-0.0139677040279,0.0110931741074,-0.0120173888281,-33.9825286865,-33.9825286865,-2.15314698219,115.790878296,2017,2038,2125,2039,2039,2636,3293,3325,3126,3280,2989,2958,3036,3080,3157,2975,3392,3386,3238,3285,2949,3270,3300,3022,0.009986573,1.440018772,1.438066512,0.401425719261,4500.0,0.38280287385,0.0282601248473,-0.0186228435487,83.8027954102,0.0,6000.0,-0.0111966710538,-0.00200922321528,-0.0111966710538,67.7966384888,0.349065840244,0.0265011657029,-0.0298343319446,0.305980682373,0.0229150895029,0.0229150895029,0.00428567593917,0.0044217640534,156.497955322,156.497955322,-245.22769165,-64.1749649048,2022,2018,2639,2038,2038,3058,3440,3440,3293,3375,3121,2996,3139,3084,3217,2701,3373,3394,3221,3352,3118,3340,3382,3192
1508403200545570176,145,1508403200545167355,plot_matl,0.25,-1000.0,0.19412368536,0.0212564337999,-0.0558763109148,-51.0556221008,0.349065840244,0.0310380719602,-0.0111791109666,0.193895369768,-0.0139677040279,-0.0139677040279,0.0110931741074,-0.0120173888281,-33.9825286865,-33.9825286865,-2.15314698219,115.790878296,2013,2034,2126,2034,2034,2632,3293,3323,3124,3277,2988,2958,3036,3080,3157,2975,3392,3386,3238,3285,2949,3270,3300,3021,0.009990127,1.450010492,1.448568415,0.401425719261,4500.0,0.38145339489,0.000821598572657,-0.0199723243713,89.8754577637,0.0,6000.0,-0.0112036596984,-0.00187984807417,-0.0112036596984,67.7499237061,0.349065840244,0.0265011657029,-0.0298343319446,0.305980682373,0.0229150895029,0.0229150895029,0.00428567593917,0.0044217640534,156.497955322,156.497955322,-245.22769165,-64.1749649048,2021,2018,2638,2038,2038,3058,3442,3439,3295,3374,3121,2996,3139,3084,3217,2701,3373,3394,3221,3352,3118,3340,3382,3190
1508403200555456934,146,1508403200555160404,plot_matl,0.25,-1000.0,0.19412368536,0.0212564337999,-0.0558763109148,-51.0556221008,0.349065840244,0.0323875546455,-0.0112090231851,0.194077029824,0.000642699771561,0.000642699771561,-0.00177055085078,-0.0157096032053,-33.8942565918,-33.8942565918,-1.96808707714,116.006156921,2013,2034,2126,2034,2034,2632,3293,3323,3124,3277,2988,2958,3036,3080,3157,2975,3392,3386,3238,3285,2949,3270,3300,3021,0.00999348,1.460003756,1.45904808,0.401425719261,4500.0,0.38145339489,0.000821598572657,-0.0199723243713,89.8754577637,0.0,6000.0,-0.0112036596984,-0.00187984807417,-0.0112036596984,67.7499237061,0.349065840244,0.0216827709228,-0.0297832675278,0.306070297956,-0.0245837103575,-0.0245837103575,0.00321785686538,-0.0592953599989,156.536651611,156.536651611,-244.809402466,-63.8486785889,2021,2018,2638,2038,2038,3058,3442,3439,3295,3374,3121,2996,3139,3084,3217,2701,3373,3394,3221,3352,3118,3340,3382,3190
1508403200565373829,147,1508403200565149841,plot_matl,0.25,-1000.0,0.19406235218,-0.0173975136131,-0.0559376478195,-59.6081466675,0.349065840244,0.0323875546455,-0.0112090231851,0.194077029824,0.000642699771561,0.000642699771561,-0.00177055085078,-0.0157096032053,-33.8942565918,-33.8942565918,-1.96808707714,116.006156921,2002,2050,2127,2039,2039,2639,3301,3328,3129,3277,2988,2958,3035,3082,3157,2974,3392,3388,3255,3300,2961,3282,3310,3032,0.009987827,1.469992642,1.468210569,0.401425719261,4500.0,0.38145339489,-0.00120740523562,-0.0199723243713,89.8754577637,0.0,6000.0,-0.0112290205434,-0.00135184160899,-0.0112290205434,67.7631912231,0.349065840244,0.0216827709228,-0.0297832675278,0.306070297956,-0.0245837103575,-0.0245837103575,0.00321785686538,-0.0592953599989,156.536651611,156.536651611,-244.809402466,-63.8486785889,2008,2028,2640,2038,2038,3062,3447,3446,3298,3374,3121,2994,3139,3084,3217,2702,3374,3394,3238,3367,3130,3352,3392,3201
1508403200575597771,148,1508403200575224854,plot_matl,0.25,-1000.0,0.194089949131,0.0203324332833,-0.0559100583196,-50.8537445068,0.349065840244,0.0323875546455,-0.0112090231851,0.194077029824,0.000642699771561,0.000642699771561,-0.00177055085078,-0.0157096032053,-33.8942565918,-33.8942565918,-1.96808707714,116.006156921,2018,2060,2127,2039,2039,2639,3301,3328,3129,3283,2992,2962,3040,3083,3159,2976,3396,3387,3238,3300,2961,3282,3310,3032,0.010075176,1.480067783,1.491126048,0.401425719261,4500.0,0.38145339489,0.00092571566347,-0.0199723243713,89.8754577637,0.0,6000.0,-0.0112290205434,-0.00135184160899,-0.0112290205434,67.7631912231,0.349065840244,0.0216827709228,-0.0297832675278,0.306070297956,-0.0245837103575,-0.0245837103575,0.00321785686538,-0.0592953599989,156.536651611,156.536651611,-244.809402466,-63.8486785889,2036,2036,2640,2038,2038,3062,3447,3446,3298,3381,3125,2999,3141,3086,3219,2705,3375,3395,3225,3367,3130,3352,3392,3201
1508403200585490938,149,1508403200585188489,plot_matl,0.25,-1000.0,0.194049760699,0.0214200075716,-0.0559502393007,-50.4925994873,0.349065840244,0.0323875546455,-0.0112090231851,0.194077029824,0.000642699771561,0.000642699771561,-0.00177055085078,-0.0157096032053,-33.8942565918,-33.8942565918,-1.96808707714,116.006156921,1958,2011,2127,2038,2038,2637,3298,3328,3129,3283,2992,2962,3040,3083,3159,2976,3396,3387,3238,3285,2949,3272,3302,3024,0.009964541,1.490032096,1.484716609,0.401425719261,4500.0,0.38145339489,0.00271652359515,-0.0199723243713,89.8754577637,0.0,6000.0,-0.0112283686176,-0.00136055937037,-0.0112283686176,67.7791290283,0.349065840244,0.0216827709228,-0.0297832675278,0.306070297956,-0.0245837103575,-0.0245837103575,0.00321785686538,-0.0592953599989,156.536651611,156.536651611,-244.809402466,-63.8486785889,1973,1978,2641,2040,2040,3060,3442,3446,3298,3381,3125,2999,3141,3086,3219,2705,3375,3395,3225,3354,3119,3339,3385,3191
1508403200595718110,150,1508403200595179128,plot_matl,0.25,-1000.0,0.194118618965,0.0203165858984,-0.0558813810349,-50.8239364624,0.349065840244,0.0323875546455,-0.0112359793857,0.194103896618,0.00120520347264,0.00120520347264,-0.00120724213775,0.0204464066774,-33.8738746643,-33.8738746643,-2.04533028603,116.153503418,2043,2085,2127,2038,2038,2637,3298,3325,3126,3280,2989,2959,3037,3080,3157,2973,3393,3387,3238,3285,2949,3272,3302,3024,0.009989853,1.500022358,1.49847795,0.401425719261,4500.0,0.38145339489,0.00222485489212,-0.0199723243713,89.8754577637,0.0,6000.0,-0.0112405931577,-0.00111430918332,-0.0112405931577,67.7741088867,0.349065840244,0.0240919683129,-0.0297578051686,0.306176394224,0.00166475097649,0.00166475097649,0.00274246861227,-0.00141172658186,156.602645874,156.602645874,-244.865447998,-63.5724945068,2040,2051,2641,2040,2040,3060,3442,3441,3294,3375,3122,2994,3140,3083,3215,2699,3374,3395,3225,3354,3119,3339,3385,3191
1508403200605500597,151,1508403200605187789,plot_matl,0.25,-1000.0,0.194139197469,-0.0178282409906,-0.0558608025312,-60.0286483765,0.349065840244,0.0323875546455,-0.0112359793857,0.194103896618,0.00120520347264,0.00120520347264,-0.00120724213775,0.0204464066774,-33.8738746643,-33.8738746643,-2.04533028603,116.153503418,2024,2057,2127,2037,2037,2637,3298,3325,3126,3280,2989,2959,3037,3080,3157,2973,3393,3389,3238,3285,2950,3272,3302,3022,0.010008724,1.510031407,1.511317324,0.401425719261,4500.0,0.38145339489,0.000849025032949,-0.0199723243713,89.8754577637,0.0,6000.0,-0.0112390136346,-0.00116449245252,-0.0112390136346,67.7872772217,0.349065840244,0.0240919683129,-0.0297578051686,0.306176394224,0.00166475097649,0.00166475097649,0.00274246861227,-0.00141172658186,156.602645874,156.602645874,-244.865447998,-63.5724945068,2024,2025,2640,2035,2035,3060,3442,3441,3294,3375,3122,2994,3140,3083,3215,2699,3374,3395,3222,3352,3117,3339,3382,3190
1508403200615440236,152,1508403200615165533,plot_matl,0.25,-1000.0,0.194127649069,-0.0174199454486,-0.0558723472059,-59.5327987671,0.349065840244,0.0323875546455,-0.0112359793857,0.194103896618,0.00120520347264,0.00120520347264,-0.00120724213775,0.0204464066774,-33.8738746643,-33.8738746643,-2.04533028603,116.153503418,1992,2041,2127,2037,2037,2637,3297,3327,3128,3279,2991,2958,3035,3080,3155,2973,3393,3389,3238,3285,2950,3272,3302,3022,0.009976394,1.520008567,1.516411888,0.401425719261,4500.0,0.38145339489,0.00212077400647,-0.0199723243713,89.8754577637,0.0,6000.0,-0.0112492451444,-0.000955084979068,-0.0112492451444,67.7534332275,0.349065840244,0.0240919683129,-0.0297578051686,0.306176394224,0.00166475097649,0.00166475097649,0.00274246861227,-0.00141172658186,156.602645874,156.602645874,-244.865447998,-63.5724945068,2001,2001,2640,2035,2035,3058,3442,3441,3294,3377,3123,2995,3139,3083,3217,2699,3374,3395,3222,3352,3117,3339,3382,3190
1508403200625586947,153,1508403200625175224,plot_matl,0.25,-1000.0,0.194253519177,0.0181231200695,-0.0557464808226,-51.5191345215,0.349065840244,0.0323875546455,-0.0112359793857,0.194103896618,0.00120520347264,0.00120520347264,-0.00120724213775,0.0204464066774,-33.8738746643,-33.8738746643,-2.04533028603,116.153503418,2039,2106,2126,2037,2037,2637,3297,3327,3128,3279,2991,2958,3035,3080,3155,2974,3395,3385,3237,3286,2948,3270,3301,3022,0.010009748,1.530018401,1.531491444,0.401425719261,4500.0,0.38145339489,0.00322451069951,-0.0199723243713,89.8754577637,0.0,6000.0,-0.01121973712,0.0118700694293,-0.01121973712,63.9507713318,0.349065840244,0.0240919683129,-0.0297578051686,0.306176394224,0.00166475097649,0.00166475097649,0.00274246861227,-0.00141172658186,156.602645874,156.602645874,-244.865447998,-63.5724945068,2050,2064,2640,2035,2035,3058,3442,3441,3294,3377,3123,2995,3139,3083,3217,2697,3373,3392,3222,3353,3118,3338,3381,3192
1508403200635487072,154,1508403200635161978,plot_matl,0.25,-1000.0,0.194285437465,0.0175837762654,-0.0557145662606,-51.3286437988,0.349065840244,0.0337370336056,-0.0112283565104,0.194289401174,0.0145249795169,0.0145249795169,-0.00138064764906,0.0174846369773,-33.6891326904,-33.6891326904,-2.07692122459,116.271644592,2007,2043,2126,2035,2035,2635,3296,3325,3125,3280,2988,2958,3034,3080,3155,2974,3395,3385,3237,3286,2948,3270,3301,3022,0.009986859,1.54000519,1.537976286,0.401425719261,4500.0,0.38145339489,0.00164008536376,-0.0199723243713,89.8754577637,0.0,6000.0,-0.0112335765734,-0.00127396499738,-0.0112335765734,67.784942627,0.349065840244,0.0240919683129,-0.0297705866396,0.306234717369,0.00101281038951,0.00101281038951,0.00301062944345,-0.00151954730973,156.622787476,156.622787476,-244.595108032,-63.5896453857,2020,2019,2640,2038,2038,3058,3439,3440,3293,3375,3123,2995,3140,3083,3217,2697,3373,3392,3222,3353,3118,3338,3381,3192
1508403200645609569,155,1508403200645197568,plot_matl,0.25,-1000.0,0.19421261549,-0.0187282059342,-0.0557873807847,-59.9533805847,0.349065840244,0.0337370336056,-0.0112283565104,0.194289401174,0.0145249795169,0.0145249795169,-0.00138064764906,0.0174846369773,-33.6891326904,-33.6891326904,-2.07692122459,116.271644592,2035,2040,2126,2035,2035,2635,3296,3325,3125,3280,2988,2958,3034,3080,3158,2974,3392,3387,3239,3283,2947,3270,3303,3022,0.010036437,1.55004114,1.555647735,0.401425719261,4500.0,0.38145339489,0.00039698171895,-0.0199723243713,89.8754577637,0.0,6000.0,-0.0112448548898,-0.00104347232264,-0.0112448548898,67.7604446411,0.349065840244,0.0240919683129,-0.0297705866396,0.306234717369,0.00101281038951,0.00101281038951,0.00301062944345,-0.00151954730973,156.622787476,156.622787476,-244.595108032,-63.5896453857,2037,2029,2640,2038,2038,3058,3439,3440,3293,3375,3123,2995,3140,3082,3216,2699,3374,3395,3221,3352,3117,3338,3383,3192
1508403200655477269,156,1508403200655182002,plot_matl,0.25,-1000.0,0.194185301661,-0.0180837139487,-0.0558147020638,-60.1587486267,0.349065840244,0.0337370336056,-0.0112283565104,0.194289401174,0.0145249795169,0.0145249795169,-0.00138064764906,0.0174846369773,-33.6891326904,-33.6891326904,-2.07692122459,116.271644592,2035,2040,2126,2035,2035,2635,3296,3325,3125,3280,2988,2958,3034,3080,3158,2974,3392,3387,3239,3283,2947,3270,3303,3022,0.009982887,1.560025565,1.557330372,0.401425719261,4500.0,0.38145339489,0.000801484507974,-0.0199723243713,89.8754577637,0.0,6000.0,-0.0112541196868,-0.000854119367432,-0.0112541196868,67.7810287476,0.349065840244,0.0240919683129,-0.0297705866396,0.306234717369,0.00101281038951,0.00101281038951,0.00301062944345,-0.00151954730973,156.622787476,156.622787476,-244.595108032,-63.5896453857,2037,2029,2640,2038,2038,3058,3439,3440,3293,3375,3123,2995,3140,3082,3216,2699,3374,3395,3221,3352,3117,3338,3383,3192
1508403200665792052,157,1508403200665165638,plot_matl,0.25,-1000.0,0.194161534309,-0.017563521862,-0.0558384694159,-60.1594963074,0.349065840244,0.0337370336056,-0.0112283565104,0.194289401174,0.0145249795169,0.0145249795169,-0.00138064764906,0.0174846369773,-33.6891326904,-33.6891326904,-2.07692122459,116.271644592,2019,2056,2126,2035,2035,2633,3296,3323,3125,3278,2987,2957,3035,3081,3157,2975,3392,3385,3235,3284,2948,3270,3303,3020,0.00998177,1.57000825,1.56713789,0.401425719261,4500.0,0.38145339489,0.000614105607383,-0.0199723243713,89.8754577637,0.0,6000.0,-0.01123751048,-0.00119532411918,-0.01123751048,67.7911682129,0.349065840244,0.0240919683129,-0.0297705866396,0.306234717369,0.00101281038951,0.00101281038951,0.00301062944345,-0.00151954730973,156.622787476,156.622787476,-244.595108032,-63.5896453857,2037,2039,2639,2039,2039,3057,3440,3438,3291,3375,3121,2994,3138,3083,3217,2702,3374,3393,3220,3350,3118,3338,3383,3188
1508403200675610906,158,1508403200675182305,plot_matl,0.25,-1000.0,0.194108337164,0.0214429032058,-0.0558916665614,-50.6029396057,0.349065840244,0.0323875546455,-0.0112440697849,0.194097995758,0.000524991832208,0.000524991832208,-0.00106107199099,-0.0541526302695,-33.7433586121,-33.7433586121,-2.08643245697,116.085533142,2011,2061,2126,2037,2037,2632,3293,3324,3124,3278,2987,2957,3035,3081,3157,2975,3392,3385,3235,3284,2948,3267,3302,3021,0.010018581,1.580026078,1.582935798,0.401425719261,4500.0,0.38145339489,0.000969332002569,-0.0199723243713,89.8754577637,0.0,6000.0,-0.0112567115575,-0.000802324386314,-0.0112567115575,67.7778244019,0.349065840244,0.0240919683129,-0.0297423787415,0.306114047766,0.000572028686292,0.000572028686292,0.00243245903403,-0.0604489333928,156.633117676,156.633117676,-244.786254883,-63.6102523804,2039,2042,2639,2044,2044,3056,3440,3440,3292,3375,3121,2994,3138,3083,3217,2702,3374,3393,3220,3350,3118,3337,3383,3190
1508403200685586109,159,1508403200685169053,plot_matl,0.25,-1000.0,0.194168671966,-0.0176396165043,-0.0558313243091,-60.0430870056,0.349065840244,0.0323875546455,-0.0112440697849,0.194097995758,0.000524991832208,0.000524991832208,-0.00106107199099,-0.0541526302695,-33.7433586121,-33.7433586121,-2.08643245697,116.085533142,2017,2064,2126,2037,2037,2632,3293,3324,3124,3277,2988,2958,3034,3079,3155,2975,3391,3387,3237,3284,2948,3267,3302,3021,0.009986233,1.590012245,1.587811047,0.401425719261,4500.0,0.38145339489,0.00079394003842,-0.0199723243713,89.8754577637,0.0,6000.0,-0.0112567115575,-0.000802324386314,-0.0112567115575,67.7778244019,0.349065840244,0.0240919683129,-0.0297423787415,0.306114047766,0.000572028686292,0.000572028686292,0.00243245903403,-0.0604489333928,156.633117676,156.633117676,-244.786254883,-63.6102523804,2028,2036,2639,2044,2044,3056,3440,3440,3292,3375,3119,2995,3139,3084,3214,2704,3374,3394,3221,3350,3118,3337,3383,3190
1508403200695602383,160,1508403200695163375,plot_matl,0.25,-1000.0,0.19412329793,0.0213105175644,-0.0558767020702,-50.6300773621,0.349065840244,0.0323875546455,-0.0112440697849,0.194097995758,0.000524991832208,0.000524991832208,-0.00106107199099,-0.0541526302695,-33.7433586121,-33.7433586121,-2.08643245697,116.085533142,2017,2064,2126,2037,2037,2632,3293,3324,3124,3277,2988,2958,3034,3079,3155,2975,3391,3387,3237,3284,2948,3267,3302,3021,0.009993029,1.600006451,1.59888464,0.401425719261,4500.0,0.38145339489,0.000214185172808,-0.0199723243713,89.8754577637,0.0,6000.0,-0.0112638371065,-0.000656493240967,-0.0112638371065,67.7827377319,0.349065840244,0.0240919683129,-0.0297423787415,0.306114047766,0.000572028686292,0.000572028686292,0.00243245903403,-0.0604489333928,156.633117676,156.633117676,-244.786254883,-63.6102523804,2028,2036,2639,2044,2044,3056,3440,3440,3292,3375,3119,2995,3139,3084,3214,2704,3374,3394,3221,3350,3118,3337,3383,3190
1508403200705552350,161,1508403200705169943,plot_matl,0.25,-1000.0,0.194026529789,-0.015753261745,-0.055973470211,-59.5784225464,0.349065840244,0.0323875546455,-0.0112440697849,0.194097995758,0.000524991832208,0.000524991832208,-0.00106107199099,-0.0541526302695,-33.7433586121,-33.7433586121,-2.08643245697,116.085533142,2059,2088,2125,2035,2035,2638,3301,3324,3124,3277,2988,2958,3034,3079,3155,2975,3391,3387,3237,3286,2949,3269,3314,3036,0.010005827,1.610012779,1.610938147,0.401425719261,4500.0,0.38145339489,0.000159282935783,-0.0199723243713,89.8754577637,0.0,6000.0,-0.0112485904247,-0.000973559741396,-0.0112485904247,67.7850112915,0.349065840244,0.0240919683129,-0.0297423787415,0.306114047766,0.000572028686292,0.000572028686292,0.00243245903403,-0.0604489333928,156.633117676,156.633117676,-244.786254883,-63.6102523804,2056,2054,2638,2042,2042,3062,3445,3440,3292,3375,3119,2995,3139,3084,3214,2704,3374,3394,3221,3352,3118,3338,3393,3207
1508403200715634851,162,1508403200715173586,plot_matl,0.25,-1000.0,0.193959221244,-0.014216369018,-0.0560407713056,-59.327999115,0.349065840244,0.0323875546455,-0.0112495310605,0.194012090564,7.80597401899e-05,7.80597401899e-05,-0.000954224204179,-0.0154403913766,-33.7468986511,-33.7468986511,-2.11635899544,116.405555725,2020,2056,2125,2035,2035,2638,3301,3331,3128,3283,2991,2964,3040,3085,3161,2978,3395,3387,3237,3286,2949,3269,3314,3036,0.010005086,1.620017053,1.620823932,0.401425719261,4500.0,0.38280287385,0.0273272078484,-0.0186228435487,83.8027954102,0.0,6000.0,-0.011245874688,-0.00102537299972,-0.011245874688,67.7870941162,0.349065840244,0.0240919683129,-0.0297771580517,0.306278079748,-0.000886028632522,-0.000886028632522,0.00318084983155,-0.00172707985621,156.62109375,156.62109375,-244.694168091,-63.7010231018,2027,2033,2638,2042,2042,3062,3445,3444,3297,3379,3125,2998,3143,3087,3220,2702,3376,3394,3221,3352,3118,3338,3393,3207
1508403200725379822,163,1508403200725155694,plot_matl,0.25,-1000.0,0.193907365203,-0.0129606118426,-0.0560926310718,-59.1482658386,0.349065840244,0.0323875546455,-0.0112495310605,0.194012090564,7.80597401899e-05,7.80597401899e-05,-0.000954224204179,-0.0154403913766,-33.7468986511,-33.7468986511,-2.11635899544,116.405555725,2064,2101,2125,2040,2040,2638,3301,3331,3128,3283,2991,2964,3040,3085,3161,2978,3395,3389,3239,3289,2950,3271,3304,3019,0.009979254,1.629998232,1.626618402,0.401425719261,4500.0,0.38145339489,0.00148162571713,-0.0199723243713,89.8754577637,0.0,6000.0,-0.0112308226526,-0.00131097610574,-0.0112308226526,67.7942047119,0.349065840244,0.0240919683129,-0.0297771580517,0.306278079748,-0.000886028632522,-0.000886028632522,0.00318084983155,-0.00172707985621,156.62109375,156.62109375,-244.694168091,-63.7010231018,2059,2058,2639,2042,2042,3062,3445,3444,3297,3379,3125,2998,3143,3087,3220,2702,3376,3397,3221,3353,3120,3341,3383,3192
1508403200735479208,164,1508403200735156760,plot_matl,0.25,-1000.0,0.19392888248,-0.0133151132613,-0.0560711100698,-59.1270065308,0.349065840244,0.0323875546455,-0.0112495310605,0.194012090564,7.80597401899e-05,7.80597401899e-05,-0.000954224204179,-0.0154403913766,-33.7468986511,-33.7468986511,-2.11635899544,116.405555725,2029,2062,2125,2040,2040,2634,3296,3326,3125,3279,2989,2959,3036,3081,3157,2978,3395,3389,3239,3289,2950,3271,3304,3019,0.010001548,1.639999506,1.640253872,0.401425719261,4500.0,0.38145339489,0.00219223275781,-0.0199723243713,89.8754577637,0.0,6000.0,-0.0111806867644,0.0111130345613,-0.0111806867644,63.7485389709,0.349065840244,0.0240919683129,-0.0297771580517,0.306278079748,-0.000886028632522,-0.000886028632522,0.00318084983155,-0.00172707985621,156.62109375,156.62109375,-244.694168091,-63.7010231018,2030,2029,2639,2042,2042,3058,3442,3438,3295,3375,3121,2998,3140,3083,3217,2702,3376,3397,3221,3353,3120,3341,3383,3192
1508403200745556079,165,1508403200745166982,plot_matl,0.25,-1000.0,0.193913474679,-0.0129112033173,-0.0560865327716,-59.1484832764,0.349065840244,0.0323875546455,-0.0112495310605,0.194012090564,7.80597401899e-05,7.80597401899e-05,-0.000954224204179,-0.0154403913766,-33.7468986511,-33.7468986511,-2.11635899544,116.405555725,2005,2068,2125,2040,2040,2634,3296,3326,3125,3279,2989,2959,3036,3081,3157,2974,3392,3386,3237,3285,2949,3270,3302,3021,0.010009966,1.650010044,1.65164439,0.401425719261,4500.0,0.38145339489,0.00124773243442,-0.0199723243713,89.8754577637,0.0,6000.0,-0.0112017057836,-0.0018883261364,-0.0112017057836,67.7979049683,0.349065840244,0.0240919683129,-0.0297771580517,0.306278079748,-0.000886028632522,-0.000886028632522,0.00318084983155,-0.00172707985621,156.62109375,156.62109375,-244.694168091,-63.7010231018,2015,2024,2639,2042,2042,3058,3442,3438,3295,3375,3121,2998,3140,3083,3217,2699,3372,3392,3221,3351,3117,3338,3382,3191
1508403200755448867,166,1508403200755158519,plot_matl,0.25,-1000.0,0.193941399455,0.0244800094515,-0.0560585968196,-50.1482467651,0.349065840244,0.0323875546455,-0.0112034659833,0.193902000785,0.000612208095845,0.000612208095845,-0.00185303925537,-0.0126699330285,-33.9376182556,-33.9376182556,-1.39855706692,116.231292725,2029,2079,2125,2037,2037,2636,3295,3326,3125,3276,2989,2959,3037,3081,3157,2974,3392,3386,3237,3285,2949,3270,3302,3021,0.00999175,1.660001748,1.6586305,0.401425719261,4500.0,0.38145339489,0.00153710891027,-0.0199723243713,89.8754577637,0.0,6000.0,-0.0111950505525,-0.00202980171889,-0.0111950505525,67.7735748291,0.349065840244,0.0240919683129,-0.0297347120941,0.30611422658,0.000490937323775,0.000490937323775,0.00230102613568,0.0634866580367,156.855163574,156.855163574,-244.942932129,-63.6457939148,2044,2046,2639,2041,2041,3057,3440,3438,3294,3374,3123,2996,3139,3083,3217,2699,3372,3392,3221,3351,3117,3338,3382,3191
1508403200765543228,167,1508403200765167306,plot_matl,0.25,-1000.0,0.193941399455,0.0244800094515,-0.0560585968196,-50.1482467651,0.349065840244,0.0323875546455,-0.0112034659833,0.193902000785,0.000612208095845,0.000612208095845,-0.00185303925537,-0.0126699330285,-33.9376182556,-33.9376182556,-1.39855706692,116.231292725,2029,2079,2125,2037,2037,2636,3295,3326,3125,3276,2989,2959,3037,3081,3157,2974,3392,3386,3237,3285,2949,3270,3302,3021,0.010009338,1.670010989,1.671559446,0.401425719261,4500.0,0.38145339489,0.00153710891027,-0.0199723243713,89.8754577637,0.0,6000.0,-0.0111950505525,-0.00202980171889,-0.0111950505525,67.7735748291,0.349065840244,0.0240919683129,-0.0297347120941,0.30611422658,0.000490937323775,0.000490937323775,0.00230102613568,0.0634866580367,156.855163574,156.855163574,-244.942932129,-63.6457939148,2044,2046,2639,2041,2041,3057,3440,3438,3294,3374,3123,2996,3139,3083,3217,2699,3372,3392,3221,3351,3117,3338,3382,3191
1508403200775485721,168,1508403200775217724,plot_matl,0.25,-1000.0,0.194085672498,0.021537816152,-0.0559143349528,-50.8495788574,0.349065840244,0.0323875546455,-0.0112034659833,0.193902000785,0.000612208095845,0.000612208095845,-0.00185303925537,-0.0126699330285,-33.9376182556,-33.9376182556,-1.39855706692,116.231292725,2030,2063,2126,2036,2036,2637,3302,3328,3127,3282,2992,2959,3037,3081,3156,2974,3392,3386,3236,3301,2960,3281,3311,3032,0.010049274,1.680060916,1.688278032,0.401425719261,4500.0,0.38145339489,0.00272409059107,-0.0199723243713,89.8754577637,0.0,6000.0,-0.0111431078985,-0.00255518918857,-0.0111431078985,67.7454071045,0.349065840244,0.0240919683129,-0.0297347120941,0.30611422658,0.000490937323775,0.000490937323775,0.00230102613568,0.0634866580367,156.855163574,156.855163574,-244.942932129,-63.6457939148,2032,2027,2639,2039,2039,3062,3446,3442,3296,3379,3125,2996,3139,3084,3217,2700,3372,3393,3221,3367,3129,3349,3391,3202
1508403200785382259,169,1508403200785181130,plot_matl,0.25,-1000.0,0.194049090147,0.0223921909928,-0.0559509135783,-50.2200126648,0.349065840244,0.0323875546455,-0.0112034659833,0.193902000785,0.000612208095845,0.000612208095845,-0.00185303925537,-0.0126699330285,-33.9376182556,-33.9376182556,-1.39855706692,116.231292725,2030,2063,2126,2036,2036,2637,3302,3328,3127,3282,2992,2959,3037,3081,3156,2974,3392,3386,3236,3301,2960,3281,3311,3032,0.009963121,1.690024406,1.683767449,0.401425719261,4500.0,0.38010391593,-0.0244798250496,-0.021321805194,95.9481277466,0.0,6000.0,-0.0111708818004,-0.00209075585008,-0.0111708818004,67.8196640015,0.349065840244,0.0240919683129,-0.0297347120941,0.30611422658,0.000490937323775,0.000490937323775,0.00230102613568,0.0634866580367,156.855163574,156.855163574,-244.942932129,-63.6457939148,2032,2027,2639,2039,2039,3062,3446,3442,3296,3379,3125,2996,3139,3084,3217,2700,3372,3393,3221,3367,3129,3349,3391,3202
1508403200795474109,170,1508403200795169522,plot_matl,0.25,-1000.0,0.193983659148,0.0237575508654,-0.0560163371265,-50.2385635376,0.349065840244,0.0323875546455,-0.0111829452217,0.193976804614,0.00125396728981,0.00125396728981,-0.00188903138041,-0.0140149965882,-33.9950828552,-33.9950828552,-1.32975268364,116.051208496,2021,2025,2126,2036,2036,2637,3302,3328,3127,3282,2992,2963,3039,3086,3158,2978,3395,3389,3239,3289,2951,3281,3311,3032,0.009988411,1.700013193,1.69802987,0.401425719261,4500.0,0.38145339489,0.00126798427664,-0.0199723243713,89.8754577637,0.0,6000.0,-0.011180494912,-0.00197430304252,-0.011180494912,67.7817230225,0.349065840244,0.0240919683129,-0.029754884541,0.306166946888,0.00178783026058,0.00178783026058,0.00265669054352,0.000673119735438,156.4609375,156.4609375,-244.855270386,-63.6590385437,2018,2005,2639,2039,2039,3062,3446,3442,3296,3379,3125,2998,3141,3087,3218,2706,3376,3396,3224,3353,3120,3349,3391,3202
1508403200805295551,171,1508403200805173027,plot_matl,0.25,-1000.0,0.194067299366,0.0220898855478,-0.0559327080846,-50.2347068787,0.349065840244,0.0323875546455,-0.0111829452217,0.193976804614,0.00125396728981,0.00125396728981,-0.00188903138041,-0.0140149965882,-33.9950828552,-33.9950828552,-1.32975268364,116.051208496,2017,2041,2126,2038,2038,2632,3294,3324,3126,3280,2989,2959,3035,3082,3156,2977,3395,3385,3239,3289,2951,3272,3302,3022,0.010000946,1.710015316,1.710161766,0.401425719261,4500.0,0.38145339489,0.00205041258596,-0.0199723243713,89.8754577637,0.0,6000.0,-0.0112015670165,-0.00161384278908,-0.0112015670165,67.8151626587,0.349065840244,0.0240919683129,-0.029754884541,0.306166946888,0.00178783026058,0.00178783026058,0.00265669054352,0.000673119735438,156.4609375,156.4609375,-244.855270386,-63.6590385437,2019,2027,2640,2041,2041,3056,3442,3440,3293,3376,3120,2995,3139,3084,3217,2706,3375,3395,3221,3353,3120,3339,3383,3191
1508403200815727520,172,1508403200815203573,plot_matl,0.25,-1000.0,0.193993344903,-0.0142631828785,-0.0560066588223,-59.3044548035,0.349065840244,0.0323875546455,-0.0111829452217,0.193976804614,0.00125396728981,0.00125396728981,-0.00188903138041,-0.0140149965882,-33.9950828552,-33.9950828552,-1.32975268364,116.051208496,2011,2034,2126,2036,2036,2632,3293,3324,3126,3280,2989,2959,3035,3082,3156,2977,3395,3385,3239,3286,2950,3271,3301,3020,0.010033075,1.720047015,1.7256889,0.401425719261,4500.0,0.38145339489,0.00219349353574,-0.0199723243713,89.8754577637,0.0,6000.0,-0.0112186651677,-0.00132137862965,-0.0112186651677,67.7712020874,0.349065840244,0.0240919683129,-0.029754884541,0.306166946888,0.00178783026058,0.00178783026058,0.00265669054352,0.000673119735438,156.4609375,156.4609375,-244.855270386,-63.6590385437,2016,2014,2640,2044,2044,3058,3441,3440,3293,3376,3120,2995,3139,3084,3217,2706,3375,3395,3221,3354,3118,3340,3382,3190
1508403200825419957,173,1508403200825158279,plot_matl,0.25,-1000.0,0.193975031376,0.0240686777979,-0.0560249648988,-50.2643165588,0.349065840244,0.0323875546455,-0.0111829452217,0.193976804614,0.00125396728981,0.00125396728981,-0.00188903138041,-0.0140149965882,-33.9950828552,-33.9950828552,-1.32975268364,116.051208496,2011,2034,2126,2036,2036,2632,3293,3324,3126,3280,2989,2959,3035,3082,3156,2977,3395,3385,3239,3286,2950,3271,3301,3020,0.009952772,1.730001084,1.721829556,0.401425719261,4500.0,0.38145339489,0.0037921462208,-0.0199723243713,89.8754577637,0.0,6000.0,-0.0112083144486,-0.00156819925178,-0.0112083144486,67.774848938,0.349065840244,0.0240919683129,-0.029754884541,0.306166946888,0.00178783026058,0.00178783026058,0.00265669054352,0.000673119735438,156.4609375,156.4609375,-244.855270386,-63.6590385437,2016,2014,2640,2044,2044,3058,3441,3440,3293,3376,3120,2995,3139,3084,3217,2706,3375,3395,3221,3354,3118,3340,3382,3190
1508403200835551083,174,1508403200835229178,plot_matl,0.25,-1000.0,0.193962857127,-0.0134855769575,-0.0560371465981,-59.1187934875,0.349065840244,0.0323875546455,-0.0112166414037,0.193910852075,0.00171583844349,0.00171583844349,-0.00141913129482,-0.0125348623842,-33.765083313,-33.765083313,-0.285068780184,115.738235474,1995,2053,2126,2038,2038,2632,3293,3325,3124,3279,2988,2959,3035,3081,3158,2976,3394,3388,3237,3285,2947,3270,3302,3023,0.010072102,1.740072721,1.752545748,0.401425719261,4500.0,0.38010391593,-0.0236274171621,-0.021321805194,95.9481277466,0.0,6000.0,-0.0112241879106,-0.00128403119743,-0.0112241879106,67.7618865967,0.349065840244,0.0240919683129,-0.0297644250095,0.306076735258,0.00132396502886,0.00132396502886,0.00289297220297,-0.0593579933047,156.565841675,156.565841675,-244.607147217,-63.6404418945,2012,2022,2639,2041,2041,3058,3441,3439,3291,3374,3121,2993,3140,3082,3216,2702,3375,3393,3220,3351,3117,3339,3381,3191
