%time,field.header.seq,field.header.stamp,field.header.frame_id,field.FFJ4_set_point,field.FFJ4_position_gain,field.FFJ4_process_value,field.FFJ4_process_value_dot,field.FFJ4_error,field.FFJ4_command,field.FFJ1,field.FFJ2,field.FFJ3,field.FFJ4,field.FFJ1_dot,field.FFJ2_dot,field.FFJ3_dot,field.FFJ4_dot,field.FFJ1_tao,field.FFJ2_tao,field.FFJ3_tao,field.FFJ4_tao,field.pac0,field.pac1,field.pdc0,field.tac0,field.tdc0,field.el0,field.el1,field.el2,field.el3,field.el4,field.el5,field.el6,field.el7,field.el8,field.el9,field.el10,field.el11,field.el12,field.el13,field.el14,field.el15,field.el16,field.el17,field.el18,field.dt,field.time,field.test_time2,field.FFJ0_set_point,field.FFJ0_position_gain,field.FFJ0_process_value,field.FFJ0_process_value_dot,field.FFJ0_error,field.FFJ0_command,field.FFJ3_set_point,field.FFJ3_position_gain,field.FFJ3_process_value,field.FFJ3_process_value_dot,field.FFJ3_error,field.FFJ3_command,field.MFJ1,field.MFJ2,field.MFJ3,field.MFJ4,field.MFJ1_dot,field.MFJ2_dot,field.MFJ3_dot,field.MFJ4_dot,field.MFJ1_tao,field.MFJ2_tao,field.MFJ3_tao,field.MFJ4_tao,field.Mpac0,field.Mpac1,field.Mpdc0,field.Mtac0,field.Mtdc0,field.Mel0,field.Mel1,field.Mel2,field.Mel3,field.Mel4,field.Mel5,field.Mel6,field.Mel7,field.Mel8,field.Mel9,field.Mel10,field.Mel11,field.Mel12,field.Mel13,field.Mel14,field.Mel15,field.Mel16,field.Mel17,field.Mel18
1508404714853621044,112,1508404714853019445,plot_matl,-0.300000011921,-500.0,-0.0402335114777,0.00213759043254,0.259766489267,130.413650513,0.349065840244,0.0917647331953,-0.0115589108318,-0.0402380004525,0.000318523932947,0.000318523932947,0.0053055989556,0.00223839352839,-14.2078104019,-14.2078104019,-52.2347221375,-120.954299927,2022,2051,2130,2021,2021,2862,3364,3376,3200,3314,3044,2964,3072,3064,3167,2817,3356,3358,3182,3267,2908,3283,3313,3036,0.00999611,1.119993486,1.11956432,0.453785598278,4500.0,0.440830588341,0.00066179985879,-0.0129550211132,58.2975959778,0.0,6000.0,-0.0115691293031,-0.00789760518819,-0.0115691293031,71.8748321533,0.349065840244,0.0265011657029,-0.00355231482536,0.306477427483,-0.00596170453355,-0.00596170453355,-0.00493661733344,-0.0674571692944,109.676292419,109.676292419,0.609453618526,61.2036933899,2025,2020,2553,2044,2044,2930,3427,3427,3244,3364,3089,3053,3158,3152,3243,2888,3418,3425,3265,3374,3148,3356,3391,3193
1508404714863429363,113,1508404714863018647,plot_matl,-0.300000011921,-500.0,-0.040221799165,0.00190846517216,0.25977820158,130.335723877,0.349065840244,0.0917647331953,-0.0115589108318,-0.0402380004525,0.000318523932947,0.000318523932947,0.0053055989556,0.00223839352839,-14.2078104019,-14.2078104019,-52.2347221375,-120.954299927,2032,2064,2130,2022,2022,2862,3364,3376,3200,3314,3044,2964,3072,3064,3167,2817,3356,3361,3180,3269,2907,3282,3314,3036,0.00999816,1.129992197,1.12979208,0.453785598278,4500.0,0.440830588341,-0.000925563334022,-0.0129550211132,58.2975959778,0.0,6000.0,-0.0115688238293,0.00549262855202,-0.0115688238293,67.7873840332,0.349065840244,0.0265011657029,-0.00355231482536,0.306477427483,-0.00596170453355,-0.00596170453355,-0.00493661733344,-0.0674571692944,109.676292419,109.676292419,0.609453618526,61.2036933899,2037,2030,2553,2046,2046,2930,3427,3427,3244,3364,3089,3053,3158,3152,3243,2888,3418,3425,3264,3375,3149,3355,3388,3195
1508404714873580725,114,1508404714873068028,plot_matl,-0.300000011921,-500.0,-0.040231063962,0.00208989088424,0.259768933058,130.390884399,0.349065840244,0.0917647331953,-0.0115584330633,-0.040227226913,-0.000363949569874,-0.000363949569874,-0.00813001394272,0.00201200507581,-14.2172880173,-14.2172880173,-52.1344108582,-121.188667297,2031,2052,2130,2022,2022,2861,3362,3374,3200,3315,3046,2966,3069,3064,3168,2817,3356,3361,3180,3269,2907,3282,3314,3036,0.010049827,1.140041884,1.145680278,0.453785598278,4500.0,0.440830588341,-0.000756076537073,-0.0129550211132,58.2975959778,0.0,6000.0,-0.0115551454946,-0.00818757992238,-0.0115551454946,71.8214645386,0.349065840244,0.0265011657029,-0.00360817997716,0.30653065443,-0.00608584703878,-0.00608584703878,-0.00380519707687,-0.00681854365394,109.677436829,109.677436829,0.651446640491,61.2323951721,2028,2023,2553,2046,2046,2928,3426,3427,3246,3364,3088,3056,3159,3154,3244,2888,3418,3425,3264,3375,3149,3355,3388,3195
1508404714883402380,115,1508404714883017116,plot_matl,-0.300000011921,-500.0,-0.0402567721903,0.00260512228124,0.259743213654,130.4949646,0.349065840244,0.0917647331953,-0.0115584330633,-0.040227226913,-0.000363949569874,-0.000363949569874,-0.00813001394272,0.00201200507581,-14.2172880173,-14.2172880173,-52.1344108582,-121.188667297,2009,2049,2130,2022,2022,2861,3362,3374,3200,3315,3046,2966,3069,3064,3168,2815,3358,3360,3180,3267,2908,3283,3313,3034,0.009946943,1.1499902,1.143898445,0.453785598278,4500.0,0.440830588341,-0.00110856350511,-0.0129550211132,58.2975959778,0.0,6000.0,-0.0115562332794,0.00525411497802,-0.0115562332794,67.761390686,0.349065840244,0.0265011657029,-0.00360817997716,0.30653065443,-0.00608584703878,-0.00608584703878,-0.00380519707687,-0.00681854365394,109.677436829,109.677436829,0.651446640491,61.2323951721,2019,2017,2552,2046,2046,2928,3426,3427,3246,3364,3088,3056,3159,3154,3244,2887,3420,3426,3265,3375,3150,3358,3392,3195
1508404714893359497,116,1508404714893012986,plot_matl,-0.300000011921,-500.0,-0.0402768999338,0.00301625276916,0.259723097086,130.631942749,0.349065840244,0.0904152542353,-0.011586449109,-0.040279854089,-0.0149949993938,-0.0149949993938,-0.00756569113582,0.00308399670757,-14.2686729431,-14.2686729431,-52.0486297607,-121.526817322,2037,2067,2130,2024,2024,2861,3362,3374,3200,3314,3043,2964,3071,3064,3168,2815,3358,3360,3180,3267,2908,3283,3313,3034,0.009995243,1.159985935,1.159448188,0.453785598278,4500.0,0.440830588341,-0.00287117552944,-0.0129550211132,58.2975959778,0.0,6000.0,-0.011571967043,-0.00785871315747,-0.011571967043,71.9449462891,0.349065840244,0.0265011657029,-0.00360589218326,0.306381732225,-0.00558569282293,-0.00558569282293,-0.00384819321334,-0.00370534905232,109.677650452,109.677650452,0.83003205061,61.2606658936,2035,2037,2552,2045,2045,2930,3426,3425,3242,3363,3091,3056,3158,3154,3244,2887,3420,3426,3265,3375,3150,3358,3392,3195
1508404714903215969,117,1508404714903034189,plot_matl,-0.300000011921,-500.0,-0.04028525576,-0.00658892188221,0.259714752436,128.184082031,0.349065840244,0.0917647331953,-0.0115937078372,-0.0402792133391,-0.00138226198032,-0.00138226198032,0.00597356911749,0.00304936850443,-14.2197608948,-14.2197608948,-52.0775337219,-121.032875061,2015,2049,2130,2024,2024,2861,3362,3374,3200,3314,3043,2964,3071,3064,3168,2817,3356,3358,3181,3266,2907,3282,3311,3034,0.010021075,1.170007603,1.172465775,0.453785598278,4500.0,0.440830588341,-0.00287503376603,-0.0129550211132,58.2975959778,0.0,6000.0,-0.0116056120023,-0.00720170559362,-0.0116056120023,71.9078674316,0.349065840244,0.0265011657029,-0.00359988212585,0.306401342154,-0.00544404983521,-0.00544404983521,-0.00398173043504,-0.00416028266773,109.685119629,109.685119629,0.846886098385,61.3183059692,2026,2022,2552,2045,2045,2930,3426,3425,3242,3363,3091,3056,3158,3152,3242,2887,3418,3426,3267,3374,3149,3357,3390,3195
1508404714913328544,118,1508404714913053470,plot_matl,-0.300000011921,-500.0,-0.0402828343213,0.00311741931364,0.259717166424,130.60508728,0.349065840244,0.0931142121553,-0.0115875108168,-0.0402862466872,0.0124635379761,0.0124635379761,0.00586138293147,0.00318571040407,-14.1799316406,-14.1799316406,-52.3217697144,-121.352928162,1996,2026,2130,2021,2021,2858,3364,3374,3197,3315,3045,2964,3071,3064,3168,2817,3356,3358,3181,3266,2907,3282,3311,3036,0.010019837,1.18002684,1.182340766,0.453785598278,4500.0,0.440830588341,-0.00186626671348,-0.0129550211132,58.2975959778,0.0,6000.0,-0.0115858931094,0.00582894450054,-0.0115858931094,67.7669754028,0.349065840244,0.0265011657029,-0.00360621954314,0.306366413832,-0.00442440155894,-0.00442440155894,0.0114851342514,0.0584385469556,109.709251404,109.709251404,0.801911592484,61.3327980042,2014,2008,2552,2044,2044,2927,3427,3425,3244,3363,3089,3056,3158,3152,3242,2887,3418,3426,3267,3374,3149,3357,3390,3193
1508404714923291484,119,1508404714923004220,plot_matl,-0.300000011921,-500.0,-0.040298756212,-0.00632794760168,0.259701251984,128.352523804,0.349065840244,0.0931142121553,-0.0115875108168,-0.0402862466872,0.0124635379761,0.0124635379761,0.00586138293147,0.00318571040407,-14.1799316406,-14.1799316406,-52.3217697144,-121.352928162,2021,2058,2130,2021,2021,2858,3364,3374,3197,3315,3045,2965,3069,3065,3168,2816,3358,3360,3180,3269,2910,3282,3311,3036,0.009948193,1.189976578,1.183834967,0.453785598278,4500.0,0.440830588341,-0.00199523568153,-0.0129550211132,58.2975959778,0.0,6000.0,-0.0115816527978,0.00574269983917,-0.0115816527978,67.7791900635,0.349065840244,0.0265011657029,-0.00360621954314,0.306366413832,-0.00442440155894,-0.00442440155894,0.0114851342514,0.0584385469556,109.709251404,109.709251404,0.801911592484,61.3327980042,2032,2032,2552,2044,2044,2927,3427,3425,3244,3363,3089,3056,3158,3154,3242,2887,3418,3426,3265,3374,3150,3357,3390,3193
1508404714933313202,120,1508404714933018971,plot_matl,-0.300000011921,-500.0,-0.0402942374349,-0.00641953013837,0.259705752134,128.417160034,0.349065840244,0.0917647331953,-0.0116056203842,-0.0402967557311,-0.00128821074031,-0.00128821074031,0.00621287152171,-0.00635663745925,-14.1206769943,-14.1206769943,-52.2225761414,-121.28225708,2013,2049,2129,2021,2021,2860,3364,3374,3199,3315,3045,2965,3069,3065,3168,2816,3358,3360,3180,3269,2910,3283,3311,3035,0.010016914,1.19999241,1.20202968,0.453785598278,4500.0,0.440830588341,-0.00268301763572,-0.0129550211132,58.2975959778,0.0,6000.0,-0.0116039924324,-0.00723829912022,-0.0116039924324,71.6396636963,0.349065840244,0.0265011657029,-0.00365583435632,0.306267738342,-0.00529469363391,-0.00529469363391,-0.00288508879021,-0.0012243068777,109.890396118,109.890396118,0.489702641964,61.3081359863,2023,2017,2552,2044,2044,2928,3425,3426,3244,3363,3089,3056,3158,3154,3242,2887,3418,3426,3265,3374,3150,3357,3389,3194
1508404714943358980,121,1508404714943046943,plot_matl,-0.300000011921,-500.0,-0.0402989089489,-0.00631991401315,0.259701102972,128.2706604,0.349065840244,0.0917647331953,-0.0116056203842,-0.0402967557311,-0.00128821074031,-0.00128821074031,0.00621287152171,-0.00635663745925,-14.1206769943,-14.1206769943,-52.2225761414,-121.28225708,1983,2034,2129,2021,2021,2860,3364,3374,3199,3316,3045,2966,3070,3065,3168,2818,3356,3359,3182,3269,2910,3283,3311,3035,0.010027951,1.210020683,1.213382071,0.453785598278,4500.0,0.440830588341,-0.00219214917161,-0.0129550211132,58.2975959778,0.0,6000.0,-0.0115953600034,0.00601880997419,-0.0115953600034,67.6805725098,0.349065840244,0.0265011657029,-0.00365583435632,0.306267738342,-0.00529469363391,-0.00529469363391,-0.00288508879021,-0.0012243068777,109.890396118,109.890396118,0.489702641964,61.3081359863,2006,2009,2552,2044,2044,2928,3425,3426,3244,3364,3090,3054,3159,3155,3242,2888,3420,3426,3264,3374,3150,3357,3389,3194
1508404714953206728,122,1508404714953009766,plot_matl,-0.300000011921,-500.0,-0.0403025299311,0.00352475675754,0.259697467089,130.700424194,0.349065840244,0.0904152542353,-0.0116091258824,-0.0403011068702,-0.0144152231514,-0.0144152231514,-0.0071146893315,0.00349159305915,-14.1384897232,-14.1384897232,-51.9998588562,-121.270980835,2016,2062,2129,2021,2021,2861,3363,3374,3199,3316,3045,2966,3070,3065,3168,2818,3356,3359,3182,3269,2909,3284,3314,3037,0.009960598,1.219982556,1.215192956,0.453785598278,4500.0,0.440830588341,-0.00227284920402,-0.0129550211132,58.2975959778,0.0,6000.0,-0.0115869203582,0.00586760044098,-0.0115869203582,67.7457122803,0.349065840244,0.0265011657029,-0.003669049358,0.306205451488,-0.00519095826894,-0.00519095826894,-0.00262434920296,1.29491527332e-05,109.763389587,109.763389587,0.41953894496,61.3245239258,2020,2025,2552,2043,2043,2928,3426,3426,3244,3364,3090,3054,3159,3155,3242,2888,3420,3426,3264,3375,3149,3357,3390,3193
1508404714963358537,123,1508404714963027802,plot_matl,-0.300000011921,-500.0,-0.0402877479792,0.00322517659515,0.259712249041,130.68510437,0.349065840244,0.0917647331953,-0.0115707926452,-0.0402900539339,-0.00118059921078,-0.00118059921078,-0.00785472244024,0.00328426365741,-14.3257303238,-14.3257303238,-52.2371330261,-121.006881714,2017,2053,2129,2021,2021,2861,3363,3375,3200,3315,3043,2963,3070,3064,3168,2817,3356,3359,3182,3269,2909,3284,3314,3037,0.010020181,1.230001803,1.232482263,0.453785598278,4500.0,0.440830588341,-0.00245131552219,-0.0129550211132,58.2975959778,0.0,6000.0,-0.011555923149,0.00525109376758,-0.011555923149,67.6482467651,0.349065840244,0.0289103612304,-0.00367394741625,0.306334406137,0.0181844588369,0.0181844588369,-0.00251808902249,0.0592948682606,109.831359863,109.831359863,0.443043023348,61.416557312,2024,2022,2552,2043,2043,2928,3426,3425,3244,3364,3088,3054,3159,3154,3242,2889,3422,3426,3264,3375,3149,3357,3390,3193
1508404714973411365,124,1508404714973020249,plot_matl,-0.300000011921,-500.0,-0.040292955935,0.0033266346436,0.259707033634,130.686004639,0.349065840244,0.0917647331953,-0.0115688722581,-0.0402951911092,-0.00119004806038,-0.00119004806038,0.00550879398361,0.0033825088758,-14.2296237946,-14.2296237946,-52.2016944885,-120.967826843,2013,2046,2129,2016,2016,2861,3363,3375,3200,3315,3043,2963,3070,3064,3168,2817,3356,3359,3181,3268,2908,3282,3311,3036,0.009990036,1.239993177,1.238764464,0.453785598278,4500.0,0.440830588341,-0.00247179460712,-0.0129550211132,58.2975959778,0.0,6000.0,-0.0115793887526,0.00572103261948,-0.0115793887526,67.6872940063,0.349065840244,0.0289103612304,-0.00361411343329,0.306204259396,0.0188025049865,0.0188025049865,0.0116157643497,3.24023494613e-05,109.696258545,109.696258545,0.237938806415,61.4072761536,2025,2016,2552,2041,2041,2928,3426,3425,3244,3364,3088,3054,3159,3154,3242,2889,3422,3427,3265,3374,3150,3357,3389,3194
1508404714983542436,125,1508404714983047630,plot_matl,-0.300000011921,-500.0,-0.0402983240783,0.00342817394994,0.259701669216,130.668670654,0.349065840244,0.0917647331953,-0.0115688722581,-0.0402951911092,-0.00119004806038,-0.00119004806038,0.00550879398361,0.0033825088758,-14.2296237946,-14.2296237946,-52.2016944885,-120.967826843,2037,2070,2129,2016,2016,2859,3363,3373,3199,3315,3043,2964,3070,3064,3170,2817,3356,3359,3181,3268,2908,3282,3311,3036,0.010028228,1.25002127,1.2535285,0.453785598278,4500.0,0.440830588341,-0.00255482643843,-0.0129550211132,58.2975959778,0.0,6000.0,-0.0115902349353,-0.00749377952889,-0.0115902349353,71.7639389038,0.349065840244,0.0289103612304,-0.00361411343329,0.306204259396,0.0188025049865,0.0188025049865,0.0116157643497,3.24023494613e-05,109.696258545,109.696258545,0.237938806415,61.4072761536,2034,2029,2552,2041,2041,2928,3428,3425,3244,3362,3089,3057,3158,3156,3243,2889,3422,3427,3265,3374,3150,3357,3389,3194
1508404714993388504,126,1508404714993013255,plot_matl,-0.300000011921,-500.0,-0.0402925610542,0.00332980719395,0.259707450867,130.634277344,0.349065840244,0.0917647331953,-0.0115688722581,-0.0402951911092,-0.00119004806038,-0.00119004806038,0.00550879398361,0.0033825088758,-14.2296237946,-14.2296237946,-52.2016944885,-120.967826843,2032,2064,2130,2016,2016,2859,3363,3373,3199,3315,3043,2964,3070,3064,3170,2818,3357,3360,3182,3267,2907,3282,3310,3034,0.009964655,1.259986438,1.25554653,0.453785598278,4500.0,0.442180067301,0.0236538313329,-0.0116055402905,52.2249298096,0.0,6000.0,-0.0115859489888,-0.00759297749028,-0.0115859489888,71.7366409302,0.349065840244,0.0289103612304,-0.00361411343329,0.306204259396,0.0188025049865,0.0188025049865,0.0116157643497,3.24023494613e-05,109.696258545,109.696258545,0.237938806415,61.4072761536,2025,2028,2552,2041,2041,2928,3428,3425,3244,3362,3089,3057,3158,3156,3243,2888,3418,3425,3267,3374,3148,3357,3391,3195
1508404715003403082,127,1508404715003032899,plot_matl,-0.300000011921,-500.0,-0.040290761739,0.00328561593778,0.259709239006,130.660247803,0.349065840244,0.0917647331953,-0.0115688722581,-0.0402951911092,-0.00119004806038,-0.00119004806038,0.00550879398361,0.0033825088758,-14.2296237946,-14.2296237946,-52.2016944885,-120.967826843,2026,2054,2130,2017,2017,2861,3363,3372,3200,3313,3046,2967,3071,3064,3170,2818,3357,3360,3182,3267,2907,3282,3310,3034,0.010019716,1.270006269,1.272503932,0.453785598278,4500.0,0.440830588341,-0.00341345719062,-0.0129550211132,58.2975959778,0.0,6000.0,-0.0116070704535,-0.00715155061334,-0.0116070704535,71.8293533325,0.349065840244,0.0289103612304,-0.00361411343329,0.306204259396,0.0188025049865,0.0188025049865,0.0116157643497,3.24023494613e-05,109.696258545,109.696258545,0.237938806415,61.4072761536,2023,2023,2552,2044,2044,2929,3426,3426,3244,3363,3090,3054,3159,3156,3243,2888,3418,3425,3267,3374,3148,3357,3391,3195
1508404715013657799,128,1508404715013093004,plot_matl,-0.300000011921,-500.0,-0.0402786657214,0.0030383861158,0.259721338749,130.58706665,0.349065840244,0.0917647331953,-0.0116072148085,-0.0402942895889,-0.00190070120152,-0.00190070120152,0.00627803988755,-0.00641203345731,-14.1453428268,-14.1453428268,-52.1768569946,-121.079193115,2027,2058,2130,2017,2017,2861,3363,3372,3200,3313,3046,2967,3071,3066,3168,2817,3360,3359,3182,3267,2908,3281,3313,3034,0.010061032,1.280066529,1.287812096,0.453785598278,4500.0,0.440830588341,-0.00323534896597,-0.0129550211132,58.2975959778,0.0,6000.0,-0.0115850334987,0.0058402987197,-0.0115850334987,67.766998291,0.349065840244,0.0265011657029,-0.00359811144881,0.306428045034,-0.00413004448637,-0.00413004448637,0.01127334591,-0.00448949635029,109.818229675,109.818229675,0.171083718538,61.2463493347,2026,2031,2552,2044,2044,2929,3426,3426,3244,3363,3090,3054,3159,3153,3242,2888,3419,3426,3265,3377,3150,3355,3390,3195
1508404715023392569,129,1508404715023073504,plot_matl,-0.300000011921,-500.0,-0.0402786657214,0.0030383861158,0.259721338749,130.58706665,0.349065840244,0.0917647331953,-0.0116072148085,-0.0402942895889,-0.00190070120152,-0.00190070120152,0.00627803988755,-0.00641203345731,-14.1453428268,-14.1453428268,-52.1768569946,-121.079193115,2025,2052,2129,2018,2018,2861,3363,3374,3198,3315,3045,2967,3071,3066,3168,2817,3360,3359,3182,3267,2908,3281,3313,3035,0.009978881,1.290046863,1.287275649,0.453785598278,4500.0,0.440830588341,-0.00323534896597,-0.0129550211132,58.2975959778,0.0,6000.0,-0.0115850334987,0.0058402987197,-0.0115850334987,67.766998291,0.349065840244,0.0265011657029,-0.00359811144881,0.306428045034,-0.00413004448637,-0.00413004448637,0.01127334591,-0.00448949635029,109.818229675,109.818229675,0.171083718538,61.2463493347,2025,2028,2551,2045,2045,2928,3426,3427,3244,3364,3089,3054,3159,3153,3242,2888,3419,3426,3265,3377,3150,3355,3390,3195
1508404715033387610,130,1508404715033083184,plot_matl,-0.300000011921,-500.0,-0.0402556397021,0.0025729527697,0.259744375944,130.811004639,0.349065840244,0.0917647331953,-0.0116072148085,-0.0402942895889,-0.00190070120152,-0.00190070120152,0.00627803988755,-0.00641203345731,-14.1453428268,-14.1453428268,-52.1768569946,-121.079193115,2013,2039,2129,2018,2018,2861,3363,3374,3198,3315,3045,2965,3072,3067,3167,2818,3366,3363,3183,3270,2910,3281,3313,3035,0.010009836,1.30005708,1.30127868,0.453785598278,4500.0,0.442180067301,0.0237443111837,-0.0116055402905,52.2249298096,0.0,6000.0,-0.0115393223241,-0.00840277783573,-0.0115393223241,71.7826004028,0.349065840244,0.0265011657029,-0.00359811144881,0.306428045034,-0.00413004448637,-0.00413004448637,0.01127334591,-0.00448949635029,109.818229675,109.818229675,0.171083718538,61.2463493347,2024,2019,2551,2045,2045,2928,3426,3427,3244,3364,3089,3057,3160,3151,3244,2887,3425,3429,3269,3380,3152,3355,3390,3195
1508404715043196848,131,1508404715043003939,plot_matl,-0.300000011921,-500.0,-0.0402279607952,0.00201067468151,0.259772032499,130.379623413,0.349065840244,0.0917647331953,-0.0116072148085,-0.0402942895889,-0.00190070120152,-0.00190070120152,0.00627803988755,-0.00641203345731,-14.1453428268,-14.1453428268,-52.1768569946,-121.079193115,2008,2054,2130,2018,2018,2861,3366,3374,3199,3315,3045,2965,3072,3067,3167,2818,3366,3363,3183,3270,2910,3285,3315,3038,0.009919102,1.309976973,1.299402362,0.453785598278,4500.0,0.442180067301,0.0233356636018,-0.0116055402905,52.2249298096,0.0,6000.0,-0.0115393223241,-0.00840277783573,-0.0115393223241,71.7826004028,0.349065840244,0.0265011657029,-0.00359811144881,0.306428045034,-0.00413004448637,-0.00413004448637,0.01127334591,-0.00448949635029,109.818229675,109.818229675,0.171083718538,61.2463493347,2021,2023,2552,2042,2042,2928,3427,3429,3244,3364,3089,3057,3160,3151,3244,2887,3425,3429,3269,3380,3152,3360,3392,3197
1508404715053648235,132,1508404715053084210,plot_matl,-0.300000011921,-500.0,-0.0402279607952,0.00201067468151,0.259772032499,130.379623413,0.349065840244,0.0931142121553,-0.0115677611902,-0.0402279607952,0.0116678318009,0.0116678318009,-0.0078435158357,0.00201067468151,-14.0257024765,-14.0257024765,-52.0799369812,-121.430335999,2000,2044,2130,2018,2018,2861,3366,3374,3199,3318,3045,2965,3069,3065,3170,2819,3359,3358,3182,3270,2910,3285,3315,3038,0.010081659,1.32005768,1.330778988,0.453785598278,4500.0,0.440830588341,-0.0037269515451,-0.0129550211132,58.2975959778,0.0,6000.0,-0.0115882353857,0.00598502671346,-0.0115882353857,67.7596588135,0.349065840244,0.0265011657029,-0.00358307734132,0.306646555662,-0.0054803583771,-0.0054803583771,-0.00430321507156,0.0528461486101,109.580184937,109.580184937,-0.103205516934,61.5795593262,2013,2013,2552,2042,2042,2928,3427,3429,3244,3365,3090,3054,3160,3155,3244,2889,3419,3427,3265,3380,3152,3360,3392,3197
1508404715063463629,133,1508404715063067245,plot_matl,-0.300000011921,-500.0,-0.0402276068926,-0.00776221649721,0.259772390127,128.026702881,0.349065840244,0.0931142121553,-0.0115677611902,-0.0402279607952,0.0116678318009,0.0116678318009,-0.0078435158357,0.00201067468151,-14.0257024765,-14.0257024765,-52.0799369812,-121.430335999,2014,2063,2131,2018,2018,2861,3363,3374,3199,3318,3045,2965,3069,3065,3170,2819,3359,3358,3182,3268,2910,3283,3312,3038,0.00998291,1.330040905,1.32772703,0.453785598278,4500.0,0.440830588341,-0.0037269515451,-0.0129550211132,58.2975959778,0.0,6000.0,-0.0115882353857,0.00598502671346,-0.0115882353857,67.7596588135,0.349065840244,0.0265011657029,-0.00358307734132,0.306646555662,-0.0054803583771,-0.0054803583771,-0.00430321507156,0.0528461486101,109.580184937,109.580184937,-0.103205516934,61.5795593262,2020,2026,2553,2045,2045,2929,3425,3429,3244,3365,3090,3054,3160,3155,3244,2889,3419,3427,3265,3376,3152,3357,3390,3195
1508404715073217500,134,1508404715073011927,plot_matl,-0.300000011921,-500.0,-0.0402265042067,0.00199097860605,0.259773492813,130.380401611,0.349065840244,0.0931142121553,-0.0115677611902,-0.0402279607952,0.0116678318009,0.0116678318009,-0.0078435158357,0.00201067468151,-14.0257024765,-14.0257024765,-52.0799369812,-121.430335999,2023,2055,2131,2018,2018,2861,3363,3375,3199,3315,3044,2966,3069,3064,3169,2817,3358,3358,3182,3268,2910,3283,3312,3038,0.009942408,1.339985021,1.332282672,0.453785598278,4500.0,0.440830588341,-0.0044797915034,-0.0129550211132,58.2975959778,0.0,6000.0,-0.011594966054,-0.00733639579266,-0.011594966054,71.8604660034,0.349065840244,0.0265011657029,-0.00358307734132,0.306646555662,-0.0054803583771,-0.0054803583771,-0.00430321507156,0.0528461486101,109.580184937,109.580184937,-0.103205516934,61.5795593262,2023,2021,2553,2045,2045,2929,3425,3427,3244,3364,3091,3055,3159,3155,3244,2889,3420,3427,3265,3376,3152,3357,3390,3195
1508404715083323358,135,1508404715083028367,plot_matl,-0.300000011921,-500.0,-0.0402250401676,0.00195530126803,0.259774953127,130.372421265,0.349065840244,0.0931142121553,-0.0115677611902,-0.0402279607952,0.0116678318009,0.0116678318009,-0.0078435158357,0.00201067468151,-14.0257024765,-14.0257024765,-52.0799369812,-121.430335999,2016,2053,2131,2021,2021,2861,3363,3375,3199,3315,3044,2966,3069,3064,3169,2817,3358,3359,3183,3268,2909,3284,3314,3036,0.010016205,1.350001491,1.352187675,0.453785598278,4500.0,0.440830588341,-0.00366825098172,-0.0129550211132,58.2975959778,0.0,6000.0,-0.011614789255,-0.00694011710584,-0.011614789255,71.7789535522,0.349065840244,0.0265011657029,-0.00358307734132,0.306646555662,-0.0054803583771,-0.0054803583771,-0.00430321507156,0.0528461486101,109.580184937,109.580184937,-0.103205516934,61.5795593262,2021,2016,2552,2041,2041,2929,3425,3427,3244,3364,3091,3055,3159,3155,3244,2889,3420,3425,3265,3376,3152,3358,3389,3194
1508404715093220050,136,1508404715093019809,plot_matl,-0.300000011921,-500.0,-0.040216371417,0.00178572919685,0.259783625603,130.317321777,0.349065840244,0.0917647331953,-0.0115806451067,-0.0402250401676,-0.00200116354972,-0.00200116354972,0.00578900426626,0.00195530126803,-14.0348644257,-14.0348644257,-52.1800575256,-121.168121338,2032,2056,2131,2021,2021,2859,3364,3373,3199,3316,3044,2964,3071,3066,3169,2817,3358,3359,3183,3268,2909,3284,3314,3036,0.00999113,1.359992768,1.35879368,0.453785598278,4500.0,0.440830588341,-0.00400232709944,-0.0129550211132,58.2975959778,0.0,6000.0,-0.0115806451067,0.00578900426626,-0.0115806451067,67.7039489746,0.349065840244,0.0289103612304,-0.00349341379479,0.30697119236,0.0178297162056,0.0178297162056,-0.00611989526078,-0.0155594563112,109.29901886,109.29901886,-0.267772972584,61.4643135071,2035,2026,2552,2041,2041,2927,3428,3428,3244,3364,3089,3056,3159,3154,3242,2889,3420,3425,3265,3376,3152,3358,3389,3194
1508404715103345224,137,1508404715103060655,plot_matl,-0.300000011921,-500.0,-0.040216371417,0.00178572919685,0.259783625603,130.317321777,0.349065840244,0.0917647331953,-0.0115806451067,-0.0402250401676,-0.00200116354972,-0.00200116354972,0.00578900426626,0.00195530126803,-14.0348644257,-14.0348644257,-52.1800575256,-121.168121338,2026,2056,2131,2021,2021,2859,3364,3373,3199,3316,3044,2964,3071,3066,3169,2817,3359,3361,3181,3266,2908,3283,3313,3035,0.010039864,1.370033444,1.375461368,0.453785598278,4500.0,0.440830588341,-0.00296016223729,-0.0129550211132,58.2975959778,0.0,6000.0,-0.0116174854338,-0.0068893795833,-0.0116174854338,71.7072906494,0.349065840244,0.0289103612304,-0.00349341379479,0.30697119236,0.0178297162056,0.0178297162056,-0.00611989526078,-0.0155594563112,109.29901886,109.29901886,-0.267772972584,61.4643135071,2028,2018,2553,2041,2041,2927,3428,3428,3244,3364,3089,3056,3159,3154,3242,2887,3418,3425,3266,3375,3149,3357,3390,3194
1508404715113233727,138,1508404715113017956,plot_matl,-0.300000011921,-500.0,-0.0402089543641,0.00162978610024,0.259791046381,130.273406982,0.349065840244,0.0917647331953,-0.0115806451067,-0.0402250401676,-0.00200116354972,-0.00200116354972,0.00578900426626,0.00195530126803,-14.0348644257,-14.0348644257,-52.1800575256,-121.168121338,2005,2043,2131,2019,2019,2861,3365,3374,3198,3317,3045,2966,3070,3066,3169,2817,3359,3361,3181,3266,2908,3283,3313,3035,0.009957584,1.379990977,1.374146592,0.453785598278,4500.0,0.440830588341,-0.00296016223729,-0.0129550211132,58.2975959778,0.0,6000.0,-0.0116174854338,-0.0068893795833,-0.0116174854338,71.7072906494,0.349065840244,0.0289103612304,-0.00349341379479,0.30697119236,0.0178297162056,0.0178297162056,-0.00611989526078,-0.0155594563112,109.29901886,109.29901886,-0.267772972584,61.4643135071,2020,2022,2553,2041,2041,2928,3426,3425,3243,3366,3089,3055,3158,3154,3242,2887,3418,3425,3266,3375,3149,3357,3390,3194
1508404715123311564,139,1508404715123008400,plot_matl,-0.300000011921,-500.0,-0.0401855707169,0.00116352911573,0.259814441204,130.178405762,0.349065840244,0.0917647331953,-0.0115806451067,-0.0402250401676,-0.00200116354972,-0.00200116354972,0.00578900426626,0.00195530126803,-14.0348644257,-14.0348644257,-52.1800575256,-121.168121338,2021,2062,2131,2019,2019,2861,3365,3374,3198,3317,3045,2966,3070,3066,3168,2819,3358,3358,3181,3267,2907,3284,3312,3035,0.009990817,1.389981674,1.388723563,0.453785598278,4500.0,0.440830588341,-0.0032923843246,-0.0129550211132,58.2975959778,0.0,6000.0,-0.0116441007704,-0.00635140389204,-0.0116441007704,71.7290878296,0.349065840244,0.0289103612304,-0.00349341379479,0.30697119236,0.0178297162056,0.0178297162056,-0.00611989526078,-0.0155594563112,109.29901886,109.29901886,-0.267772972584,61.4643135071,2027,2032,2553,2041,2041,2928,3426,3425,3243,3366,3089,3055,3158,3153,3243,2888,3419,3424,3267,3374,3149,3358,3389,3194
1508404715133341414,140,1508404715133013521,plot_matl,-0.300000011921,-500.0,-0.0402073375881,0.00159922312014,0.259792655706,130.279891968,0.349065840244,0.0917647331953,-0.0116303199902,-0.0401921309531,-0.0016461921623,-0.0016461921623,-0.00664922920987,0.00129361671861,-13.9145393372,-13.9145393372,-52.2742576599,-121.020507812,2008,2050,2130,2019,2019,2859,3364,3374,3200,3316,3042,2966,3070,3066,3168,2819,3358,3358,3181,3267,2907,3284,3312,3035,0.010005515,1.399987086,1.4007721,0.453785598278,4500.0,0.439481109381,-0.0298620928079,-0.0143045028672,64.370262146,0.0,6000.0,-0.0116272717714,0.00671454146504,-0.0116272717714,67.759475708,0.349065840244,0.0289103612304,-0.00353984045796,0.307043373585,0.0201258827001,0.0201258827001,0.0101327560842,0.0448556020856,109.498916626,109.498916626,0.213341504335,61.5012321472,2019,2021,2553,2041,2041,2928,3427,3426,3245,3365,3090,3055,3158,3153,3243,2888,3419,3424,3267,3374,3149,3358,3389,3196
1508404715143551364,141,1508404715143019286,plot_matl,-0.300000011921,-500.0,-0.0402073375881,0.00159922312014,0.259792655706,130.279891968,0.349065840244,0.0917647331953,-0.0116303199902,-0.0401921309531,-0.0016461921623,-0.0016461921623,-0.00664922920987,0.00129361671861,-13.9145393372,-13.9145393372,-52.2742576599,-121.020507812,2000,2037,2130,2019,2019,2859,3364,3374,3200,3316,3042,2965,3069,3064,3169,2819,3356,3361,3182,3266,2909,3284,3312,3035,0.010004546,1.409992504,1.410640986,0.453785598278,4500.0,0.439481109381,-0.0298620928079,-0.0143045028672,64.370262146,0.0,6000.0,-0.0116272717714,0.00671454146504,-0.0116272717714,67.759475708,0.349065840244,0.0289103612304,-0.00353984045796,0.307043373585,0.0201258827001,0.0201258827001,0.0101327560842,0.0448556020856,109.498916626,109.498916626,0.213341504335,61.5012321472,2014,2014,2553,2041,2041,2928,3427,3426,3245,3365,3090,3055,3159,3152,3243,2889,3419,3424,3267,3378,3149,3358,3389,3196
1508404715153587565,142,1508404715153029099,plot_matl,-0.300000011921,-500.0,-0.0402275957167,0.00202111434191,0.25977241993,130.37020874,0.349065840244,0.0917647331953,-0.0116303199902,-0.0401921309531,-0.0016461921623,-0.0016461921623,-0.00664922920987,0.00129361671861,-13.9145393372,-13.9145393372,-52.2742576599,-121.020507812,2031,2059,2130,2021,2021,2861,3364,3373,3200,3316,3042,2965,3069,3064,3169,2819,3356,3361,3182,3266,2909,3283,3310,3039,0.01001133,1.420002719,1.42160886,0.453785598278,4500.0,0.440830588341,-0.00212929956615,-0.0129550211132,58.2975959778,0.0,6000.0,-0.0116738369688,0.00764309568331,-0.0116738369688,67.7456436157,0.349065840244,0.0289103612304,-0.00353984045796,0.307043373585,0.0201258827001,0.0201258827001,0.0101327560842,0.0448556020856,109.498916626,109.498916626,0.213341504335,61.5012321472,2037,2032,2552,2040,2040,2929,3426,3426,3243,3365,3090,3055,3159,3152,3243,2889,3419,3424,3267,3378,3149,3358,3391,3196
1508404715163258723,143,1508404715163005645,plot_matl,-0.300000011921,-500.0,-0.0402275957167,0.00202111434191,0.25977241993,130.37020874,0.349065840244,0.0917647331953,-0.0116303199902,-0.0401921309531,-0.0016461921623,-0.0016461921623,-0.00664922920987,0.00129361671861,-13.9145393372,-13.9145393372,-52.2742576599,-121.020507812,1998,2023,2130,2021,2021,2861,3364,3373,3200,3316,3043,2965,3071,3065,3167,2818,3358,3359,3181,3266,2909,3283,3310,3039,0.009973584,1.429978448,1.426222512,0.453785598278,4500.0,0.440830588341,-0.00275491084903,-0.0129550211132,58.2975959778,0.0,6000.0,-0.0116738369688,0.00764309568331,-0.0116738369688,67.7456436157,0.349065840244,0.0289103612304,-0.00353984045796,0.307043373585,0.0201258827001,0.0201258827001,0.0101327560842,0.0448556020856,109.498916626,109.498916626,0.213341504335,61.5012321472,2016,2005,2552,2040,2040,2929,3426,3426,3243,3363,3090,3055,3158,3154,3245,2889,3419,3428,3265,3378,3149,3358,3391,3196
1508404715173260724,144,1508404715173010464,plot_matl,-0.300000011921,-500.0,-0.0402718558908,-0.00685266777873,0.259728133678,128.212539673,0.349065840244,0.0931142121553,-0.0117144072428,-0.0402622744441,0.0119923586026,0.0119923586026,-0.00496227107942,-0.00704656261951,-13.9841518402,-13.9841518402,-51.9545631409,-120.67792511,1994,2041,2131,2021,2021,2861,3361,3373,3200,3316,3043,2965,3071,3065,3167,2818,3358,3359,3181,3270,2908,3284,3313,3036,0.010005145,1.439983553,1.44074088,0.453785598278,4500.0,0.442180067301,0.0230110958219,-0.0116055402905,52.2249298096,0.0,6000.0,-0.0116989696398,-0.00527910981327,-0.0116989696398,71.7825241089,0.349065840244,0.0289103612304,-0.00355121470056,0.306773483753,0.0201751012355,0.0201751012355,0.0103613007814,-0.0734439715743,109.466033936,109.466033936,0.47617867589,61.4503669739,2014,2014,2554,2043,2043,2929,3427,3426,3243,3363,3090,3055,3158,3154,3245,2889,3419,3428,3265,3376,3150,3357,3390,3194
1508404715183414720,145,1508404715183046279,plot_matl,-0.300000011921,-500.0,-0.0402718558908,-0.00685266777873,0.259728133678,128.212539673,0.349065840244,0.0931142121553,-0.0117144072428,-0.0402622744441,0.0119923586026,0.0119923586026,-0.00496227107942,-0.00704656261951,-13.9841518402,-13.9841518402,-51.9545631409,-120.67792511,2019,2047,2131,2021,2021,2861,3361,3376,3199,3317,3044,2965,3070,3065,3168,2818,3359,3359,3181,3270,2908,3284,3313,3036,0.010036256,1.450019764,1.45525712,0.453785598278,4500.0,0.440830588341,-0.00397881772369,-0.0129550211132,58.2975959778,0.0,6000.0,-0.0116981407627,0.00813395623118,-0.0116981407627,67.7583999634,0.349065840244,0.0289103612304,-0.00355121470056,0.306773483753,0.0201751012355,0.0201751012355,0.0103613007814,-0.0734439715743,109.466033936,109.466033936,0.47617867589,61.4503669739,2030,2025,2554,2043,2043,2929,3427,3425,3244,3365,3090,3054,3159,3153,3243,2890,3420,3428,3265,3376,3150,3357,3390,3194
1508404715193370769,146,1508404715193034221,plot_matl,-0.300000011921,-500.0,-0.0402496494353,0.00246190372854,0.259750336409,130.458068848,0.349065840244,0.0931142121553,-0.0117144072428,-0.0402622744441,0.0119923586026,0.0119923586026,-0.00496227107942,-0.00704656261951,-13.9841518402,-13.9841518402,-51.9545631409,-120.67792511,1987,2037,2131,2020,2020,2861,3361,3376,3199,3317,3044,2965,3070,3065,3168,2818,3359,3360,3182,3269,2910,3284,3312,3037,0.009988648,1.460008813,1.458342608,0.453785598278,4500.0,0.440830588341,-0.00325927441008,-0.0129550211132,58.2975959778,0.0,6000.0,-0.0116845518351,0.00786311272532,-0.0116845518351,67.7782592773,0.349065840244,0.0289103612304,-0.00355121470056,0.306773483753,0.0201751012355,0.0201751012355,0.0103613007814,-0.0734439715743,109.466033936,109.466033936,0.47617867589,61.4503669739,2008,2012,2553,2045,2045,2929,3427,3425,3244,3365,3090,3054,3159,3153,3243,2890,3420,3427,3266,3375,3148,3359,3390,3194
1508404715203190955,147,1508404715203009573,plot_matl,-0.300000011921,-500.0,-0.0402496494353,0.00246190372854,0.259750336409,130.458068848,0.349065840244,0.0931142121553,-0.0117144072428,-0.0402622744441,0.0119923586026,0.0119923586026,-0.00496227107942,-0.00704656261951,-13.9841518402,-13.9841518402,-51.9545631409,-120.67792511,2012,2058,2131,2020,2020,2862,3365,3375,3197,3315,3045,2965,3069,3063,3167,2818,3359,3360,3182,3269,2910,3284,3312,3037,0.009972351,1.469982344,1.465935597,0.453785598278,4500.0,0.440830588341,-0.00317036174238,-0.0129550211132,58.2975959778,0.0,6000.0,-0.0116727212444,0.00761149870232,-0.0116727212444,67.6461486816,0.349065840244,0.0289103612304,-0.00355121470056,0.306773483753,0.0201751012355,0.0201751012355,0.0103613007814,-0.0734439715743,109.466033936,109.466033936,0.47617867589,61.4503669739,2025,2022,2553,2045,2045,2928,3426,3426,3243,3363,3090,3054,3159,3152,3244,2890,3420,3427,3266,3375,3148,3359,3390,3194
1508404715213381643,148,1508404715213032004,plot_matl,-0.300000011921,-500.0,-0.0402607396245,0.00268859229982,0.259739249945,130.542877197,0.349065840244,0.0917647331953,-0.0116727212444,-0.0402607396245,-0.00158518087119,-0.00158518087119,0.00761149870232,0.00268859229982,-13.8660783768,-13.8660783768,-51.9738273621,-121.264595032,2041,2081,2131,2020,2020,2862,3365,3375,3197,3315,3045,2965,3069,3063,3167,2818,3358,3360,3183,3266,2909,3283,3311,3035,0.010023577,1.480005494,1.483489396,0.453785598278,4500.0,0.440830588341,-0.00317036174238,-0.0129550211132,58.2975959778,0.0,6000.0,-0.0116727212444,0.00761149870232,-0.0116727212444,67.6461486816,0.349065840244,0.0265011657029,-0.0035983286798,0.306723892689,-0.00391855975613,-0.00391855975613,-0.00403290521353,-0.0105067472905,109.380020142,109.380020142,0.479357272387,61.5076751709,2039,2037,2554,2045,2045,2928,3426,3426,3243,3363,3090,3054,3159,3152,3244,2891,3420,3428,3265,3376,3149,3360,3391,3194
1508404715223592896,149,1508404715223073958,plot_matl,-0.300000011921,-500.0,-0.0402649380267,0.00276308157481,0.259735047817,130.531234741,0.349065840244,0.0917647331953,-0.0116727212444,-0.0402607396245,-0.00158518087119,-0.00158518087119,0.00761149870232,0.00268859229982,-13.8660783768,-13.8660783768,-51.9738273621,-121.264595032,2025,2042,2131,2018,2018,2860,3363,3373,3198,3314,3043,2964,3070,3063,3167,2818,3358,3360,3183,3266,2909,3283,3311,3035,0.010042585,1.490047528,1.496345165,0.453785598278,4500.0,0.440830588341,-0.00118217279669,-0.0129550211132,58.2975959778,0.0,6000.0,-0.0116830673069,0.00782979186624,-0.0116830673069,67.751701355,0.349065840244,0.0265011657029,-0.0035983286798,0.306723892689,-0.00391855975613,-0.00391855975613,-0.00403290521353,-0.0105067472905,109.380020142,109.380020142,0.479357272387,61.5076751709,2021,2013,2554,2043,2043,2928,3426,3425,3244,3365,3090,3053,3159,3152,3244,2891,3420,3428,3265,3376,3149,3360,3391,3194
1508404715233352472,150,1508404715233021359,plot_matl,-0.300000011921,-500.0,-0.0402649380267,0.00276308157481,0.259735047817,130.531234741,0.349065840244,0.0917647331953,-0.0116727212444,-0.0402607396245,-0.00158518087119,-0.00158518087119,0.00761149870232,0.00268859229982,-13.8660783768,-13.8660783768,-51.9738273621,-121.264595032,2041,2074,2131,2018,2018,2860,3363,3373,3198,3314,3043,2964,3070,3065,3168,2817,3357,3360,3182,3268,2909,3282,3311,3035,0.009946343,1.499994666,1.49195145,0.453785598278,4500.0,0.440830588341,-0.00118217279669,-0.0129550211132,58.2975959778,0.0,6000.0,-0.0116830673069,0.00782979186624,-0.0116830673069,67.751701355,0.349065840244,0.0265011657029,-0.0035983286798,0.306723892689,-0.00391855975613,-0.00391855975613,-0.00403290521353,-0.0105067472905,109.380020142,109.380020142,0.479357272387,61.5076751709,2036,2038,2554,2043,2043,2928,3426,3425,3244,3365,3090,3053,3159,3153,3244,2890,3420,3426,3267,3375,3150,3356,3391,3194
1508404715243355976,151,1508404715243044799,plot_matl,-0.300000011921,-500.0,-0.0402482934296,0.00242484570481,0.259751707315,130.436386108,0.349065840244,0.0917647331953,-0.0116727212444,-0.0402607396245,-0.00158518087119,-0.00158518087119,0.00761149870232,0.00268859229982,-13.8660783768,-13.8660783768,-51.9738273621,-121.264595032,2040,2073,2131,2020,2020,2860,3366,3374,3196,3317,3044,2964,3070,3065,3168,2817,3357,3360,3182,3268,2909,3282,3311,3038,0.010023113,1.510018424,1.513490063,0.453785598278,4500.0,0.440830588341,-0.000962767808232,-0.0129550211132,58.2975959778,0.0,6000.0,-0.0116860792041,-0.00554152810946,-0.0116860792041,71.7150878906,0.349065840244,0.0265011657029,-0.0035983286798,0.306723892689,-0.00391855975613,-0.00391855975613,-0.00403290521353,-0.0105067472905,109.380020142,109.380020142,0.479357272387,61.5076751709,2040,2038,2553,2044,2044,2928,3425,3425,3244,3364,3088,3053,3159,3153,3244,2890,3420,3426,3267,3375,3150,3356,3391,3196
1508404715253075635,152,1508404715252994258,plot_matl,-0.300000011921,-500.0,-0.0402351468801,0.00215371046215,0.25976485014,130.419296265,0.349065840244,0.0917647331953,-0.0116770043969,-0.0402351468801,-0.000434990797658,-0.000434990797658,-0.00572844455019,0.00215371046215,-14.0505447388,-14.0505447388,-51.979850769,-121.231262207,2010,2050,2131,2020,2020,2860,3366,3374,3196,3317,3044,2967,3070,3066,3170,2817,3360,3359,3181,3267,2910,3282,3311,3038,0.009946099,1.519966478,1.511807048,0.453785598278,4500.0,0.440830588341,-0.000869981595315,-0.0129550211132,58.2975959778,0.0,6000.0,-0.0116770043969,-0.00572844455019,-0.0116770043969,71.8380050659,0.349065840244,0.0265011657029,-0.0036188531667,0.306684821844,-0.00622408604249,-0.00622408604249,-0.00360163860023,-0.00980108138174,109.321144104,109.321144104,0.418325275183,61.0943145752,2019,2023,2553,2044,2044,2928,3425,3425,3244,3364,3088,3056,3158,3154,3245,2888,3418,3426,3267,3376,3148,3356,3391,3196
1508404715263360361,153,1508404715263008961,plot_matl,-0.300000011921,-500.0,-0.0402425862849,-0.00746727222577,0.259757399559,128.070220947,0.349065840244,0.0917647331953,-0.0116770043969,-0.0402351468801,-0.000434990797658,-0.000434990797658,-0.00572844455019,0.00215371046215,-14.0505447388,-14.0505447388,-51.979850769,-121.231262207,2026,2065,2130,2021,2021,2859,3362,3375,3200,3317,3044,2967,3070,3066,3170,2817,3360,3359,3181,3267,2910,3282,3313,3037,0.010016303,1.52998209,1.532494359,0.453785598278,4500.0,0.440830588341,-0.00206503947265,-0.0129550211132,58.2975959778,0.0,6000.0,-0.0116839185357,-0.00559816649184,-0.0116839185357,71.8095169067,0.349065840244,0.0265011657029,-0.0036188531667,0.306684821844,-0.00622408604249,-0.00622408604249,-0.00360163860023,-0.00980108138174,109.321144104,109.321144104,0.418325275183,61.0943145752,2026,2030,2552,2046,2046,2928,3426,3428,3246,3364,3088,3056,3158,3154,3245,2888,3418,3426,3267,3376,3148,3356,3389,3195
1508404715273205316,154,1508404715273004207,plot_matl,-0.300000011921,-500.0,-0.0402573049068,0.00260498630814,0.259742707014,130.509353638,0.349065840244,0.0917647331953,-0.0116770043969,-0.0402351468801,-0.000434990797658,-0.000434990797658,-0.00572844455019,0.00215371046215,-14.0505447388,-14.0505447388,-51.979850769,-121.231262207,2013,2049,2130,2021,2021,2859,3362,3375,3200,3315,3045,2967,3070,3067,3167,2817,3359,3357,3179,3267,2910,3282,3313,3037,0.009993801,1.53997703,1.539045354,0.453785598278,4500.0,0.440830588341,-0.00165636686143,-0.0129550211132,58.2975959778,0.0,6000.0,-0.0116839185357,-0.00559816649184,-0.0116839185357,71.8095169067,0.349065840244,0.0265011657029,-0.0036188531667,0.306684821844,-0.00622408604249,-0.00622408604249,-0.00360163860023,-0.00980108138174,109.321144104,109.321144104,0.418325275183,61.0943145752,2029,2024,2552,2046,2046,2928,3426,3428,3246,3364,3090,3055,3159,3152,3245,2888,3420,3426,3265,3376,3148,3356,3389,3195
1508404715283098686,155,1508404715282998175,plot_matl,-0.300000011921,-500.0,-0.0402603559196,-0.00709802471101,0.259739637375,128.199676514,0.349065840244,0.0917647331953,-0.0116770043969,-0.0402351468801,-0.000434990797658,-0.000434990797658,-0.00572844455019,0.00215371046215,-14.0505447388,-14.0505447388,-51.979850769,-121.231262207,2012,2043,2131,2022,2022,2860,3363,3375,3200,3315,3045,2967,3070,3067,3167,2817,3359,3357,3179,3268,2909,3284,3313,3035,0.009993784,1.54997071,1.54903652,0.453785598278,4500.0,0.440830588341,-0.00165636686143,-0.0129550211132,58.2975959778,0.0,6000.0,-0.0116875413805,-0.0055241426453,-0.0116875413805,71.747177124,0.349065840244,0.0265011657029,-0.0036188531667,0.306684821844,-0.00622408604249,-0.00622408604249,-0.00360163860023,-0.00980108138174,109.321144104,109.321144104,0.418325275183,61.0943145752,2022,2016,2552,2045,2045,2928,3426,3428,3246,3364,3090,3055,3159,3152,3245,2888,3420,3426,3265,3377,3150,3356,3390,3193
1508404715293252870,156,1508404715293031599,plot_matl,-0.300000011921,-500.0,-0.0402642637491,-0.00702501926571,0.259735733271,128.238204956,0.349065840244,0.0917647331953,-0.0117001570761,-0.0402642637491,-0.000922315928619,-0.000922315928619,0.00815129466355,-0.00702501926571,-13.9562492371,-13.9562492371,-51.8131103516,-121.246765137,2021,2051,2131,2022,2022,2860,3363,3373,3200,3317,3044,2965,3071,3064,3168,2818,3358,3357,3179,3268,2909,3284,3313,3035,0.010036283,1.56000566,1.565660148,0.453785598278,4500.0,0.440830588341,-0.00184463185724,-0.0129550211132,58.2975959778,0.0,6000.0,-0.0117001570761,0.00815129466355,-0.0117001570761,67.8296813965,0.349065840244,0.0289103612304,-0.00354928011075,0.306767344475,0.0167293995619,0.0167293995619,-0.00499260798097,-0.0114420494065,109.203193665,109.203193665,0.496302038431,61.2005653381,2035,2025,2552,2045,2045,2928,3426,3427,3245,3364,3089,3054,3159,3153,3243,2888,3419,3426,3265,3377,3150,3356,3390,3193
1508404715303431121,157,1508404715303091689,plot_matl,-0.300000011921,-500.0,-0.0402663461864,-0.00697564752772,0.259733647108,128.233642578,0.349065840244,0.0917647331953,-0.0117001570761,-0.0402642637491,-0.000922315928619,-0.000922315928619,0.00815129466355,-0.00702501926571,-13.9562492371,-13.9562492371,-51.8131103516,-121.246765137,2007,2048,2131,2020,2020,2860,3363,3373,3200,3317,3044,2965,3071,3064,3168,2818,3358,3360,3181,3269,2909,3283,3311,3037,0.010059925,1.570065324,1.579408225,0.453785598278,4500.0,0.440830588341,-0.00199140934274,-0.0129550211132,58.2975959778,0.0,6000.0,-0.011686087586,0.00786901731044,-0.011686087586,67.8090133667,0.349065840244,0.0289103612304,-0.00354928011075,0.306767344475,0.0167293995619,0.0167293995619,-0.00499260798097,-0.0114420494065,109.203193665,109.203193665,0.496302038431,61.2005653381,2022,2013,2552,2043,2043,2928,3426,3427,3245,3364,3089,3054,3159,3153,3243,2888,3419,3425,3265,3375,3150,3357,3389,3194
1508404715313300997,158,1508404715313034334,plot_matl,-0.300000011921,-500.0,-0.0402493327856,0.00245362683199,0.259750664234,130.579956055,0.349065840244,0.0917647331953,-0.0117001570761,-0.0402642637491,-0.000922315928619,-0.000922315928619,0.00815129466355,-0.00702501926571,-13.9562492371,-13.9562492371,-51.8131103516,-121.246765137,2014,2045,2131,2020,2020,2859,3363,3372,3199,3315,3047,2966,3071,3066,3168,2818,3358,3360,3181,3269,2909,3283,3311,3037,0.009941272,1.580008085,1.570720976,0.453785598278,4500.0,0.440830588341,-0.00162427476607,-0.0129550211132,58.2975959778,0.0,6000.0,-0.0116887548938,-0.00553217250854,-0.0116887548938,72.1054382324,0.349065840244,0.0289103612304,-0.00354928011075,0.306767344475,0.0167293995619,0.0167293995619,-0.00499260798097,-0.0114420494065,109.203193665,109.203193665,0.496302038431,61.2005653381,2017,2012,2552,2043,2043,2928,3426,3426,3244,3363,3089,3055,3159,3152,3243,2888,3419,3425,3265,3375,3150,3357,3389,3194
1508404715323184075,159,1508404715323001523,plot_matl,-0.300000011921,-500.0,-0.0402526967227,0.00252759200521,0.259747296572,130.47668457,0.349065840244,0.0917647331953,-0.0117001570761,-0.0402642637491,-0.000922315928619,-0.000922315928619,0.00815129466355,-0.00702501926571,-13.9562492371,-13.9562492371,-51.8131103516,-121.246765137,2021,2071,2131,2020,2020,2859,3363,3372,3199,3315,3047,2966,3071,3066,3168,2818,3358,3360,3183,3269,2908,3282,3314,3037,0.009964646,1.589974164,1.584378714,0.453785598278,4500.0,0.440830588341,-0.00133437290788,-0.0129550211132,58.2975959778,0.0,6000.0,-0.011652409099,-0.00625154655427,-0.011652409099,71.7636566162,0.349065840244,0.0289103612304,-0.00354928011075,0.306767344475,0.0167293995619,0.0167293995619,-0.00499260798097,-0.0114420494065,109.203193665,109.203193665,0.496302038431,61.2005653381,2026,2028,2552,2043,2043,2928,3426,3426,3244,3363,3089,3055,3159,3152,3243,2888,3417,3425,3265,3376,3150,3357,3390,3195
1508404715333231237,160,1508404715333021579,plot_matl,-0.300000011921,-500.0,-0.0402464605868,0.0023991225753,0.259753525257,130.445480347,0.349065840244,0.0931142121553,-0.011652409099,-0.0402464605868,0.012815871276,0.012815871276,-0.00625154655427,0.0023991225753,-14.0736856461,-14.0736856461,-51.5549125671,-120.944076538,2019,2045,2131,2019,2019,2861,3364,3376,3198,3317,3045,2963,3072,3066,3168,2818,3358,3360,3183,3269,2908,3282,3314,3037,0.010020396,1.5999944,1.60326336,0.453785598278,4500.0,0.440830588341,-0.00133062782697,-0.0129550211132,58.2975959778,0.0,6000.0,-0.0116594312713,0.00731274439022,-0.0116594312713,67.8226242065,0.349065840244,0.0289103612304,-0.00356330536306,0.306796908379,0.0149911046028,0.0149911046028,-0.00472332211211,-0.01188645605,109.143287659,109.143287659,0.49173784256,61.4585800171,2021,2016,2552,2042,2042,2928,3426,3427,3244,3364,3090,3055,3158,3152,3243,2888,3417,3425,3265,3376,3150,3357,3390,3195
1508404715343130242,161,1508404715343011162,plot_matl,-0.300000011921,-500.0,-0.0402414612472,0.00229772739112,0.259758532047,130.41178894,0.349065840244,0.0931142121553,-0.011652409099,-0.0402464605868,0.012815871276,0.012815871276,-0.00625154655427,0.0023991225753,-14.0736856461,-14.0736856461,-51.5549125671,-120.944076538,2020,2055,2131,2019,2019,2861,3364,3376,3198,3317,3045,2963,3072,3064,3168,2818,3358,3359,3181,3268,2910,3285,3314,3037,0.009989884,1.609984156,1.608371324,0.453785598278,4500.0,0.440830588341,-0.00133062782697,-0.0129550211132,58.2975959778,0.0,6000.0,-0.0116594312713,0.00731274439022,-0.0116594312713,67.8226242065,0.349065840244,0.0289103612304,-0.00356330536306,0.306796908379,0.0149911046028,0.0149911046028,-0.00472332211211,-0.01188645605,109.143287659,109.143287659,0.49173784256,61.4585800171,2018,2024,2552,2042,2042,2928,3426,3427,3244,3364,3090,3055,3158,3154,3244,2887,3420,3425,3266,3376,3148,3358,3391,3195
1508404715353387223,162,1508404715353031006,plot_matl,-0.300000011921,-500.0,-0.0402441173792,0.00235128053464,0.259755879641,130.423614502,0.349065840244,0.0931142121553,-0.011652409099,-0.0402464605868,0.012815871276,0.012815871276,-0.00625154655427,0.0023991225753,-14.0736856461,-14.0736856461,-51.5549125671,-120.944076538,2037,2065,2130,2023,2023,2859,3363,3374,3197,3316,3044,2963,3072,3064,3168,2818,3358,3359,3181,3268,2910,3285,3314,3036,0.010019773,1.62000422,1.623203226,0.453785598278,4500.0,0.440830588341,-0.00205069570802,-0.0129550211132,58.2975959778,0.0,6000.0,-0.0116608217359,-0.0060578440316,-0.0116608217359,71.7256011963,0.349065840244,0.0289103612304,-0.00356330536306,0.306796908379,0.0149911046028,0.0149911046028,-0.00472332211211,-0.01188645605,109.143287659,109.143287659,0.49173784256,61.4585800171,2037,2029,2553,2044,2044,2928,3425,3428,3245,3364,3090,3055,3158,3154,3244,2887,3420,3425,3266,3376,3148,3358,3391,3196
1508404715363415071,163,1508404715363036202,plot_matl,-0.300000011921,-500.0,-0.0402441173792,0.00235128053464,0.259755879641,130.423614502,0.349065840244,0.0931142121553,-0.011652409099,-0.0402464605868,0.012815871276,0.012815871276,-0.00625154655427,0.0023991225753,-14.0736856461,-14.0736856461,-51.5549125671,-120.944076538,2013,2042,2130,2023,2023,2859,3363,3374,3197,3316,3044,2967,3072,3063,3169,2818,3358,3360,3181,3268,2908,3285,3314,3036,0.010006173,1.630010298,1.631006199,0.453785598278,4500.0,0.440830588341,-0.00261906324886,-0.0129550211132,58.2975959778,0.0,6000.0,-0.0117017608136,0.00819858163595,-0.0117017608136,67.653968811,0.349065840244,0.0289103612304,-0.00356330536306,0.306796908379,0.0149911046028,0.0149911046028,-0.00472332211211,-0.01188645605,109.143287659,109.143287659,0.49173784256,61.4585800171,2018,2018,2553,2044,2044,2928,3425,3428,3245,3364,3090,3054,3159,3155,3244,2889,3420,3426,3265,3375,3148,3358,3391,3196
1508404715373495116,164,1508404715373005691,plot_matl,-0.300000011921,-500.0,-0.0402396172285,0.00225687236525,0.259760379791,130.442352295,0.349065840244,0.0917647331953,-0.0117017608136,-0.0402396172285,-0.00130953162443,-0.00130953162443,0.00819858163595,0.00225687236525,-14.2257452011,-14.2257452011,-51.778087616,-120.63861084,2019,2049,2130,2021,2021,2860,3365,3375,3198,3316,3044,2967,3072,3063,3169,2818,3358,3360,3181,3268,2908,3282,3312,3035,0.009968067,1.639979609,1.634762988,0.453785598278,4500.0,0.440830588341,-0.00259081157856,-0.0129550211132,58.2975959778,0.0,6000.0,-0.0117017608136,0.00819858163595,-0.0117017608136,67.653968811,0.349065840244,0.0289103612304,-0.00355234579183,0.306698650122,0.0160721782595,0.0160721782595,-0.00494883256033,-0.0100159738213,109.048240662,109.048240662,0.246191874146,61.3503723145,2019,2028,2553,2044,2044,2929,3428,3427,3244,3364,3090,3054,3159,3155,3244,2889,3420,3426,3265,3375,3148,3357,3390,3196
1508404715383170472,165,1508404715383048690,plot_matl,-0.300000011921,-500.0,-0.0402380414307,-0.00754050631076,0.259761959314,128.101226807,0.349065840244,0.0917647331953,-0.0117017608136,-0.0402396172285,-0.00130953162443,-0.00130953162443,0.00819858163595,0.00225687236525,-14.2257452011,-14.2257452011,-51.778087616,-120.63861084,2024,2055,2130,2021,2021,2860,3365,3375,3198,3316,3046,2964,3071,3063,3167,2817,3357,3360,3181,3268,2908,3282,3312,3035,0.010030482,1.650021099,1.65502953,0.453785598278,4500.0,0.440830588341,-0.00259081157856,-0.0129550211132,58.2975959778,0.0,6000.0,-0.0116878235713,-0.00550942821428,-0.0116878235713,71.7503738403,0.349065840244,0.0289103612304,-0.00355234579183,0.306698650122,0.0160721782595,0.0160721782595,-0.00494883256033,-0.0100159738213,109.048240662,109.048240662,0.246191874146,61.3503723145,2034,2034,2553,2044,2044,2929,3428,3427,3244,3365,3091,3054,3160,3153,3242,2890,3420,3426,3265,3375,3148,3357,3390,3196
1508404715393373811,166,1508404715393037732,plot_matl,-0.300000011921,-500.0,-0.0402442105114,0.00234246021137,0.259755790234,130.454101562,0.349065840244,0.0917647331953,-0.0117017608136,-0.0402396172285,-0.00130953162443,-0.00130953162443,0.00819858163595,0.00225687236525,-14.2257452011,-14.2257452011,-51.778087616,-120.63861084,2013,2049,2131,2021,2021,2862,3362,3375,3198,3316,3046,2964,3071,3063,3167,2817,3357,3360,3181,3268,2910,3283,3312,3035,0.009990601,1.660011076,1.658439766,0.453785598278,4500.0,0.440830588341,-0.003093135776,-0.0129550211132,58.2975959778,0.0,6000.0,-0.0116763850674,0.00768160121515,-0.0116763850674,67.6987915039,0.349065840244,0.0289103612304,-0.00355234579183,0.306698650122,0.0160721782595,0.0160721782595,-0.00494883256033,-0.0100159738213,109.048240662,109.048240662,0.246191874146,61.3503723145,2027,2029,2553,2044,2044,2928,3426,3427,3244,3365,3091,3054,3160,3153,3242,2890,3420,3426,3265,3376,3149,3357,3389,3195
1508404715403528007,167,1508404715403031787,plot_matl,-0.300000011921,-500.0,-0.040259603411,-0.00711507862434,0.259740382433,128.108947754,0.349065840244,0.0917647331953,-0.0117017608136,-0.0402396172285,-0.00130953162443,-0.00130953162443,0.00819858163595,0.00225687236525,-14.2257452011,-14.2257452011,-51.778087616,-120.63861084,2015,2056,2131,2021,2021,2862,3362,3373,3198,3316,3044,2965,3070,3065,3168,2818,3358,3360,3181,3268,2910,3283,3312,3035,0.009994878,1.670005673,1.669144626,0.453785598278,4500.0,0.440830588341,-0.00253249402158,-0.0129550211132,58.2975959778,0.0,6000.0,-0.0116430809721,0.00701005896553,-0.0116430809721,67.6867446899,0.349065840244,0.0289103612304,-0.00355234579183,0.306698650122,0.0160721782595,0.0160721782595,-0.00494883256033,-0.0100159738213,109.048240662,109.048240662,0.246191874146,61.3503723145,2035,2037,2553,2044,2044,2928,3426,3427,3244,3365,3089,3055,3158,3153,3243,2889,3420,3426,3265,3376,3149,3357,3389,3195
1508404715413223782,168,1508404715413065983,plot_matl,-0.300000011921,-500.0,-0.0402692742646,0.00284324144013,0.25973072648,130.586547852,0.349065840244,0.0917647331953,-0.0116756297648,-0.0402692742646,-0.00128127785865,-0.00128127785865,-0.00575936445966,0.00284324144013,-13.9750957489,-13.9750957489,-52.0874137878,-121.099838257,2026,2064,2130,2022,2022,2862,3362,3373,3198,3316,3044,2965,3070,3065,3168,2818,3358,3361,3182,3267,2908,3283,3312,3038,0.010031749,1.680038826,1.685333832,0.453785598278,4500.0,0.440830588341,-0.0025625557173,-0.0129550211132,58.2975959778,0.0,6000.0,-0.0116921644658,-0.00542925763875,-0.0116921644658,71.7916564941,0.349065840244,0.0265011657029,-0.00357862818055,0.30694425106,-0.00539866602048,-0.00539866602048,-0.00441583851352,-0.0150286806747,109.194778442,109.194778442,0.292574346066,61.6018028259,2037,2037,2552,2049,2049,2928,3426,3427,3244,3365,3089,3055,3158,3153,3243,2889,3420,3425,3264,3375,3150,3357,3392,3193
1508404715423536579,169,1508404715423015082,plot_matl,-0.300000011921,-500.0,-0.0402678437531,0.00281404913403,0.259732156992,130.556121826,0.349065840244,0.0917647331953,-0.0116756297648,-0.0402692742646,-0.00128127785865,-0.00128127785865,-0.00575936445966,0.00284324144013,-13.9750957489,-13.9750957489,-52.0874137878,-121.099838257,2023,2047,2130,2022,2022,2861,3362,3376,3199,3315,3044,2966,3072,3065,3167,2818,3358,3361,3182,3267,2908,3283,3312,3038,0.009949094,1.689987911,1.681396886,0.453785598278,4500.0,0.442180067301,0.0258178431541,-0.0116055402905,52.2249298096,0.0,6000.0,-0.0116567509249,0.00728706037626,-0.0116567509249,67.7138137817,0.349065840244,0.0265011657029,-0.00357862818055,0.30694425106,-0.00539866602048,-0.00539866602048,-0.00441583851352,-0.0150286806747,109.194778442,109.194778442,0.292574346066,61.6018028259,2032,2030,2552,2049,2049,2928,3427,3426,3243,3365,3090,3055,3158,3154,3242,2889,3420,3425,3264,3375,3150,3357,3392,3193
1508404715433402665,170,1508404715433052927,plot_matl,-0.300000011921,-500.0,-0.0402678437531,0.00281404913403,0.259732156992,130.556121826,0.349065840244,0.0917647331953,-0.0116756297648,-0.0402692742646,-0.00128127785865,-0.00128127785865,-0.00575936445966,0.00284324144013,-13.9750957489,-13.9750957489,-52.0874137878,-121.099838257,2016,2055,2130,2022,2022,2861,3362,3376,3199,3315,3044,2966,3072,3065,3167,2818,3357,3359,3180,3269,2910,3283,3310,3035,0.010038055,1.700026226,1.70646935,0.453785598278,4500.0,0.440830588341,-0.00226771971211,-0.0129550211132,58.2975959778,0.0,6000.0,-0.0116567509249,0.00728706037626,-0.0116567509249,67.7138137817,0.349065840244,0.0265011657029,-0.00357862818055,0.30694425106,-0.00539866602048,-0.00539866602048,-0.00441583851352,-0.0150286806747,109.194778442,109.194778442,0.292574346066,61.6018028259,2026,2029,2553,2049,2049,2928,3427,3426,3243,3365,3090,3055,3158,3154,3242,2888,3421,3425,3267,3375,3149,3355,3393,3194
1508404715443408141,171,1508404715443027859,plot_matl,-0.300000011921,-500.0,-0.0402619801462,0.00269779446535,0.259738028049,130.503829956,0.349065840244,0.0917647331953,-0.0116756297648,-0.0402692742646,-0.00128127785865,-0.00128127785865,-0.00575936445966,0.00284324144013,-13.9750957489,-13.9750957489,-52.0874137878,-121.099838257,2018,2053,2130,2022,2022,2861,3364,3376,3199,3317,3043,2964,3070,3065,3167,2818,3357,3359,3180,3269,2910,3283,3310,3035,0.009975885,1.710001995,1.705876335,0.453785598278,4500.0,0.440830588341,-0.00226771971211,-0.0129550211132,58.2975959778,0.0,6000.0,-0.0116699049249,-0.00587237114087,-0.0116699049249,71.7406921387,0.349065840244,0.0265011657029,-0.00357862818055,0.30694425106,-0.00539866602048,-0.00539866602048,-0.00441583851352,-0.0150286806747,109.194778442,109.194778442,0.292574346066,61.6018028259,2030,2029,2553,2045,2045,2928,3427,3427,3242,3362,3089,3054,3161,3154,3242,2888,3421,3425,3267,3375,3149,3355,3393,3194
1508404715453117617,172,1508404715453025257,plot_matl,-0.300000011921,-500.0,-0.0402820818126,-0.00666459137574,0.259717911482,128.290603638,0.349065840244,0.0917647331953,-0.0116699049249,-0.0402619801462,-0.000669348053634,-0.000669348053634,-0.00587237114087,0.00269779446535,-13.9853086472,-13.9853086472,-52.3379096985,-120.781661987,2020,2055,2130,2022,2022,2861,3364,3376,3199,3317,3043,2964,3070,3065,3168,2818,3358,3361,3180,3268,2908,3285,3314,3035,0.009994774,1.719997984,1.719101128,0.453785598278,4500.0,0.440830588341,-0.000114098707854,-0.0129550211132,58.2975959778,0.0,6000.0,-0.0116839427501,0.00784774962813,-0.0116839427501,67.7946777344,0.349065840244,0.0289103612304,-0.00359282433055,0.306932389736,0.0214174091816,0.0214174091816,0.0112126460299,0.0471000410616,109.414497375,109.414497375,-0.0901357978582,61.5549087524,2018,2018,2553,2045,2045,2928,3427,3427,3242,3362,3089,3054,3161,3155,3243,2889,3420,3425,3266,3374,3148,3357,3390,3194
