%time,field.header.seq,field.header.stamp,field.header.frame_id,field.FFJ4_set_point,field.FFJ4_position_gain,field.FFJ4_process_value,field.FFJ4_process_value_dot,field.FFJ4_error,field.FFJ4_command,field.FFJ1,field.FFJ2,field.FFJ3,field.FFJ4,field.FFJ1_dot,field.FFJ2_dot,field.FFJ3_dot,field.FFJ4_dot,field.FFJ1_tao,field.FFJ2_tao,field.FFJ3_tao,field.FFJ4_tao,field.pac0,field.pac1,field.pdc0,field.tac0,field.tdc0,field.el0,field.el1,field.el2,field.el3,field.el4,field.el5,field.el6,field.el7,field.el8,field.el9,field.el10,field.el11,field.el12,field.el13,field.el14,field.el15,field.el16,field.el17,field.el18,field.dt,field.time,field.test_time2,field.FFJ0_set_point,field.FFJ0_position_gain,field.FFJ0_process_value,field.FFJ0_process_value_dot,field.FFJ0_error,field.FFJ0_command,field.FFJ3_set_point,field.FFJ3_position_gain,field.FFJ3_process_value,field.FFJ3_process_value_dot,field.FFJ3_error,field.FFJ3_command,field.MFJ1,field.MFJ2,field.MFJ3,field.MFJ4,field.MFJ1_dot,field.MFJ2_dot,field.MFJ3_dot,field.MFJ4_dot,field.MFJ1_tao,field.MFJ2_tao,field.MFJ3_tao,field.MFJ4_tao,field.Mpac0,field.Mpac1,field.Mpdc0,field.Mtac0,field.Mtdc0,field.Mel0,field.Mel1,field.Mel2,field.Mel3,field.Mel4,field.Mel5,field.Mel6,field.Mel7,field.Mel8,field.Mel9,field.Mel10,field.Mel11,field.Mel12,field.Mel13,field.Mel14,field.Mel15,field.Mel16,field.Mel17,field.Mel18
1508404087336487548,96,1508404087335872413,plot_matl,0.25,-5000.0,0.253796905279,-0.00893439352512,0.0,0.0,0.349065840244,0.0701730325818,-0.00112484302372,0.253815025091,-0.00702653359622,-0.00702653359622,-0.00412249611691,0.0286038927734,-93.8731536865,-93.8731536865,-59.6695671082,93.6179656982,2005,2050,2129,2005,2005,2686,3315,3341,3144,3295,3011,2973,3052,3086,3166,2958,3394,3390,3233,3291,2950,3280,3311,3035,0.010017191,0.959989079,0.961650336,0.453785598278,4500.0,0.419238895178,-0.0135007258505,-0.0345467217267,155.460250854,0.0,6000.0,-0.00113286450505,-0.0039604655467,0.0,0.0,0.349065840244,0.0216827709228,-0.000973341986537,0.309105992317,-0.000864203087986,-0.000864203087986,0.0043214764446,0.0649998560548,116.589759827,116.589759827,0.38627359271,58.6146965027,2017,2023,2558,2018,2018,2937,3431,3429,3251,3370,3098,3049,3156,3146,3240,2856,3409,3418,3252,3371,3141,3353,3392,3197
1508404087346135606,97,1508404087345870566,plot_matl,0.25,-5000.0,0.253714114428,-0.00724324164912,0.0,0.0,0.349065840244,0.0701730325818,-0.00115035101771,0.253728508949,-0.00651723193005,-0.00651723193005,-0.00360799417831,-0.00753267714754,-93.932434082,-93.932434082,-59.7658309937,93.4218597412,2011,2057,2129,2005,2005,2686,3315,3341,3144,3295,3012,2974,3052,3086,3165,2957,3392,3389,3232,3290,2950,3280,3311,3035,0.009996441,0.969986406,0.969654777,0.453785598278,4500.0,0.419238895178,-0.0130521822721,-0.0345467217267,155.460250854,0.0,6000.0,-0.00113168137614,0.00943705812097,0.0,0.0,0.349065840244,0.0216827709228,-0.00098835316021,0.309129595757,-0.00119172607083,-0.00119172607083,0.00464185653254,0.00270608835854,116.597236633,116.597236633,0.496397703886,58.5005531311,2018,2027,2558,2018,2018,2937,3431,3429,3251,3370,3100,3047,3155,3144,3238,2857,3411,3420,3254,3372,3141,3353,3392,3197
1508404087356251911,98,1508404087355875176,plot_matl,0.25,-5000.0,0.253754138947,-0.00800512079149,0.0,0.0,0.349065840244,0.0701730325818,-0.00113689550199,0.253732562065,-0.00582454074174,-0.00582454074174,-0.00389471231028,-0.00756481196731,-93.9361038208,-93.9361038208,-59.6791725159,93.3077545166,2015,2055,2130,2005,2005,2685,3316,3341,3144,3295,3012,2974,3052,3086,3165,2957,3392,3389,3232,3290,2949,3281,3311,3035,0.010004718,0.979991416,0.980462364,0.453785598278,4500.0,0.419238895178,-0.0117216119543,-0.0345467217267,155.460250854,0.0,6000.0,-0.00113123492338,0.00941515900195,0.0,0.0,0.349065840244,0.0192735753953,-0.000971999776084,0.309154957533,-0.0248578377068,-0.0248578377068,0.00431032665074,0.00225988193415,116.40171051,116.40171051,0.544739067554,58.238155365,2023,2025,2560,2018,2018,2938,3430,3430,3251,3370,3100,3047,3155,3144,3238,2857,3411,3420,3254,3372,3142,3356,3390,3195
1508404087366098254,99,1508404087365857105,plot_matl,0.25,-5000.0,0.253817141056,-0.00926761236042,0.0,0.0,0.349065840244,0.0715225115418,-0.00113482610323,0.253836005926,0.00762470439076,0.00762470439076,-0.0039219846949,-0.00964543502778,-93.9456253052,-93.9456253052,-59.838558197,93.2896347046,2012,2035,2130,2005,2005,2685,3316,3341,3148,3293,3011,2973,3051,3085,3166,2956,3393,3388,3232,3290,2949,3281,3311,3035,0.009981165,0.989973078,0.988135335,0.453785598278,4500.0,0.419238895178,-0.0115485284477,-0.0345467217267,155.460250854,0.0,6000.0,-0.00112965202425,0.00939276628196,0.0,0.0,0.349065840244,0.0216827709228,-0.00098871299997,0.309164077044,-0.0012428908376,-0.0012428908376,0.00463273143396,0.0020098965615,116.296875,116.296875,0.740879297256,58.3811836243,2016,2019,2560,2018,2018,2938,3430,3430,3252,3370,3100,3048,3154,3145,3241,2857,3411,3420,3254,3372,3142,3356,3390,3195
1508404087376514364,100,1508404087375930104,plot_matl,0.25,-5000.0,0.253762513399,-0.00815845746547,0.0,0.0,0.349065840244,0.0715225115418,-0.00113489956129,0.2537792027,0.00767760211602,0.00767760211602,-0.00392107572407,-0.00849158782512,-93.9509506226,-93.9509506226,-59.7774124146,93.4478530884,2037,2058,2129,2002,2002,2686,3316,3341,3148,3293,3011,2973,3051,3085,3166,2956,3393,3388,3231,3288,2948,3279,3311,3035,0.010074826,1.000046659,1.0074826,0.453785598278,4500.0,0.419238895178,-0.0119740664959,-0.0345467217267,155.460250854,0.0,6000.0,-0.00112961605191,0.00939268432558,0.0,0.0,0.349065840244,0.0240919683129,-0.000988274929114,0.309123665094,0.0228281766176,0.0228281766176,0.00462304335088,0.00284706568345,116.288146973,116.288146973,0.423597872257,58.3770141602,2037,2032,2559,2018,2018,2938,3430,3430,3252,3370,3100,3048,3154,3145,3241,2857,3411,3420,3255,3370,3142,3354,3394,3197
1508404087386294865,101,1508404087385867356,plot_matl,0.25,-5000.0,0.253757745028,0.0298201777041,0.0,0.0,0.349065840244,0.0701730325818,-0.00113318115473,0.253735601902,-0.00560358865187,-0.00560358865187,0.00947029236704,-0.00764068309218,-93.9264068604,-93.9264068604,-59.7014503479,93.2178649902,2023,2056,2129,2002,2002,2686,3314,3341,3145,3294,3010,2973,3051,3088,3166,2957,3393,3388,3231,3288,2948,3279,3311,3035,0.009935933,1.009983831,1.003529233,0.453785598278,4500.0,0.419238895178,-0.010768590495,-0.0345467217267,155.460250854,0.0,6000.0,-0.00112796970643,-0.0040578795597,0.0,0.0,0.349065840244,0.0216827709228,-0.00100193917751,0.308985441923,-0.000828524644021,-0.000828524644021,0.00489489780739,0.00562099134549,116.39276123,116.39276123,0.280779480934,58.4132652283,2027,2026,2559,2018,2018,2938,3428,3428,3255,3370,3099,3047,3156,3144,3239,2856,3411,3420,3255,3370,3142,3354,3394,3197
1508404087396315471,102,1508404087395865471,plot_matl,0.25,-5000.0,0.253757447004,0.0298262834549,0.0,0.0,0.349065840244,0.0715225115418,-0.00109564047307,0.253734707832,0.00730981864035,0.00730981864035,-0.00471017602831,0.0302722323686,-94.0047607422,-94.0047607422,-59.6173400879,93.3821792603,2017,2054,2130,2003,2003,2686,3314,3341,3145,3294,3010,2973,3051,3088,3166,2957,3394,3388,3230,3289,2948,3281,3312,3033,0.009998015,1.019982311,1.01979753,0.453785598278,4500.0,0.420588374138,0.0140531333163,-0.0331972427666,149.387588501,0.0,6000.0,-0.00109220703598,-0.00478509208187,0.0,0.0,0.349065840244,0.0216827709228,-0.00101284729317,0.308919131756,-0.00067779555684,-0.00067779555684,-0.0102286860347,0.00693397922441,116.499916077,116.499916077,0.485967725515,58.6046104431,2022,2022,2560,2019,2019,2938,3428,3428,3255,3370,3099,3047,3156,3144,3239,2856,3409,3419,3256,3371,3142,3353,3391,3199
1508404087406366600,103,1508404087405856645,plot_matl,0.25,-5000.0,0.253720641136,-0.00734384357929,0.0,0.0,0.349065840244,0.0715225115418,-0.00107844814193,0.253735512495,0.00722646154463,0.00722646154463,0.00835935864598,-0.00764232687652,-94.0369262695,-94.0369262695,-59.3989830017,93.3025512695,2016,2068,2130,2003,2003,2686,3315,3339,3145,3294,3010,2972,3053,3086,3166,2957,3394,3388,3230,3289,2948,3281,3312,3033,0.009990667,1.029973225,1.029038701,0.453785598278,4500.0,0.420588374138,0.0144154746085,-0.0331972427666,149.387588501,0.0,6000.0,-0.00107542332262,-0.00512456195429,0.0,0.0,0.349065840244,0.0216827709228,-0.000993121298961,0.308921098709,-0.00149373523891,-0.00149373523891,0.00470947474241,0.00688505358994,116.442550659,116.442550659,0.580559849739,58.2944908142,2030,2035,2560,2019,2019,2939,3429,3431,3252,3370,3100,3049,3155,3144,3239,2856,3409,3419,3256,3371,3142,3353,3391,3199
1508404087416199380,104,1508404087415866105,plot_matl,0.25,-5000.0,0.253622442484,-0.00536627788097,0.0,0.0,0.349065840244,0.0701730325818,-0.00108847231604,0.253633677959,-0.00696426583454,-0.00696426583454,-0.0048664547503,-0.00559131288901,-94.0302352905,-94.0302352905,-59.3310317993,93.3597717285,2010,2065,2130,2003,2003,2686,3315,3339,3145,3294,3010,2972,3053,3086,3167,2957,3392,3387,3233,3291,2947,3279,3310,3035,0.010008955,1.0399828,1.04093132,0.453785598278,4500.0,0.419238895178,-0.0139110609889,-0.0345467217267,155.460250854,0.0,6000.0,-0.00108490197454,-0.00493801478297,0.0,0.0,0.349065840244,0.0216827709228,-0.00101943581831,0.308809131384,-0.00213830894791,-0.00213830894791,0.00523254927248,-0.0527275800705,116.466827393,116.466827393,0.473784476519,58.5752029419,2021,2030,2560,2019,2019,2939,3429,3431,3252,3370,3100,3049,3155,3144,3239,2857,3412,3419,3255,3373,3141,3355,3392,3199
1508404087426221463,105,1508404087425905353,plot_matl,0.25,-5000.0,0.253645658493,0.0320211350918,0.0,0.0,0.349065840244,0.0715225115418,-0.00109529029578,0.253581404686,0.00593116087839,0.00593116087839,-0.00471171364188,-0.00459470273927,-94.096534729,-94.096534729,-59.1810035706,93.3573989868,2007,2044,2129,2004,2004,2687,3315,3340,3145,3295,3010,2972,3053,3086,3167,2957,3392,3387,3233,3291,2947,3279,3310,3035,0.010038446,1.050021878,1.05403683,0.453785598278,4500.0,0.420588374138,0.0114003792405,-0.0331972427666,149.387588501,0.0,6000.0,-0.00109146535397,0.00863142218441,0.0,0.0,0.349065840244,0.0216827709228,-0.00101139384788,0.30883321166,-0.00300143496133,-0.00300143496133,0.0050748870708,0.00858775060624,116.422958374,116.422958374,0.567650437355,58.4169120789,2013,2019,2559,2020,2020,2939,3430,3431,3253,3372,3100,3047,3155,3144,3239,2857,3412,3419,3255,3373,3141,3355,3392,3199
1508404087435972841,106,1508404087435840529,plot_matl,0.25,-5000.0,0.253664135933,0.0316073410213,0.0,0.0,0.349065840244,0.0701730325818,-0.00107809575275,0.25363817811,-0.00727331917733,-0.00727331917733,-0.00507592689246,-0.00578276161104,-94.0790634155,-94.0790634155,-59.2866287231,93.1841888428,2030,2063,2129,2004,2004,2687,3315,3340,3145,3295,3010,2972,3051,3087,3165,2955,3394,3387,3233,3291,2950,3278,3310,3035,0.009932631,1.05995584,1.052858886,0.453785598278,4500.0,0.419238895178,-0.0145049318671,-0.0345467217267,155.460250854,0.0,6000.0,-0.00108804646879,-0.00487456284463,0.0,0.0,0.349065840244,0.0216827709228,-0.000993551220745,0.308910489082,-0.003338978393,-0.003338978393,0.00471939425915,0.00703343795612,116.349822998,116.349822998,0.607805848122,58.7060127258,2027,2026,2559,2020,2020,2939,3430,3431,3253,3372,3100,3047,3156,3146,3238,2856,3409,3419,3254,3370,3143,3353,3392,3199
1508404087446071365,107,1508404087445840193,plot_matl,0.25,-5000.0,0.253607839346,-0.00515846954659,0.0,0.0,0.349065840244,0.0715225115418,-0.00109963153955,0.253617823124,0.00592333357781,0.00592333357781,-0.0046494603157,-0.00536201614887,-94.0645828247,-94.0645828247,-59.2155799866,93.178237915,2030,2063,2129,2004,2004,2687,3315,3340,3145,3295,3010,2972,3051,3087,3165,2955,3394,3387,3233,3291,2950,3278,3310,3035,0.010000671,1.069956154,1.070071797,0.453785598278,4500.0,0.419238895178,-0.0153275039047,-0.0345467217267,155.460250854,0.0,6000.0,-0.00109532242641,0.00868578255177,0.0,0.0,0.349065840244,0.0216827709228,-0.00099281524308,0.308909595013,-0.00404925551265,-0.00404925551265,0.00471549853683,-0.0548550076783,116.277259827,116.277259827,0.614825189114,58.6019287109,2027,2026,2559,2020,2020,2939,3430,3431,3253,3372,3100,3047,3156,3146,3238,2856,3409,3419,3254,3370,3143,3353,3392,3199
1508404087456327071,108,1508404087455869207,plot_matl,0.25,-5000.0,0.2534968853,0.0349706187844,0.0,0.0,0.349065840244,0.0701730325818,-0.00107986072544,0.253463745117,-0.00752172945067,-0.00752172945067,0.00837233662605,-0.00227683386765,-94.0174255371,-94.0174255371,-59.3394889832,93.1701278687,2001,2034,2130,2004,2004,2685,3313,3340,3147,3295,3008,2972,3051,3088,3165,2956,3394,3389,3234,3291,2950,3278,3310,3035,0.010030144,1.079985778,1.083255552,0.453785598278,4500.0,0.419238895178,-0.0144539140165,-0.0345467217267,155.460250854,0.0,6000.0,-0.00107684044633,-0.00511204591021,0.0,0.0,0.349065840244,0.0216827709228,-0.00100457039662,0.308635950089,-0.00332069327123,-0.00332069327123,0.0049632997252,-0.049332164228,116.231117249,116.231117249,0.726282119751,58.5124359131,2010,2012,2560,2020,2020,2938,3429,3431,3253,3371,3101,3048,3156,3144,3237,2856,3411,3420,3252,3370,3143,3353,3391,3197
1508404087466425082,109,1508404087465919741,plot_matl,0.25,-5000.0,0.253467589617,-0.00236065499485,0.0,0.0,0.349065840244,0.0715225115418,-0.00106474501081,0.253472208977,0.00593654578552,0.00593654578552,-0.00534750940278,-0.0024571872782,-94.049118042,-94.049118042,-59.5024375916,93.0973129272,2024,2064,2130,2005,2005,2685,3314,3340,3147,3295,3008,2972,3051,3088,3165,2956,3394,3389,3234,3291,2949,3281,3311,3034,0.010051059,1.090036196,1.095565431,0.453785598278,4500.0,0.420588374138,0.0114066489041,-0.0331972427666,149.387588501,0.0,6000.0,-0.00106220098678,-0.00539846019819,0.0,0.0,0.349065840244,0.0240919683129,-0.00101407791954,0.308578461409,0.0202847979963,0.0202847979963,-0.0101856831461,0.013695304282,116.264793396,116.264793396,0.631951212883,58.6079521179,2023,2027,2560,2018,2018,2939,3431,3431,3253,3371,3101,3048,3156,3144,3237,2856,3411,3420,3252,3370,3143,3356,3392,3199
1508404087476272465,110,1508404087475877760,plot_matl,0.25,-5000.0,0.253416150808,-0.00130743719637,0.0,0.0,0.349065840244,0.0701730325818,-0.00105277774855,0.253418684006,-0.00752476928756,-0.00752476928756,-0.00558901578188,-0.00136071292218,-94.0402145386,-94.0402145386,-59.4900741577,93.0823974609,2021,2053,2130,2005,2005,2685,3314,3340,3146,3293,3010,2972,3053,3087,3167,2957,3394,3387,3234,3291,2949,3281,3311,3034,0.009956024,1.099993939,1.09516264,0.453785598278,4500.0,0.419238895178,-0.014460307546,-0.0345467217267,155.460250854,0.0,6000.0,-0.00105057528708,-0.00563035672531,0.0,0.0,0.349065840244,0.0192735753953,-0.00103619636502,0.308369547129,-0.0271772556007,-0.0271772556007,0.00560305733234,-0.0439235195518,116.316711426,116.316711426,0.704442799091,58.6965942383,2025,2023,2560,2018,2018,2939,3431,3431,3253,3372,3098,3046,3155,3143,3239,2856,3409,3419,3252,3370,3143,3356,3392,3199
1508404087486284731,111,1508404087485857322,plot_matl,0.25,-5000.0,0.253477722406,0.0353731624782,0.0,0.0,0.349065840244,0.0701730325818,-0.00104332796764,0.253406971693,-0.0066555631347,-0.0066555631347,-0.00578317651525,-0.0011136328103,-94.1399307251,-94.1399307251,-59.4291305542,93.0823287964,2021,2046,2129,2004,2004,2685,3314,3340,3146,3293,3010,2972,3053,3087,3167,2957,3394,3387,3232,3289,2950,3280,3310,3032,0.009979227,1.109973567,1.107694197,0.453785598278,4500.0,0.420588374138,0.0139341969043,-0.0331972427666,149.387588501,0.0,6000.0,-0.00102863332722,0.00734438607469,0.0,0.0,0.349065840244,0.0216827709228,-0.00106525223237,0.308307349682,-0.00273384177126,-0.00273384177126,-0.00912145432085,0.018983207643,116.216804504,116.216804504,0.937884032726,58.7314186096,2021,2016,2559,2019,2019,2938,3431,3431,3253,3372,3098,3046,3155,3143,3239,2856,3409,3419,3254,3372,3142,3354,3392,3198
1508404087496327382,112,1508404087495884413,plot_matl,0.25,-5000.0,0.253521054983,-0.0034010047093,0.0,0.0,0.349065840244,0.0715225115418,-0.0010608023731,0.253527849913,0.00642393017188,0.00642393017188,-0.00542790116742,-0.00353965722024,-94.1475143433,-94.1475143433,-59.3035774231,93.325881958,2032,2050,2129,2004,2004,2685,3315,3343,3144,3293,3009,2972,3050,3085,3165,2958,3394,3387,3232,3289,2950,3280,3310,3032,0.010027591,1.120001093,1.123090192,0.453785598278,4500.0,0.419238895178,-0.0143769457936,-0.0345467217267,155.460250854,0.0,6000.0,-0.00107130524702,-0.00521528394893,0.0,0.0,0.349065840244,0.0240919683129,-0.00106748729013,0.30842590332,0.0203436650336,0.0203436650336,-0.00908873323351,0.0166674740613,116.241821289,116.241821289,0.872215688229,58.5161247253,2029,2028,2559,2019,2019,2938,3430,3430,3253,3370,3101,3047,3156,3145,3240,2858,3409,3419,3254,3372,3142,3354,3392,3198
1508404087506298555,113,1508404087505861154,plot_matl,0.25,-5000.0,0.253562688828,-0.00424693757668,0.0,0.0,0.349065840244,0.0701730325818,-0.00105902028736,0.253532856703,-0.00663688173518,-0.00663688173518,0.00796532165259,0.034269426018,-94.1986694336,-94.1986694336,-59.2146110535,93.3214263916,2030,2054,2130,2004,2004,2685,3315,3343,3144,3293,3009,2972,3050,3085,3165,2958,3393,3386,3232,3289,2949,3282,3311,3034,0.009975964,1.129977428,1.127283932,0.453785598278,4500.0,0.419238895178,-0.0127476742491,-0.0345467217267,155.460250854,0.0,6000.0,-0.00104338268284,0.00764962658286,0.0,0.0,0.349065840244,0.0240919683129,-0.00105279800482,0.308525651693,0.0205891542137,0.0205891542137,0.00595939485356,0.0147376107052,116.350158691,116.350158691,0.845039844513,58.4635353088,2027,2028,2560,2017,2017,2938,3430,3430,3253,3370,3101,3047,3156,3145,3240,2858,3411,3419,3255,3372,3143,3354,3390,3196
1508404087516152157,114,1508404087515857524,plot_matl,0.25,-5000.0,0.253554910421,0.0337624102831,0.0,0.0,0.349065840244,0.0715225115418,-0.00101227837149,0.253565311432,0.00713729579002,0.00713729579002,-0.00638852827251,-0.00432733539492,-94.1959075928,-94.1959075928,-59.2666664124,93.1790618896,2007,2041,2130,2004,2004,2685,3313,3341,3145,3293,3011,2974,3051,3086,3165,2958,3393,3386,3232,3289,2949,3282,3311,3034,0.00999609,1.139974095,1.13955426,0.453785598278,4500.0,0.419238895178,-0.0124832661822,-0.0345467217267,155.460250854,0.0,6000.0,-0.00102490675636,-0.00613374728709,0.0,0.0,0.349065840244,0.0216827709228,-0.00105009775143,0.308392107487,-0.0030600738246,-0.0030600738246,0.00591086875647,0.0174900721759,116.356582642,116.356582642,0.955775618553,58.4948043823,2015,2016,2560,2017,2017,2939,3427,3432,3253,3371,3100,3048,3156,3146,3240,2858,3411,3419,3255,3372,3143,3354,3390,3196
1508404087526132376,115,1508404087525842386,plot_matl,0.25,-5000.0,0.253650486469,-0.00604223273695,0.0,0.0,0.349065840244,0.0715225115418,-0.0010205686558,0.253662735224,0.00701731815934,0.00701731815934,0.00719466619194,-0.00629207212478,-94.2008056641,-94.2008056641,-59.3412322998,93.2597122192,2017,2062,2130,2004,2004,2685,3313,3341,3145,3293,3011,2974,3051,3086,3167,2956,3392,3387,3232,3291,2950,3280,3310,3035,0.009983089,1.149958268,1.148055235,0.453785598278,4500.0,0.420588374138,0.0140132540837,-0.0331972427666,149.387588501,0.0,6000.0,-0.0010197465308,0.00717285322025,0.0,0.0,0.349065840244,0.0216827709228,-0.00103829440195,0.308498203754,-0.00246452959254,-0.00246452959254,-0.00967901386321,0.0153406374156,116.399421692,116.399421692,1.13992071152,58.3134040833,2031,2034,2560,2017,2017,2939,3427,3432,3253,3371,3100,3048,3156,3146,3240,2858,3412,3420,3255,3371,3142,3354,3393,3197
1508404087536259489,116,1508404087535851013,plot_matl,0.25,-5000.0,0.253730148077,0.0302630737424,0.0,0.0,0.349065840244,0.0701730325818,-0.00103989103809,0.253706932068,-0.00639165611938,-0.00639165611938,-0.00583259668201,-0.00718075502664,-94.2359924316,-94.2359924316,-59.2238998413,93.2515411377,2024,2062,2129,2002,2002,2686,3314,3341,3144,3293,3010,2973,3051,3086,3167,2956,3392,3387,3232,3291,2950,3280,3310,3035,0.010009953,1.159967427,1.161154548,0.453785598278,4500.0,0.419238895178,-0.0128112016246,-0.0345467217267,155.460250854,0.0,6000.0,-0.0010251714848,0.00729328114539,0.0,0.0,0.349065840244,0.0192735753953,-0.00109723291826,0.308578550816,-0.02674761042,-0.02674761042,0.00684839254245,0.0136963669211,116.252532959,116.252532959,1.10229730606,58.379863739,2028,2027,2560,2019,2019,2939,3431,3430,3252,3369,3099,3047,3156,3146,3240,2858,3412,3420,3255,3371,3142,3354,3393,3197
1508404087546213705,117,1508404087545911007,plot_matl,0.25,-5000.0,0.253765881062,-0.0083424244076,0.0,0.0,0.349065840244,0.0715225115418,-0.00102091173176,0.253782480955,0.00740726431832,0.00740726431832,-0.00619758525863,-0.00867905188352,-94.3057174683,-94.3057174683,-59.1294059753,93.2492675781,2017,2061,2129,2002,2002,2686,3314,3341,3144,3293,3010,2973,3053,3085,3166,2959,3394,3389,3233,3291,2949,3280,3310,3035,0.010059319,1.170027452,1.176940323,0.453785598278,4500.0,0.419238895178,-0.0119514251128,-0.0345467217267,155.460250854,0.0,6000.0,-0.00103285862133,-0.00595720484853,0.0,0.0,0.349065840244,0.0240919683129,-0.00109259109013,0.308755815029,0.0209872219712,0.0209872219712,0.00672571267933,0.0101342443377,116.235031128,116.235031128,0.942126989365,58.0908660889,2022,2028,2560,2019,2019,2939,3431,3430,3252,3369,3099,3047,3154,3146,3239,2857,3410,3421,3254,3372,3141,3353,3393,3197
1508404087556450790,118,1508404087555877981,plot_matl,0.25,-5000.0,0.253689497709,-0.0067647327669,0.0,0.0,0.349065840244,0.0701730325818,-0.0010399799794,0.253741025925,-0.00611528707668,-0.00611528707668,-0.00580987287685,-0.0077960183844,-94.287689209,-94.287689209,-58.9474334717,93.5693130493,2028,2075,2130,2001,2001,2685,3316,3342,3146,3294,3010,2973,3053,3085,3166,2959,3394,3389,3233,3291,2949,3280,3311,3036,0.009968042,1.179994662,1.176228956,0.453785598278,4500.0,0.419238895178,-0.0122796799988,-0.0345467217267,155.460250854,0.0,6000.0,-0.00103832723107,0.00757586676627,0.0,0.0,0.349065840244,0.0240919683129,-0.00106010609306,0.308679133654,0.0211521238089,0.0211521238089,0.00607132539153,-0.0501660481095,116.224075317,116.224075317,0.936759889126,58.2242431641,2029,2033,2560,2018,2018,2940,3429,3430,3251,3371,3099,3047,3154,3146,3239,2857,3410,3421,3254,3372,3141,3353,3393,3198
1508404087566318033,119,1508404087565865151,plot_matl,0.25,-5000.0,0.253727763891,0.0303728543222,0.0,0.0,0.349065840244,0.0701730325818,-0.0010327702621,0.253705173731,-0.00648306403309,-0.00648306403309,-0.00597047945485,-0.00707409670576,-94.2370223999,-94.2370223999,-59.2159881592,93.5718688965,2023,2068,2130,2001,2001,2685,3316,3342,3146,3294,3010,2971,3053,3086,3166,2958,3393,3387,3233,3290,2949,3280,3311,3036,0.009985982,1.189981841,1.188331858,0.453785598278,4500.0,0.419238895178,-0.012456507422,-0.0345467217267,155.460250854,0.0,6000.0,-0.00103117735125,-0.00599700957537,0.0,0.0,0.349065840244,0.0216827709228,-0.00107395485975,0.30862352252,-0.00300581147894,-0.00300581147894,0.00635270355269,0.0128351505846,116.403549194,116.403549194,0.88643103838,58.2842292786,2024,2027,2560,2018,2018,2940,3429,3430,3251,3371,3099,3047,3154,3146,3238,2856,3411,3419,3254,3371,3141,3353,3393,3198
1508404087576204461,120,1508404087575869590,plot_matl,0.25,-5000.0,0.253766030073,0.0296116899699,0.0,0.0,0.349065840244,0.0701730325818,-0.0010264639277,0.253743857145,-0.00627050828189,-0.00627050828189,-0.00609577307478,0.0300559066236,-93.9723358154,-93.9723358154,-59.2732963562,93.5819473267,2022,2060,2130,2002,2002,2687,3317,3343,3146,3294,3010,2971,3053,3086,3166,2958,3393,3387,3233,3290,2950,3280,3312,3034,0.010004263,1.199986316,1.20051156,0.453785598278,4500.0,0.420588374138,0.0141405593604,-0.0331972427666,149.387588501,0.0,6000.0,-0.00101222097874,0.00703873764724,0.0,0.0,0.349065840244,0.0240919683129,-0.00108628999442,0.308685541153,0.0209183823317,0.0209183823317,0.0065951119177,0.0115923220292,116.373542786,116.373542786,0.940371870995,58.3830909729,2026,2029,2560,2022,2022,2940,3430,3432,3251,3371,3099,3047,3154,3146,3238,2856,3411,3419,3254,3371,3142,3354,3393,3196
1508404087586382341,121,1508404087585884939,plot_matl,0.25,-5000.0,0.253763020039,-0.008255738765,0.0,0.0,0.349065840244,0.0715225115418,-0.00104585115332,0.253742396832,0.00702243112028,0.00702243112028,-0.00570336170495,0.0300695598125,-94.0160522461,-94.0160522461,-59.3083724976,93.3064880371,2026,2060,2130,2002,2002,2687,3317,3343,3145,3294,3008,2973,3052,3087,3166,2955,3393,3387,3233,3290,2950,3280,3312,3034,0.010014898,1.210001925,1.211802658,0.453785598278,4500.0,0.420588374138,0.0140235694125,-0.0331972427666,149.387588501,0.0,6000.0,-0.00104372040369,0.00767517508939,0.0,0.0,0.349065840244,0.0216827709228,-0.00106789788697,0.308679133654,-0.00405580131337,-0.00405580131337,0.00622668815777,0.0117755988613,116.525978088,116.525978088,0.986338973045,58.2560501099,2035,2032,2560,2022,2022,2940,3430,3432,3253,3372,3100,3046,3155,3146,3239,2857,3409,3419,3254,3371,3142,3354,3393,3196
1508404087596312515,122,1508404087595912470,plot_matl,0.25,-5000.0,0.253721296787,-0.00741920806468,0.0,0.0,0.349065840244,0.0715225115418,-0.00103689962998,0.253736227751,0.00645152619109,0.00645152619109,-0.00589855667204,-0.00772104877979,-94.1265411377,-94.1265411377,-59.3590812683,93.1348114014,2033,2064,2129,2006,2006,2685,3317,3343,3145,3294,3008,2973,3052,3087,3166,2955,3393,3387,3234,3289,2950,3278,3312,3035,0.010026709,1.22002896,1.223258498,0.453785598278,4500.0,0.419238895178,-0.0143292611465,-0.0345467217267,155.460250854,0.0,6000.0,-0.00103547039907,0.00749247102067,0.0,0.0,0.349065840244,0.0216827709228,-0.00105452060234,0.30880010128,-0.00416672648862,-0.00416672648862,-0.00938904006034,0.00935504212976,116.355728149,116.355728149,0.73133045435,58.3010253906,2035,2030,2560,2024,2024,2939,3430,3432,3253,3372,3100,3046,3155,3146,3239,2857,3409,3419,3254,3371,3143,3356,3391,3197
1508404087605979676,123,1508404087605839486,plot_matl,0.25,-5000.0,0.253655016422,-0.00607966678217,0.0,0.0,0.349065840244,0.0701730325818,-0.00104073109105,0.253667265177,-0.00711688911542,-0.00711688911542,-0.00581055181101,-0.00632755318657,-94.1380691528,-94.1380691528,-59.4398269653,93.2550430298,2027,2054,2129,2006,2006,2685,3312,3342,3145,3295,3010,2972,3054,3087,3167,2956,3393,3387,3234,3289,2950,3278,3312,3035,0.009925195,1.229955143,1.220798985,0.453785598278,4500.0,0.420588374138,0.0130551625043,-0.0331972427666,149.387588501,0.0,6000.0,-0.001025990583,0.00731884082779,0.0,0.0,0.349065840244,0.0216827709228,-0.00109535304364,0.30888313055,-0.00381638435647,-0.00381638435647,-0.00856301467866,0.00766664277762,116.515289307,116.515289307,0.740482330322,58.2927055359,2030,2028,2560,2024,2024,2939,3430,3432,3252,3370,3101,3048,3156,3145,3240,2856,3409,3419,3254,3371,3143,3356,3391,3197
1508404087615995570,124,1508404087615840845,plot_matl,0.25,-5000.0,0.253673881292,-0.00640370510519,0.0,0.0,0.349065840244,0.0715225115418,-0.00104724883568,0.253648281097,0.00680806022137,0.00680806022137,0.00773715320975,-0.00590295344591,-94.1129455566,-94.1129455566,-59.249710083,93.219367981,2002,2032,2130,2005,2005,2685,3312,3342,3145,3295,3010,2972,3054,3087,3167,2956,3392,3385,3233,3292,2949,3280,3311,3034,0.010000805,1.239956504,1.24009982,0.453785598278,4500.0,0.420588374138,0.0130861932412,-0.0331972427666,149.387588501,0.0,6000.0,-0.00105821166653,-0.00546682951972,0.0,0.0,0.349065840244,0.0216827709228,-0.00108998734504,0.308840185404,-0.00354133220389,-0.00354133220389,-0.00866226200014,0.00857010949403,116.487167358,116.487167358,0.829369008541,58.4951133728,2010,2005,2560,2021,2021,2939,3430,3432,3252,3370,3101,3048,3156,3145,3240,2856,3413,3420,3255,3371,3141,3356,3391,3199
1508404087626259412,125,1508404087625904539,plot_matl,0.25,-5000.0,0.253757536411,-0.00809038896114,0.0,0.0,0.349065840244,0.0701730325818,-0.00108514924068,0.253733485937,-0.00679908879101,-0.00679908879101,-0.00492174224928,-0.00764130987227,-94.1630706787,-94.1630706787,-59.4738235474,93.1643447876,2019,2048,2130,2005,2005,2686,3316,3340,3144,3292,3010,2974,3051,3086,3167,2956,3392,3385,3233,3292,2949,3280,3311,3034,0.010065968,1.2500215,1.258246,0.453785598278,4500.0,0.419238895178,-0.0135941756889,-0.0345467217267,155.460250854,0.0,6000.0,-0.00109498412348,-0.00472318287939,0.0,0.0,0.349065840244,0.0216827709228,-0.00108764157631,0.308754891157,-0.00423180684447,-0.00423180684447,-0.00871438253671,0.0103139905259,116.576637268,116.576637268,0.902138829231,58.5006599426,2020,2020,2560,2021,2021,2938,3429,3431,3252,3371,3101,3047,3156,3145,3240,2856,3413,3420,3255,3371,3141,3356,3391,3199
1508404087636291324,126,1508404087635860919,plot_matl,0.25,-5000.0,0.253683716059,-0.00662227906287,0.0,0.0,0.349065840244,0.0715225115418,-0.0010803558398,0.253697156906,0.00680335331708,0.00680335331708,0.00839868653566,-0.00689268391579,-94.1748275757,-94.1748275757,-59.4778938293,93.1576385498,2019,2054,2130,2005,2005,2686,3316,3340,3144,3292,3010,2974,3051,3086,3167,2958,3394,3388,3233,3290,2948,3280,3313,3034,0.009955001,1.259977449,1.254330126,0.453785598278,4500.0,0.419238895178,-0.0141785452142,-0.0345467217267,155.460250854,0.0,6000.0,-0.00106404011603,0.00806920044124,0.0,0.0,0.349065840244,0.0216827709228,-0.00106944236904,0.308726787567,-0.00431642774493,-0.00431642774493,-0.00907137524337,-0.0509923174977,116.57245636,116.57245636,0.699878513813,58.7112388611,2025,2031,2560,2021,2021,2938,3429,3431,3252,3371,3101,3047,3156,3145,3239,2858,3411,3420,3256,3372,3142,3354,3392,3197
1508404087646250290,127,1508404087645856252,plot_matl,0.25,-5000.0,0.253683716059,-0.00662227906287,0.0,0.0,0.349065840244,0.0715225115418,-0.00105838489253,0.253699094057,0.0060290209949,0.0060290209949,-0.00548605620861,-0.00697706034407,-94.1067886353,-94.1067886353,-59.5639343262,93.0632247925,2019,2054,2130,2005,2005,2686,3316,3340,3144,3292,3010,2974,3051,3086,3167,2958,3394,3388,3233,3290,2948,3280,3313,3034,0.009995078,1.269972607,1.269374906,0.453785598278,4500.0,0.419238895178,-0.0141785452142,-0.0345467217267,155.460250854,0.0,6000.0,-0.00106404011603,0.00806920044124,0.0,0.0,0.349065840244,0.0216827709228,-0.00109925423749,0.308828294277,-0.00301745417528,-0.00301745417528,-0.00867970660329,0.00879765395075,116.609016418,116.609016418,0.651421010494,58.9477806091,2025,2031,2560,2021,2021,2938,3429,3431,3252,3371,3101,3047,3156,3145,3239,2858,3411,3420,3256,3372,3142,3354,3392,3197
1508404087656000398,128,1508404087655843075,plot_matl,0.25,-5000.0,0.25381487608,0.0290173441172,0.0,0.0,0.349065840244,0.0715225115418,-0.00108653784264,0.253851950169,0.005338487681,0.005338487681,-0.00492955511436,-0.0101307211444,-93.9168624878,-93.9168624878,-59.6179542542,92.7260284424,2030,2065,2130,2006,2006,2690,3321,3351,3157,3307,3023,2986,3051,3086,3167,2958,3394,3388,3233,3290,2948,3280,3313,3034,0.009985301,1.279958806,1.278118528,0.453785598278,4500.0,0.419238895178,-0.0159230474383,-0.0345467217267,155.460250854,0.0,6000.0,-0.00109358353075,-0.00477230828255,0.0,0.0,0.349065840244,0.0216827709228,-0.00109043810517,0.308916062117,-0.00534374266863,-0.00534374266863,0.0067265117541,0.00700937397778,116.935699463,116.935699463,0.96127396822,58.8690414429,2034,2028,2561,2020,2020,2942,3438,3442,3264,3382,3114,3061,3156,3145,3239,2858,3411,3420,3256,3372,3142,3354,3392,3197
1508404087666026599,129,1508404087665837868,plot_matl,0.25,-5000.0,0.25381487608,0.0290173441172,0.0,0.0,0.349065840244,0.0715225115418,-0.00108653784264,0.253851950169,0.005338487681,0.005338487681,-0.00492955511436,-0.0101307211444,-93.9168624878,-93.9168624878,-59.6179542542,92.7260284424,2030,2065,2130,2006,2006,2690,3321,3351,3157,3307,3023,2986,3051,3086,3167,2958,3394,3388,3233,3290,2948,3280,3313,3034,0.009994382,1.289953538,1.289275278,0.453785598278,4500.0,0.419238895178,-0.0159230474383,-0.0345467217267,155.460250854,0.0,6000.0,-0.00112566328607,0.00942667666823,0.0,0.0,0.349065840244,0.0216827709228,-0.00109043810517,0.308916062117,-0.00534374266863,-0.00534374266863,0.0067265117541,0.00700937397778,116.935699463,116.935699463,0.96127396822,58.8690414429,2034,2028,2561,2020,2020,2942,3438,3442,3264,3382,3114,3061,3156,3145,3239,2858,3411,3420,3256,3372,3142,3354,3392,3197
1508404087676476279,130,1508404087675932557,plot_matl,0.25,-5000.0,0.253996402025,0.025564301759,0.0,0.0,0.349065840244,0.0715225115418,-0.00108653784264,0.253851950169,0.005338487681,0.005338487681,-0.00492955511436,-0.0101307211444,-93.9168624878,-93.9168624878,-59.6179542542,92.7260284424,2035,2060,2130,2006,2006,2690,3321,3351,3157,3307,3023,2986,3069,3101,3182,2971,3409,3404,3248,3310,2965,3302,3313,3034,0.010097698,1.300049107,1.31270074,0.453785598278,4500.0,0.420588374138,0.00979217980057,-0.0331972427666,149.387588501,0.0,6000.0,-0.00112566328607,0.00942667666823,0.0,0.0,0.349065840244,0.0216827709228,-0.00109043810517,0.308916062117,-0.00534374266863,-0.00534374266863,0.0067265117541,0.00700937397778,116.935699463,116.935699463,0.96127396822,58.8690414429,2038,2037,2561,2020,2020,2942,3438,3442,3264,3382,3114,3061,3171,3161,3255,2870,3426,3436,3270,3389,3159,3374,3392,3197
1508404087685968070,131,1508404087685839323,plot_matl,0.25,-5000.0,0.253962546587,-0.0121863828972,0.0,0.0,0.349065840244,0.0715225115418,-0.00108653784264,0.253851950169,0.005338487681,0.005338487681,-0.00492955511436,-0.0101307211444,-93.9168624878,-93.9168624878,-59.6179542542,92.7260284424,2035,2060,2130,2006,2006,2690,3321,3351,3157,3307,3023,2986,3069,3101,3182,2971,3409,3404,3248,3310,2965,3302,3313,3034,0.009903311,1.309954853,1.297333741,0.453785598278,4500.0,0.421937853098,0.0327002070844,-0.0318477600813,143.314926147,0.0,6000.0,-0.00109646213241,-0.00475301686674,0.0,0.0,0.349065840244,0.0216827709228,-0.00109043810517,0.308916062117,-0.00534374266863,-0.00534374266863,0.0067265117541,0.00700937397778,116.935699463,116.935699463,0.96127396822,58.8690414429,2038,2037,2561,2020,2020,2942,3438,3442,3264,3382,3114,3061,3171,3161,3255,2870,3426,3436,3270,3389,3159,3374,3392,3197
1508404087696279882,132,1508404087695884481,plot_matl,0.25,-5000.0,0.253874570131,-0.0104321958497,0.0,0.0,0.349065840244,0.0715225115418,-0.00107227952685,0.253987282515,0.00329128466547,0.00329128466547,0.00830892752856,-0.0126658659428,-94.1169815063,-94.1169815063,-59.3871459961,92.8475036621,2046,2082,2131,2004,2004,2701,3331,3356,3160,3311,3023,2986,3069,3101,3182,2971,3409,3404,3248,3310,2965,3302,3332,3062,0.010047941,1.320001106,1.326328212,0.453785598278,4500.0,0.419238895178,-0.0215142630041,-0.0345467217267,155.460250854,0.0,6000.0,-0.00106948940083,0.00801270455122,0.0,0.0,0.349065840244,0.0216827709228,-0.001077713212,0.309162437916,-0.00468008778989,-0.00468008778989,0.00637595821172,0.00205880706199,116.531951904,116.531951904,0.777196466923,58.6701583862,2053,2049,2560,2020,2020,2953,3445,3445,3264,3385,3114,3061,3171,3161,3255,2870,3426,3436,3270,3389,3159,3374,3412,3222
1508404087705954792,133,1508404087705838218,plot_matl,0.25,-5000.0,0.253874570131,-0.0104321958497,0.0,0.0,0.349065840244,0.0715225115418,-0.00107227952685,0.253987282515,0.00329128466547,0.00329128466547,0.00830892752856,-0.0126658659428,-94.1169815063,-94.1169815063,-59.3871459961,92.8475036621,2032,2061,2131,2004,2004,2701,3331,3356,3160,3311,3024,2985,3063,3097,3175,2963,3401,3397,3243,3301,2965,3302,3332,3062,0.009950831,1.329953886,1.323460523,0.453785598278,4500.0,0.419238895178,-0.0215142630041,-0.0345467217267,155.460250854,0.0,6000.0,-0.00106948940083,0.00801270455122,0.0,0.0,0.349065840244,0.0216827709228,-0.001077713212,0.309162437916,-0.00468008778989,-0.00468008778989,0.00637595821172,0.00205880706199,116.531951904,116.531951904,0.777196466923,58.6701583862,2039,2037,2560,2020,2020,2953,3445,3445,3264,3385,3114,3058,3165,3153,3248,2863,3419,3426,3264,3382,3159,3374,3412,3222
1508404087716500059,134,1508404087715928894,plot_matl,0.25,-5000.0,0.253802448511,-0.00901736412197,0.0,0.0,0.349065840244,0.0715225115418,-0.00107227952685,0.253987282515,0.00329128466547,0.00329128466547,0.00830892752856,-0.0126658659428,-94.1169815063,-94.1169815063,-59.3871459961,92.8475036621,2011,2039,2129,2003,2003,2690,3321,3345,3160,3311,3024,2985,3063,3097,3175,2963,3401,3397,3243,3301,2956,3288,3318,3039,0.010093375,1.340045419,1.35251225,0.453785598278,4500.0,0.419238895178,-0.0219127777964,-0.0345467217267,155.460250854,0.0,6000.0,-0.00107348349411,0.00801353901625,0.0,0.0,0.349065840244,0.0216827709228,-0.001077713212,0.309162437916,-0.00468008778989,-0.00468008778989,0.00637595821172,0.00205880706199,116.531951904,116.531951904,0.777196466923,58.6701583862,2012,2012,2559,2020,2020,2943,3435,3437,3264,3385,3114,3058,3165,3153,3248,2863,3419,3426,3264,3382,3151,3362,3399,3203
1508404087726298656,135,1508404087725862197,plot_matl,0.25,-5000.0,0.253821313381,-0.00943915452808,0.0,0.0,0.349065840244,0.0715225115418,-0.00107227952685,0.253987282515,0.00329128466547,0.00329128466547,0.00830892752856,-0.0126658659428,-94.1169815063,-94.1169815063,-59.3871459961,92.8475036621,2041,2074,2129,2003,2003,2690,3321,3345,3150,3300,3012,2976,3056,3088,3169,2961,3400,3400,3243,3301,2956,3288,3318,3039,0.009932145,1.349978717,1.340839575,0.453785598278,4500.0,0.420588374138,0.00638672849163,-0.0331972427666,149.387588501,0.0,6000.0,-0.00108346960042,-0.00518118822947,0.0,0.0,0.349065840244,0.0216827709228,-0.001077713212,0.309162437916,-0.00468008778989,-0.00468008778989,0.00637595821172,0.00205880706199,116.531951904,116.531951904,0.777196466923,58.6701583862,2044,2038,2559,2020,2020,2943,3435,3437,3258,3375,3104,3050,3160,3147,3241,2864,3420,3430,3264,3382,3151,3362,3399,3203
1508404087736251022,136,1508404087735879365,plot_matl,0.25,-5000.0,0.253867745399,-0.0108058024198,0.0,0.0,0.349065840244,0.0715225115418,-0.0010502350051,0.253860682249,0.00294007267803,0.00294007267803,0.00771978590637,0.0280742198229,-94.0205612183,-94.0205612183,-59.6166534424,93.0029602051,2015,2025,2130,2003,2003,2691,3321,3345,3150,3300,3012,2976,3056,3088,3169,2961,3400,3400,3244,3301,2957,3288,3321,3042,0.010016877,1.35999618,1.362295272,0.453785598278,4500.0,0.420588374138,0.00603809161112,-0.0331972427666,149.387588501,0.0,6000.0,-0.001029388397,-0.006108536385,0.0,0.0,0.349065840244,0.0216827709228,-0.00105698546395,0.309071838856,-0.00253909616731,-0.00253909616731,0.00598006229848,0.00377942319028,116.588256836,116.588256836,0.963457226753,58.5882453918,2020,2011,2559,2018,2018,2943,3435,3437,3258,3375,3104,3050,3160,3147,3241,2864,3420,3430,3266,3383,3151,3364,3399,3205
1508404087746272074,137,1508404087745858025,plot_matl,0.25,-5000.0,0.253974080086,0.0254034157842,0.0,0.0,0.349065840244,0.0715225115418,-0.0010502350051,0.253860682249,0.00294007267803,0.00294007267803,0.00771978590637,0.0280742198229,-94.0205612183,-94.0205612183,-59.6166534424,93.0029602051,2028,2068,2130,2003,2003,2691,3318,3347,3151,3301,3019,2979,3059,3091,3172,2964,3400,3400,3244,3301,2957,3288,3321,3042,0.009977437,1.369974229,1.366908869,0.453785598278,4500.0,0.420588374138,0.00802532117814,-0.0331972427666,149.387588501,0.0,6000.0,-0.00103931175545,0.00766331655905,0.0,0.0,0.349065840244,0.0216827709228,-0.00105698546395,0.309071838856,-0.00253909616731,-0.00253909616731,0.00598006229848,0.00377942319028,116.588256836,116.588256836,0.963457226753,58.5882453918,2037,2034,2559,2018,2018,2943,3434,3434,3256,3374,3108,3052,3162,3151,3242,2864,3420,3430,3266,3383,3151,3364,3399,3205
1508404087756249007,138,1508404087755887822,plot_matl,0.25,-5000.0,0.253884494305,-0.0107105551288,0.0,0.0,0.349065840244,0.0715225115418,-0.0010502350051,0.253860682249,0.00294007267803,0.00294007267803,0.00771978590637,0.0280742198229,-94.0205612183,-94.0205612183,-59.6166534424,93.0029602051,2028,2068,2130,2003,2003,2691,3318,3347,3151,3301,3019,2979,3059,3091,3172,2964,3400,3400,3244,3301,2957,3288,3321,3042,0.010028395,1.380003722,1.38391851,0.453785598278,4500.0,0.419238895178,-0.0209812894464,-0.0345467217267,155.460250854,0.0,6000.0,-0.00101309851743,0.00711301527917,0.0,0.0,0.349065840244,0.0216827709228,-0.00105698546395,0.309071838856,-0.00253909616731,-0.00253909616731,0.00598006229848,0.00377942319028,116.588256836,116.588256836,0.963457226753,58.5882453918,2037,2034,2559,2018,2018,2943,3434,3434,3256,3374,3108,3052,3162,3151,3242,2864,3420,3430,3266,3383,3151,3364,3399,3205
1508404087766165192,139,1508404087765922233,plot_matl,0.25,-5000.0,0.253923475742,-0.0114737655967,0.0,0.0,0.349065840244,0.0715225115418,-0.0010502350051,0.253860682249,0.00294007267803,0.00294007267803,0.00771978590637,0.0280742198229,-94.0205612183,-94.0205612183,-59.6166534424,93.0029602051,2035,2067,2129,2003,2003,2691,3318,3347,3151,3301,3019,2979,3059,3091,3172,2964,3400,3393,3236,3296,2953,3285,3314,3038,0.010035074,1.390038683,1.394875286,0.453785598278,4500.0,0.420588374138,0.00703607778996,-0.0331972427666,149.387588501,0.0,6000.0,-0.00101309851743,0.00711301527917,0.0,0.0,0.349065840244,0.0216827709228,-0.00105698546395,0.309071838856,-0.00253909616731,-0.00253909616731,0.00598006229848,0.00377942319028,116.588256836,116.588256836,0.963457226753,58.5882453918,2035,2037,2559,2021,2021,2943,3434,3434,3256,3374,3108,3052,3162,3151,3242,2864,3419,3428,3259,3377,3146,3360,3395,3201
1508404087776210150,140,1508404087775845258,plot_matl,0.25,-5000.0,0.253923475742,-0.0114737655967,0.0,0.0,0.349065840244,0.0715225115418,-0.00101119012106,0.253932058811,0.00381058780476,0.00381058780476,-0.00635617552325,0.0262628346682,-94.2898788452,-94.2898788452,-59.4888000488,93.0921478271,1997,2045,2129,2003,2003,2689,3317,3343,3150,3297,3013,2976,3053,3087,3172,2964,3400,3393,3236,3296,2953,3285,3314,3038,0.009922163,1.399961417,1.38910282,0.453785598278,4500.0,0.420588374138,0.00703607778996,-0.0331972427666,149.387588501,0.0,6000.0,-0.00102273991797,-0.00612821802497,0.0,0.0,0.349065840244,0.0192735753953,-0.00102719687857,0.309149652719,-0.0297840535641,-0.0297840535641,0.00551148317754,0.0642086490989,116.429847717,116.429847717,1.18040037155,58.8426017761,2005,2010,2559,2021,2021,2942,3433,3434,3255,3371,3102,3049,3158,3146,3242,2864,3419,3428,3259,3377,3146,3360,3395,3201
1508404087786044985,141,1508404087785864238,plot_matl,0.25,-5000.0,0.253922283649,0.0264407545328,0.0,0.0,0.349065840244,0.0715225115418,-0.00101119012106,0.253932058811,0.00381058780476,0.00381058780476,-0.00635617552325,0.0262628346682,-94.2898788452,-94.2898788452,-59.4888000488,93.0921478271,2026,2073,2130,2005,2005,2686,3316,3343,3144,3295,3011,2973,3053,3087,3169,2958,3395,3389,3234,3291,2952,3283,3312,3035,0.010017965,1.40998008,1.412533065,0.453785598278,4500.0,0.420588374138,0.0074983406812,-0.0331972427666,149.387588501,0.0,6000.0,-0.00102661876008,-0.00608081137761,0.0,0.0,0.349065840244,0.0192735753953,-0.00102719687857,0.309149652719,-0.0297840535641,-0.0297840535641,0.00551148317754,0.0642086490989,116.429847717,116.429847717,1.18040037155,58.8426017761,2032,2033,2560,2018,2018,2941,3433,3433,3254,3372,3100,3049,3158,3146,3242,2859,3411,3421,3254,3373,3143,3357,3392,3198
1508404087796012980,142,1508404087795835702,plot_matl,0.25,-5000.0,0.25385376811,-0.010074342601,0.0,0.0,0.349065840244,0.0715225115418,-0.00101119012106,0.253932058811,0.00381058780476,0.00381058780476,-0.00635617552325,0.0262628346682,-94.2898788452,-94.2898788452,-59.4888000488,93.0921478271,2007,2057,2130,2005,2005,2686,3316,3343,3144,3295,3011,2973,3053,3088,3167,2958,3394,3390,3232,3291,2948,3282,3312,3035,0.009971151,1.419951305,1.415903442,0.453785598278,4500.0,0.420588374138,0.00812508072704,-0.0331972427666,149.387588501,0.0,6000.0,-0.0010218389798,-0.00619813008234,0.0,0.0,0.349065840244,0.0192735753953,-0.00102719687857,0.309149652719,-0.0297840535641,-0.0297840535641,0.00551148317754,0.0642086490989,116.429847717,116.429847717,1.18040037155,58.8426017761,2014,2025,2560,2018,2018,2941,3433,3433,3254,3372,3100,3049,3156,3146,3240,2857,3412,3418,3255,3374,3141,3357,3392,3198
1508404087805912330,143,1508404087805832836,plot_matl,0.25,-5000.0,0.253792107105,-0.00879619643092,0.0,0.0,0.349065840244,0.0715225115418,-0.00101119012106,0.253932058811,0.00381058780476,0.00381058780476,-0.00635617552325,0.0262628346682,-94.2898788452,-94.2898788452,-59.4888000488,93.0921478271,2016,2065,2129,2002,2002,2687,3315,3340,3145,3293,3011,2973,3053,3088,3167,2958,3394,3390,3232,3291,2948,3282,3313,3035,0.009996267,1.429948009,1.429466181,0.453785598278,4500.0,0.419238895178,-0.0175393149257,-0.0345467217267,155.460250854,0.0,6000.0,-0.00104028428905,0.00758702214807,0.0,0.0,0.349065840244,0.0192735753953,-0.00102719687857,0.309149652719,-0.0297840535641,-0.0297840535641,0.00551148317754,0.0642086490989,116.429847717,116.429847717,1.18040037155,58.8426017761,2025,2025,2559,2020,2020,2939,3429,3431,3255,3370,3100,3049,3156,3146,3240,2857,3412,3418,3255,3374,3141,3357,3393,3197
1508404087816169983,144,1508404087815841331,plot_matl,0.25,-5000.0,0.253792107105,-0.00879619643092,0.0,0.0,0.349065840244,0.0715225115418,-0.00104396219831,0.253868281841,0.00412813294679,0.00412813294679,-0.00576007692143,-0.0103201474994,-94.3203048706,-94.3203048706,-59.3620033264,93.0533981323,2016,2065,2129,2002,2002,2687,3315,3340,3145,3293,3011,2973,3053,3088,3167,2958,3394,3390,3232,3291,2948,3282,3313,3035,0.010010272,1.439957522,1.441479168,0.453785598278,4500.0,0.419238895178,-0.0175393149257,-0.0345467217267,155.460250854,0.0,6000.0,-0.00104028428905,0.00758702214807,0.0,0.0,0.349065840244,0.0216827709228,-0.00100763188675,0.308958142996,-0.00355257117189,-0.00355257117189,-0.0102982213721,0.0062201153487,116.102798462,116.102798462,1.20830738544,58.8864479065,2025,2025,2559,2020,2020,2939,3429,3431,3255,3370,3100,3049,3156,3146,3240,2857,3412,3418,3255,3374,3141,3357,3393,3197
1508404087826086810,145,1508404087825849429,plot_matl,0.25,-5000.0,0.253811955452,0.0287088677287,0.0,0.0,0.349065840244,0.0715225115418,-0.00104396219831,0.253868281841,0.00412813294679,0.00412813294679,-0.00576007692143,-0.0103201474994,-94.3203048706,-94.3203048706,-59.3620033264,93.0533981323,2002,2039,2129,2001,2001,2686,3316,3342,3145,3293,3011,2974,3053,3088,3168,2958,3393,3389,3233,3291,2950,3280,3311,3036,0.010007787,1.449965566,1.451129115,0.453785598278,4500.0,0.420588374138,0.00660818163306,-0.0331972427666,149.387588501,0.0,6000.0,-0.00107621238567,0.00832453742623,0.0,0.0,0.349065840244,0.0216827709228,-0.00100763188675,0.308958142996,-0.00355257117189,-0.00355257117189,-0.0102982213721,0.0062201153487,116.102798462,116.102798462,1.20830738544,58.8864479065,2010,2015,2560,2019,2019,2939,3429,3433,3255,3370,3100,3048,3157,3145,3239,2857,3411,3421,3255,3372,3143,3356,3392,3198
1508404087836179108,146,1508404087835856715,plot_matl,0.25,-5000.0,0.25376650691,-0.00829150155187,0.0,0.0,0.349065840244,0.0715225115418,-0.00104396219831,0.253868281841,0.00412813294679,0.00412813294679,-0.00576007692143,-0.0103201474994,-94.3203048706,-94.3203048706,-59.3620033264,93.0533981323,2017,2043,2129,2001,2001,2686,3316,3342,3145,3294,3010,2973,3052,3086,3166,2957,3392,3388,3233,3291,2950,3280,3311,3036,0.010007619,1.45997308,1.461112374,0.453785598278,4500.0,0.419238895178,-0.0208210553974,-0.0345467217267,155.460250854,0.0,6000.0,-0.00107470562216,-0.0051321410574,0.0,0.0,0.349065840244,0.0216827709228,-0.00100763188675,0.308958142996,-0.00355257117189,-0.00355257117189,-0.0102982213721,0.0062201153487,116.102798462,116.102798462,1.20830738544,58.8864479065,2020,2021,2560,2019,2019,2939,3429,3433,3252,3370,3103,3049,3155,3145,3242,2856,3413,3418,3255,3372,3143,3356,3392,3198
1508404087846150248,147,1508404087845846918,plot_matl,0.25,-5000.0,0.253724396229,-0.00745947705582,0.0,0.0,0.349065840244,0.0715225115418,-0.00104396219831,0.253868281841,0.00412813294679,0.00412813294679,-0.00576007692143,-0.0103201474994,-94.3203048706,-94.3203048706,-59.3620033264,93.0533981323,2018,2056,2130,2001,2001,2685,3316,3342,3145,3294,3010,2973,3052,3086,3166,2957,3392,3388,3233,3291,2952,3281,3311,3036,0.009988599,1.469962701,1.468324053,0.453785598278,4500.0,0.420588374138,0.00573575356975,-0.0331972427666,149.387588501,0.0,6000.0,-0.00107228499837,-0.00517367897555,0.0,0.0,0.349065840244,0.0216827709228,-0.00100763188675,0.308958142996,-0.00355257117189,-0.00355257117189,-0.0102982213721,0.0062201153487,116.102798462,116.102798462,1.20830738544,58.8864479065,2028,2030,2560,2017,2017,2940,3429,3433,3252,3370,3103,3049,3155,3145,3242,2856,3413,3418,3255,3372,3142,3355,3390,3198
1508404087856134795,148,1508404087855853594,plot_matl,0.25,-5000.0,0.253656238317,-0.00608353130519,0.0,0.0,0.349065840244,0.0715225115418,-0.00106505467556,0.253754973412,0.00310486461967,0.00310486461967,0.00809721555561,-0.00807589292526,-94.2078933716,-94.2078933716,-59.1040878296,92.7863540649,2002,2036,2130,2001,2001,2685,3316,3342,3146,3294,3010,2972,3051,3087,3167,2958,3392,3388,3233,3291,2952,3281,3311,3036,0.010007727,1.479970002,1.481143596,0.453785598278,4500.0,0.419238895178,-0.0205410607159,-0.0345467217267,155.460250854,0.0,6000.0,-0.00104569015093,-0.00568683305755,0.0,0.0,0.349065840244,0.0216827709228,-0.000965566199739,0.308689415455,-0.00302334665321,-0.00302334665321,0.00417963042855,0.0115398922935,115.949401855,115.949401855,1.11970603466,58.5153579712,2012,2015,2560,2017,2017,2940,3430,3431,3253,3370,3098,3047,3156,3146,3239,2858,3413,3418,3255,3372,3142,3355,3390,3198
1508404087866188601,149,1508404087865883650,plot_matl,0.25,-5000.0,0.253631919622,-0.00558675453067,0.0,0.0,0.349065840244,0.0715225115418,-0.00106505467556,0.253754973412,0.00310486461967,0.00310486461967,0.00809721555561,-0.00807589292526,-94.2078933716,-94.2078933716,-59.1040878296,92.7863540649,2025,2056,2130,2003,2003,2685,3316,3342,3146,3294,3010,2972,3051,3087,3167,2958,3393,3389,3233,3291,2949,3281,3312,3035,0.010030191,1.490000285,1.494498459,0.453785598278,4500.0,0.420588374138,0.00738113094121,-0.0331972427666,149.387588501,0.0,6000.0,-0.00101453904063,-0.00633446266875,0.0,0.0,0.349065840244,0.0216827709228,-0.000965566199739,0.308689415455,-0.00302334665321,-0.00302334665321,0.00417963042855,0.0115398922935,115.949401855,115.949401855,1.11970603466,58.5153579712,2026,2027,2561,2017,2017,2940,3430,3431,3253,3370,3098,3047,3156,3146,3239,2858,3411,3417,3255,3373,3143,3354,3391,3198
1508404087876268531,150,1508404087875858181,plot_matl,0.25,-5000.0,0.25358569622,-0.00468007847667,0.0,0.0,0.349065840244,0.0715225115418,-0.00106505467556,0.253754973412,0.00310486461967,0.00310486461967,0.00809721555561,-0.00807589292526,-94.2078933716,-94.2078933716,-59.1040878296,92.7863540649,2025,2056,2130,2003,2003,2685,3316,3342,3146,3294,3010,2972,3051,3087,3167,2958,3393,3389,3233,3291,2949,3281,3312,3035,0.00997417,1.499974721,1.4961255,0.453785598278,4500.0,0.419238895178,-0.0192631147802,-0.0345467217267,155.460250854,0.0,6000.0,-0.00103399401996,0.0074860593304,0.0,0.0,0.349065840244,0.0216827709228,-0.000965566199739,0.308689415455,-0.00302334665321,-0.00302334665321,0.00417963042855,0.0115398922935,115.949401855,115.949401855,1.11970603466,58.5153579712,2026,2027,2561,2017,2017,2940,3430,3431,3253,3370,3098,3047,3156,3146,3239,2858,3411,3417,3255,3373,3143,3354,3391,3198
1508404087886078919,151,1508404087885847769,plot_matl,0.25,-5000.0,0.253610014915,-0.00516620650887,0.0,0.0,0.349065840244,0.0715225115418,-0.00106505467556,0.253754973412,0.00310486461967,0.00310486461967,0.00809721555561,-0.00807589292526,-94.2078933716,-94.2078933716,-59.1040878296,92.7863540649,2004,2046,2130,2003,2003,2685,3317,3341,3146,3295,3010,2972,3054,3087,3167,2957,3392,3389,3233,3288,2951,3280,3312,3034,0.009988168,1.509963743,1.508213368,0.453785598278,4500.0,0.419238895178,-0.0187155846506,-0.0345467217267,155.460250854,0.0,6000.0,-0.00103928463068,-0.00583335151896,0.0,0.0,0.349065840244,0.0216827709228,-0.000965566199739,0.308689415455,-0.00302334665321,-0.00302334665321,0.00417963042855,0.0115398922935,115.949401855,115.949401855,1.11970603466,58.5153579712,2025,2021,2561,2017,2017,2938,3432,3432,3254,3372,3100,3048,3155,3143,3237,2858,3410,3419,3254,3371,3141,3355,3392,3198
1508404087896244371,152,1508404087895855031,plot_matl,0.25,-5000.0,0.25359493494,-0.00486184144393,0.0,0.0,0.349065840244,0.0701730325818,-0.0010295965476,0.253631293774,-0.00957509316504,-0.00957509316504,0.00738142896444,0.0323142856359,-94.6360626221,-94.6360626221,-59.2865333557,92.582359314,2015,2066,2129,2005,2005,2686,3315,3341,3146,3294,3011,2974,3054,3087,3167,2957,3392,3389,3233,3288,2951,3280,3312,3034,0.010007274,1.519971223,1.521105648,0.453785598278,4500.0,0.420588374138,0.00944652128965,-0.0331972427666,149.387588501,0.0,6000.0,-0.00104117998853,-0.00578223820776,0.0,0.0,0.349065840244,0.0240919683129,-0.0010064629605,0.308601468801,0.0205749124289,0.0205749124289,0.00499260332435,0.0132874604315,115.631988525,115.631988525,1.22599136829,58.3735427856,2029,2031,2560,2014,2014,2940,3430,3430,3253,3371,3098,3048,3155,3143,3237,2858,3410,3419,3254,3371,3141,3355,3392,3198
1508404087906289384,153,1508404087905906788,plot_matl,0.25,-5000.0,0.25371837616,-0.00738781131804,0.0,0.0,0.349065840244,0.0701730325818,-0.0010295965476,0.253631293774,-0.00957509316504,-0.00957509316504,0.00738142896444,0.0323142856359,-94.6360626221,-94.6360626221,-59.2865333557,92.582359314,2034,2080,2129,2005,2005,2686,3315,3341,3146,3294,3011,2974,3052,3085,3165,2958,3394,3389,3232,3291,2950,3282,3312,3034,0.010052243,1.530023493,1.537993179,0.453785598278,4500.0,0.420588374138,0.00970519986004,-0.0331972427666,149.387588501,0.0,6000.0,-0.00102163397241,-0.00619700876996,0.0,0.0,0.349065840244,0.0240919683129,-0.0010064629605,0.308601468801,0.0205749124289,0.0205749124289,0.00499260332435,0.0132874604315,115.631988525,115.631988525,1.22599136829,58.3735427856,2037,2038,2560,2014,2014,2940,3430,3430,3253,3371,3098,3048,3155,3144,3238,2858,3412,3419,3255,3371,3141,3354,3392,3198
1508404087916133540,154,1508404087915868530,plot_matl,0.25,-5000.0,0.253684878349,0.0311486981809,0.0,0.0,0.349065840244,0.0701730325818,-0.0010295965476,0.253631293774,-0.00957509316504,-0.00957509316504,0.00738142896444,0.0323142856359,-94.6360626221,-94.6360626221,-59.2865333557,92.582359314,2034,2080,2129,2005,2005,2686,3315,3341,3146,3294,3011,2974,3052,3085,3165,2958,3394,3389,3232,3291,2950,3282,3312,3034,0.009961056,1.539984885,1.534002624,0.453785598278,4500.0,0.420588374138,0.00981203094125,-0.0331972427666,149.387588501,0.0,6000.0,-0.00104117812589,-0.00578735629097,0.0,0.0,0.349065840244,0.0240919683129,-0.0010064629605,0.308601468801,0.0205749124289,0.0205749124289,0.00499260332435,0.0132874604315,115.631988525,115.631988525,1.22599136829,58.3735427856,2037,2038,2560,2014,2014,2940,3430,3430,3253,3371,3098,3048,3155,3144,3238,2858,3412,3419,3255,3371,3141,3354,3392,3198
1508404087926189926,155,1508404087925840799,plot_matl,0.25,-5000.0,0.253701478243,-0.00702913710847,0.0,0.0,0.349065840244,0.0701730325818,-0.0010295965476,0.253631293774,-0.00957509316504,-0.00957509316504,0.00738142896444,0.0323142856359,-94.6360626221,-94.6360626221,-59.2865333557,92.582359314,2017,2047,2130,2000,2000,2687,3314,3345,3151,3297,3011,2974,3052,3085,3165,2958,3394,3389,3232,3291,2950,3282,3312,3034,0.009970346,1.54995647,1.54540363,0.453785598278,4500.0,0.420588374138,0.0100442646071,-0.0331972427666,149.387588501,0.0,6000.0,-0.001071928069,-0.00507205026224,0.0,0.0,0.349065840244,0.0240919683129,-0.0010064629605,0.308601468801,0.0205749124289,0.0205749124289,0.00499260332435,0.0132874604315,115.631988525,115.631988525,1.22599136829,58.3735427856,2025,2022,2560,2018,2018,2939,3431,3432,3256,3373,3098,3048,3155,3144,3238,2858,3412,3419,3255,3371,3141,3354,3392,3199
1508404087936363555,156,1508404087935906429,plot_matl,0.25,-5000.0,0.253776162863,0.0293425433338,0.0,0.0,0.349065840244,0.0728719979525,-0.00105819571763,0.253779709339,0.0186072234064,0.0186072234064,0.00809749681503,0.0293308440596,-94.9114761353,-94.9114761353,-59.4494781494,92.4828567505,2021,2058,2130,2000,2000,2687,3314,3345,3151,3297,3014,2973,3054,3088,3168,2958,3392,3390,3234,3291,2950,3282,3312,3034,0.010067116,1.560023114,1.570470096,0.453785598278,4500.0,0.420588374138,0.00916219502687,-0.0331972427666,149.387588501,0.0,6000.0,-0.0010707010515,0.00830056704581,0.0,0.0,0.349065840244,0.0216827709228,-0.0010243949946,0.308767586946,-0.00321687059477,-0.00321687059477,0.00533349066973,0.00990464445204,115.781898499,115.781898499,0.864926457405,58.2683029175,2033,2028,2560,2018,2018,2939,3431,3432,3256,3373,3103,3051,3158,3147,3241,2858,3411,3421,3254,3374,3141,3354,3392,3199
1508404087946240687,157,1508404087945858223,plot_matl,0.25,-5000.0,0.253699421883,-0.0070113199763,0.0,0.0,0.349065840244,0.0728719979525,-0.00105819571763,0.253779709339,0.0186072234064,0.0186072234064,0.00809749681503,0.0293308440596,-94.9114761353,-94.9114761353,-59.4494781494,92.4828567505,2019,2058,2130,2003,2003,2687,3317,3342,3151,3297,3014,2973,3054,3088,3168,2958,3392,3390,3234,3291,2949,3281,3311,3036,0.009950742,1.569974398,1.562266494,0.453785598278,4500.0,0.420588374138,0.00844587478787,-0.0331972427666,149.387588501,0.0,6000.0,-0.00106981256977,-0.00516253756359,0.0,0.0,0.349065840244,0.0216827709228,-0.0010243949946,0.308767586946,-0.00321687059477,-0.00321687059477,0.00533349066973,0.00990464445204,115.781898499,115.781898499,0.864926457405,58.2683029175,2028,2027,2560,2020,2020,2940,3432,3429,3256,3373,3103,3051,3158,3147,3241,2858,3411,3421,3254,3374,3144,3356,3392,3198
1508404087956325391,158,1508404087955858767,plot_matl,0.25,-5000.0,0.253737866879,-0.00779398018494,0.0,0.0,0.349065840244,0.0728719979525,-0.00105819571763,0.253779709339,0.0186072234064,0.0186072234064,0.00809749681503,0.0293308440596,-94.9114761353,-94.9114761353,-59.4494781494,92.4828567505,2004,2040,2130,2003,2003,2687,3317,3342,3146,3295,3010,2972,3053,3086,3168,2957,3392,3388,3234,3291,2949,3281,3311,3036,0.01000044,1.579975079,1.58006952,0.453785598278,4500.0,0.419238895178,-0.0183791927993,-0.0345467217267,155.460250854,0.0,6000.0,-0.00104551389813,0.00775708630681,0.0,0.0,0.349065840244,0.0216827709228,-0.0010243949946,0.308767586946,-0.00321687059477,-0.00321687059477,0.00533349066973,0.00990464445204,115.781898499,115.781898499,0.864926457405,58.2683029175,2016,2009,2560,2020,2020,2940,3432,3429,3254,3370,3102,3049,3156,3147,3239,2857,3411,3421,3254,3374,3144,3356,3392,3198
1508404087966188216,159,1508404087965864576,plot_matl,0.25,-5000.0,0.253765612841,-0.00834683980793,0.0,0.0,0.349065840244,0.0728719979525,-0.00105819571763,0.253779709339,0.0186072234064,0.0186072234064,0.00809749681503,0.0293308440596,-94.9114761353,-94.9114761353,-59.4494781494,92.4828567505,2016,2051,2131,2003,2003,2685,3317,3342,3146,3295,3010,2972,3053,3086,3168,2957,3392,3388,3233,3290,2951,3280,3311,3035,0.010004788,1.589980559,1.590761292,0.453785598278,4500.0,0.420588374138,0.00872289761901,-0.0331972427666,149.387588501,0.0,6000.0,-0.00101536954753,-0.00628632493317,0.0,0.0,0.349065840244,0.0216827709228,-0.0010243949946,0.308767586946,-0.00321687059477,-0.00321687059477,0.00533349066973,0.00990464445204,115.781898499,115.781898499,0.864926457405,58.2683029175,2025,2030,2560,2017,2017,2939,3432,3429,3254,3370,3102,3049,3156,3147,3239,2857,3411,3421,3254,3373,3144,3355,3392,3198
1508404087976492022,160,1508404087975929336,plot_matl,0.25,-5000.0,0.25375688076,-0.00816315971315,0.0,0.0,0.349065840244,0.0701730325818,-0.00100940442644,0.253808796406,-0.00909128785133,-0.00909128785133,0.0070219989866,-0.00922303460538,-94.579536438,-94.579536438,-59.1972770691,92.1963424683,2025,2055,2131,2003,2003,2685,3314,3341,3146,3296,3010,2973,3053,3085,3166,2957,3392,3388,3233,3290,2951,3280,3311,3035,0.010066514,1.600045831,1.61064224,0.453785598278,4500.0,0.420588374138,0.00859721936285,-0.0331972427666,149.387588501,0.0,6000.0,-0.00100966251921,-0.00639986479655,0.0,0.0,0.349065840244,0.0240919683129,-0.000962264020927,0.308899015188,0.0197631623596,0.0197631623596,-0.0112503599375,-0.0546093918383,116.025634766,116.025634766,0.999307751656,58.2953910828,2026,2026,2560,2017,2017,2939,3429,3430,3253,3371,3100,3047,3155,3146,3238,2858,3411,3421,3254,3373,3144,3355,3392,3198
