%time,field.header.seq,field.header.stamp,field.header.frame_id,field.FFJ4_set_point,field.FFJ4_position_gain,field.FFJ4_process_value,field.FFJ4_process_value_dot,field.FFJ4_error,field.FFJ4_command,field.FFJ1,field.FFJ2,field.FFJ3,field.FFJ4,field.FFJ1_dot,field.FFJ2_dot,field.FFJ3_dot,field.FFJ4_dot,field.FFJ1_tao,field.FFJ2_tao,field.FFJ3_tao,field.FFJ4_tao,field.pac0,field.pac1,field.pdc0,field.tac0,field.tdc0,field.el0,field.el1,field.el2,field.el3,field.el4,field.el5,field.el6,field.el7,field.el8,field.el9,field.el10,field.el11,field.el12,field.el13,field.el14,field.el15,field.el16,field.el17,field.el18,field.dt,field.time,field.test_time2,field.FFJ0_set_point,field.FFJ0_position_gain,field.FFJ0_process_value,field.FFJ0_process_value_dot,field.FFJ0_error,field.FFJ0_command,field.FFJ3_set_point,field.FFJ3_position_gain,field.FFJ3_process_value,field.FFJ3_process_value_dot,field.FFJ3_error,field.FFJ3_command,field.MFJ1,field.MFJ2,field.MFJ3,field.MFJ4,field.MFJ1_dot,field.MFJ2_dot,field.MFJ3_dot,field.MFJ4_dot,field.MFJ1_tao,field.MFJ2_tao,field.MFJ3_tao,field.MFJ4_tao,field.Mpac0,field.Mpac1,field.Mpdc0,field.Mtac0,field.Mtdc0,field.Mel0,field.Mel1,field.Mel2,field.Mel3,field.Mel4,field.Mel5,field.Mel6,field.Mel7,field.Mel8,field.Mel9,field.Mel10,field.Mel11,field.Mel12,field.Mel13,field.Mel14,field.Mel15,field.Mel16,field.Mel17,field.Mel18
1508403461434156804,96,1508403461433934579,plot_matl,0.25,-3000.0,0.219199672341,0.00754521181807,-0.0308003220707,-90.5637969971,0.349065840244,0.0175432581455,-0.0104474918917,0.219208553433,0.00121856608894,0.00121856608894,0.00974747538567,0.00737623265013,-95.2926483154,-95.2926483154,-2.23974823952,119.267272949,2047,2080,2133,2024,2024,2628,3298,3332,3132,3289,3001,2968,3042,3092,3165,2997,3402,3397,3253,3299,2967,3278,3310,3036,0.010003414,0.959958393,0.960327744,0.401425719261,4500.0,0.366609096527,0.00216029863805,-0.0348166190088,156.674789429,0.0,6000.0,-0.0104677928612,-0.00326248491183,-0.0104677928612,63.8116340637,0.349065840244,0.0240919683129,-0.0290809012949,0.306324571371,0.00170680636074,0.00170680636074,0.004382325802,-0.00269142189063,158.529220581,158.529220581,-249.260467529,-59.1239547729,2048,2051,2636,2032,2032,3063,3445,3443,3297,3381,3126,3002,3145,3092,3220,2701,3375,3395,3219,3352,3118,3342,3385,3195
1508403461444132838,97,1508403461443953172,plot_matl,0.25,-3000.0,0.219166666269,-0.0296518523246,-0.0308333318681,-99.9494400024,0.349065840244,0.0175432581455,-0.0104808341712,0.219138994813,0.000742253323551,0.000742253323551,-0.00301822903566,0.00879056751728,-95.0797195435,-95.0797195435,-2.39768028259,119.193260193,2054,2077,2133,2025,2025,2627,3298,3332,3132,3289,3001,2968,3042,3092,3165,2997,3402,3397,3253,3296,2967,3278,3312,3037,0.010021177,0.969978011,0.972054169,0.401425719261,4500.0,0.365259617567,-0.0250098332763,-0.0361661016941,162.747451782,0.0,6000.0,-0.0104617504403,-0.0034006619826,-0.0104617504403,63.8456878662,0.349065840244,0.0240919683129,-0.0290807522833,0.306181818247,0.00223930017091,0.00223930017091,0.00440631061792,0.000215157211642,158.700637817,158.700637817,-249.110412598,-59.283908844,2054,2051,2635,2034,2034,3060,3445,3443,3297,3381,3126,3002,3145,3092,3220,2701,3375,3395,3221,3354,3118,3342,3385,3194
1508403461454074552,98,1508403461453936392,plot_matl,0.25,-3000.0,0.219063743949,-0.0276169832796,-0.0309362523258,-99.6423034668,0.349065840244,0.0161937773228,-0.01046177838,0.219014748931,-0.0127555653453,-0.0127555653453,-0.00341460481286,-0.0266187209636,-94.787399292,-94.787399292,-1.95530366898,119.273300171,2043,2076,2133,2025,2025,2627,3298,3332,3133,3288,3001,2966,3041,3090,3165,2996,3402,3397,3253,3296,2967,3278,3312,3037,0.009980112,0.979960167,0.978050976,0.401425719261,4500.0,0.366609096527,0.00136911321897,-0.0348166190088,156.674789429,0.0,6000.0,-0.0104674948379,-0.00328830140643,-0.0104674948379,63.8296279907,0.349065840244,0.0240919683129,-0.0290953386575,0.30612552166,0.00266983639449,0.00266983639449,0.0046961135231,-0.06046885252,158.610443115,158.610443115,-249.154129028,-59.3468284607,2037,2047,2635,2034,2034,3060,3443,3442,3296,3379,3126,3004,3144,3091,3221,2703,3375,3395,3221,3354,3118,3342,3385,3194
1508403461464150295,99,1508403461463938048,plot_matl,0.25,-3000.0,0.219022005796,-0.0267185494304,-0.0309779997915,-99.1380462646,0.349065840244,0.0175432581455,-0.0104689979926,0.219050228596,0.000972118868958,0.000972118868958,-0.00327652366832,0.0106205139309,-94.6641235352,-94.6641235352,-1.88025915623,119.447692871,2053,2102,2133,2027,2027,2627,3298,3332,3133,3288,3001,2966,3041,3090,3165,2996,3404,3399,3252,3296,2967,3281,3312,3035,0.010001509,0.989961725,0.990149391,0.401425719261,4500.0,0.366609096527,0.00163954601157,-0.0348166190088,156.674789429,0.0,6000.0,-0.0104627916589,-0.00340081425384,-0.0104627916589,63.7638549805,0.349065840244,0.0240919683129,-0.0291227530688,0.306138336658,0.00213094521314,0.00213094521314,0.00522340787575,0.00126484618522,158.422332764,158.422332764,-249.605773926,-59.5662536621,2055,2060,2634,2032,2032,3060,3443,3442,3296,3379,3126,3004,3144,3091,3221,2703,3375,3396,3219,3352,3119,3343,3385,3195
1508403461474125425,100,1508403461473933377,plot_matl,0.25,-3000.0,0.219053342938,-0.0273575335741,-0.0309466626495,-99.4155502319,0.349065840244,0.0175432581455,-0.0104510458186,0.219040617347,0.00103853957262,0.00103853957262,-0.00364262447692,-0.0271020680666,-94.5948867798,-94.5948867798,-1.60458552837,119.401687622,2044,2081,2133,2027,2027,2625,3298,3330,3129,3287,3001,2967,3040,3090,3165,2996,3404,3399,3252,3296,2967,3281,3312,3035,0.009995111,0.999957092,0.9995111,0.401425719261,4500.0,0.367958575487,0.0290448181331,-0.0334671400487,150.602127075,0.0,6000.0,-0.0104559864849,0.00988200958818,-0.0104559864849,59.7725715637,0.349065840244,0.0240919683129,-0.0291030518711,0.30632135272,0.00218877545558,0.00218877545558,0.00483060907573,-0.00244100997224,158.195297241,158.195297241,-249.476974487,-59.3873138428,2043,2046,2634,2032,2032,3058,3445,3443,3294,3378,3127,3003,3145,3089,3221,2703,3375,3396,3219,3352,3119,3343,3385,3195
1508403461484078860,101,1508403461483934259,plot_matl,0.25,-3000.0,0.219045892358,0.0106999231502,-0.0309541132301,-90.3011474609,0.349065840244,0.0161937773228,-0.0104601429775,0.219069868326,-0.0125102270395,-0.0125102270395,-0.00346340402029,0.0102098435163,-94.5793380737,-94.5793380737,-1.47744309902,119.369308472,2033,2074,2133,2027,2027,2625,3298,3330,3129,3287,3001,2967,3040,3090,3165,2998,3402,3397,3254,3298,2967,3280,3312,3033,0.010001163,1.009958055,1.010117463,0.401425719261,4500.0,0.366609096527,0.00191730540246,-0.0348166190088,156.674789429,0.0,6000.0,-0.0104517536238,0.00979475677013,-0.0104517536238,59.7699928284,0.349065840244,0.0240919683129,-0.0290883891284,0.306355983019,0.00180510943756,0.00180510943756,-0.0108078690246,-0.00315155205317,157.975326538,157.975326538,-249.416320801,-59.3230018616,2036,2036,2634,2032,2032,3058,3445,3443,3294,3378,3127,3003,3145,3089,3221,2704,3375,3395,3223,3353,3119,3344,3383,3192
1508403461494109176,102,1508403461493936559,plot_matl,0.25,-3000.0,0.218999698758,-0.0262994989753,-0.0310002956539,-99.3483810425,0.349065840244,0.0161937773228,-0.0104601429775,0.219069868326,-0.0125102270395,-0.0125102270395,-0.00346340402029,0.0102098435163,-94.5793380737,-94.5793380737,-1.47744309902,119.369308472,2033,2074,2133,2027,2027,2625,3298,3330,3129,3287,3001,2967,3040,3090,3165,2998,3402,3397,3254,3298,2967,3280,3312,3033,0.010001941,1.019960302,1.020197982,0.401425719261,4500.0,0.366609096527,0.00206939061172,-0.0348166190088,156.674789429,0.0,6000.0,-0.0104607539251,-0.00345473829657,-0.0104607539251,63.8041496277,0.349065840244,0.0240919683129,-0.0290883891284,0.306355983019,0.00180510943756,0.00180510943756,-0.0108078690246,-0.00315155205317,157.975326538,157.975326538,-249.416320801,-59.3230018616,2036,2036,2634,2032,2032,3058,3445,3443,3294,3378,3127,3003,3145,3089,3221,2704,3375,3395,3223,3353,3119,3344,3383,3192
1508403461504135413,103,1508403461503935281,plot_matl,0.25,-3000.0,0.218966290355,-0.0256625711918,-0.0310337152332,-99.2680206299,0.349065840244,0.0175432581455,-0.0104736974463,0.21896469593,0.000918558507692,0.000918558507692,-0.00317898625508,0.0122682712972,-94.6508102417,-94.6508102417,-1.87934970856,119.491188049,2031,2055,2132,2029,2029,2622,3297,3330,3129,3290,3000,2967,3041,3090,3166,2997,3404,3398,3250,3297,2967,3279,3312,3033,0.009998615,1.029959006,1.029857345,0.401425719261,4500.0,0.367958575487,0.0298962928355,-0.0334671400487,150.602127075,0.0,6000.0,-0.010467515327,0.0101150516421,-0.010467515327,59.7653045654,0.349065840244,0.0240919683129,-0.0290851239115,0.306349098682,0.000407822517445,0.000407822517445,0.00447137374431,-0.00308241439052,157.864562988,157.864562988,-249.360961914,-59.605922699,2032,2030,2634,2035,2035,3060,3444,3444,3297,3379,3124,3003,3145,3092,3224,2706,3377,3396,3223,3354,3117,3343,3383,3192
1508403461514107191,104,1508403461513934860,plot_matl,0.25,-3000.0,0.218902930617,-0.0243844501674,-0.0310970619321,-99.2798614502,0.349065840244,0.0175432581455,-0.0104800034314,0.218874201179,0.000752306892537,0.000752306892537,-0.00304956967011,-0.0237929672003,-94.6423110962,-94.6423110962,-1.43020248413,119.511138916,1999,2050,2133,2028,2028,2620,3296,3329,3129,3288,3000,2967,3041,3090,3166,2997,3404,3398,3250,3297,2967,3279,3312,3036,0.009999426,1.039958535,1.039940304,0.401425719261,4500.0,0.366609096527,0.00169586646371,-0.0348166190088,156.674789429,0.0,6000.0,-0.0104607529938,-0.00343720288947,-0.0104607529938,63.8240852356,0.349065840244,0.0240919683129,-0.0290867909789,0.306270062923,0.000668926688377,0.000668926688377,0.00450084684417,-0.00149457238149,157.859207153,157.859207153,-249.656387329,-59.7442016602,2012,2020,2634,2035,2035,3059,3444,3440,3296,3378,3124,3003,3145,3092,3224,2706,3377,3396,3223,3354,3117,3343,3384,3193
1508403461524063642,105,1508403461523932176,plot_matl,0.25,-3000.0,0.218890815973,-0.0241263862699,-0.0311091784388,-99.115234375,0.349065840244,0.0161937773228,-0.0104566384107,0.21893055737,-0.0124917663634,-0.0124917663634,0.00989977456629,-0.024919833988,-94.6879577637,-94.6879577637,-1.61612248421,119.456840515,2009,2034,2133,2028,2028,2620,3296,3329,3129,3288,2999,2966,3042,3091,3165,2997,3405,3396,3254,3298,2967,3279,3312,3036,0.009997424,1.049955978,1.04972952,0.401425719261,4500.0,0.366609096527,0.00138893502299,-0.0348166190088,156.674789429,0.0,6000.0,-0.0104916468263,-0.00281511060894,-0.0104916468263,63.7970657349,0.349065840244,0.0265011657029,-0.0290754437447,0.306306689978,0.0234823245555,0.0234823245555,-0.0110695641488,-0.064046934247,157.901077271,157.901077271,-249.742950439,-59.7506790161,2011,2013,2634,2035,2035,3059,3444,3440,3296,3378,3125,3003,3145,3091,3220,2708,3378,3396,3222,3354,3117,3343,3384,3193
1508403461534071981,106,1508403461533937880,plot_matl,0.25,-3000.0,0.21898008883,0.0119921099395,-0.0310199167579,-90.2166595459,0.349065840244,0.0175432581455,-0.010476292111,0.218904703856,0.00141478748992,0.00141478748992,-0.00312500051223,-0.0243591479957,-94.6515960693,-94.6515960693,-1.27033483982,119.226242065,1997,2032,2132,2030,2030,2621,3296,3329,3129,3288,2999,2966,3042,3091,3165,2997,3405,3396,3254,3298,2969,3276,3310,3035,0.010006473,1.059962153,1.060686138,0.401425719261,4500.0,0.366609096527,0.00263563846238,-0.0348166190088,156.674789429,0.0,6000.0,-0.0104701006785,-0.00325221405365,-0.0104701006785,63.7865867615,0.349065840244,0.0216827709228,-0.0290936753154,0.306156605482,-0.0241192504764,-0.0241192504764,0.00462973117828,-0.0610821433365,157.93359375,157.93359375,-250.036392212,-59.8297691345,2006,2010,2634,2031,2031,3058,3442,3440,3296,3378,3125,3003,3145,3091,3220,2708,3378,3396,3222,3354,3118,3343,3384,3192
1508403461544040317,107,1508403461543935816,plot_matl,0.25,-3000.0,0.21892221272,0.0131967784837,-0.0310777798295,-90.1100692749,0.349065840244,0.0175432581455,-0.0104912891984,0.218926474452,0.000924010470044,0.000924010470044,-0.00282975006849,0.0130647141486,-94.6241989136,-94.6241989136,-1.63948559761,119.134490967,2000,2037,2132,2030,2030,2621,3296,3329,3131,3288,2999,2966,3040,3091,3165,2999,3404,3397,3254,3298,2969,3276,3310,3035,0.009996955,1.069959606,1.069674185,0.401425719261,4500.0,0.366609096527,0.00208698050119,-0.0348166190088,156.674789429,0.0,6000.0,-0.0104880696163,-0.00288779754192,-0.0104880696163,63.7876548767,0.349065840244,0.0240919683129,-0.0290518980473,0.3061619699,0.000151918677147,0.000151918677147,0.00378844398074,0.000601848529186,158.024734497,158.024734497,-249.654327393,-59.8345222473,2005,2004,2634,2031,2031,3058,3442,3440,3295,3378,3125,3002,3144,3091,3221,2704,3376,3395,3222,3354,3118,3343,3384,3192
1508403461554065547,108,1508403461553935467,plot_matl,0.25,-3000.0,0.218972548842,-0.0258148983121,-0.0310274511576,-99.2602996826,0.349065840244,0.0161937773228,-0.0104812905192,0.219002723694,-0.0123484609649,-0.0123484609649,-0.00304519734345,-0.0264389347285,-94.6760787964,-94.6760787964,-1.94443833828,118.917007446,1998,2042,2133,2028,2028,2626,3296,3329,3131,3288,2999,2966,3040,3091,3165,2999,3404,3397,3252,3299,2967,3277,3311,3035,0.009999405,1.079959106,1.07993574,0.401425719261,4500.0,0.366609096527,0.0017061434919,-0.0348166190088,156.674789429,0.0,6000.0,-0.0104901827872,-0.00286569376476,-0.0104901827872,63.7963294983,0.349065840244,0.0240919683129,-0.0290578231215,0.306232452393,0.000537911837455,0.000537911837455,0.00391647219658,-0.000830206729006,157.983627319,157.983627319,-249.453414917,-59.6806716919,2008,2016,2635,2031,2031,3061,3442,3440,3295,3378,3125,3002,3144,3091,3221,2704,3376,3395,3223,3353,3118,3343,3386,3194
1508403461564089865,109,1508403461563934966,plot_matl,0.25,-3000.0,0.219046637416,0.0106097310781,-0.0309533588588,-90.3696060181,0.349065840244,0.0175432581455,-0.0104724010453,0.218998298049,0.000829365628306,0.000829365628306,0.0101937223226,-0.0263113304973,-94.7012481689,-94.7012481689,-2.1599085331,119.040733337,2004,2043,2133,2028,2028,2626,3299,3334,3133,3289,3001,2969,3043,3091,3166,2996,3404,3397,3252,3299,2967,3277,3311,3035,0.009999674,1.089958761,1.089964466,0.401425719261,4500.0,0.366609096527,0.00187070632819,-0.0348166190088,156.674789429,0.0,6000.0,-0.0104800099507,0.0103496229276,-0.0104800099507,59.8497276306,0.349065840244,0.0216827709228,-0.0290506482124,0.306056976318,-0.0247460901737,-0.0247460901737,0.00377892237157,0.00270163151436,157.83921814,157.83921814,-249.334838867,-59.7750167847,2016,2021,2635,2031,2031,3061,3443,3441,3296,3378,3126,3002,3146,3092,3221,2701,3376,3395,3223,3353,3118,3343,3386,3194
1508403461574121205,110,1508403461573938053,plot_matl,0.25,-3000.0,0.218935132027,0.0128702735528,-0.031064864248,-90.1645431519,0.349065840244,0.0175432581455,-0.0104903429747,0.218903422356,0.000669056084007,0.000669056084007,-0.00286850961857,0.0135256387293,-94.6465682983,-94.6465682983,-2.21392297745,118.856422424,2008,2045,2134,2031,2031,2626,3299,3334,3133,3289,3001,2969,3043,3091,3166,2996,3403,3398,3250,3298,2966,3277,3312,3034,0.010003117,1.099961908,1.10034287,0.401425719261,4500.0,0.367958575487,0.0287782736123,-0.0334671400487,150.602127075,0.0,6000.0,-0.0104721775278,-0.00323778716847,-0.0104721775278,63.7777824402,0.349065840244,0.0240919683129,-0.0290724579245,0.30601888895,-0.00114552665036,-0.00114552665036,0.00423572352156,-0.0583895221353,157.980102539,157.980102539,-249.517593384,-59.88829422,2007,2007,2635,2037,2037,3061,3443,3441,3296,3378,3126,3002,3146,3092,3221,2701,3375,3395,3221,3352,3118,3343,3382,3193
1508403461584068279,111,1508403461583935955,plot_matl,0.25,-3000.0,0.218882232904,0.0139588257298,-0.0311177689582,-89.9769668579,0.349065840244,0.0175432581455,-0.0104671576992,0.218925386667,0.000548158364836,0.000548158364836,-0.00333230826072,0.0130863497034,-94.6164855957,-94.6164855957,-2.22158837318,118.953475952,2016,2053,2134,2031,2031,2630,3298,3333,3133,3288,3002,2968,3043,3090,3166,2996,3403,3398,3250,3298,2966,3277,3312,3034,0.009997455,1.109959678,1.109717505,0.401425719261,4500.0,0.366609096527,0.00123621849343,-0.0348166190088,156.674789429,0.0,6000.0,-0.0104878377169,0.0105062890798,-0.0104878377169,59.7478561401,0.349065840244,0.0240919683129,-0.0291009061038,0.306051284075,-0.000503715360537,-0.000503715360537,0.00481326272711,0.00281482283026,157.916641235,157.916641235,-249.331726074,-59.7627944946,2022,2030,2635,2037,2037,3062,3444,3443,3298,3379,3127,3003,3145,3089,3221,2701,3375,3395,3221,3352,3118,3343,3382,3193
1508403461594039458,112,1508403461593936758,plot_matl,0.25,-3000.0,0.218975499272,0.012074707076,-0.031024498865,-90.062461853,0.349065840244,0.0175432581455,-0.010461801663,0.219009310007,0.000448813458206,0.000448813458206,-0.00343752326444,0.0113859958947,-94.5970077515,-94.5970077515,-2.7695786953,118.986206055,2039,2062,2134,2031,2031,2630,3298,3333,3133,3288,3002,2968,3043,3090,3165,2994,3403,3397,3250,3298,2967,3277,3310,3035,0.010000818,1.119960591,1.120091616,0.401425719261,4500.0,0.366609096527,0.00101156579331,-0.0348166190088,156.674789429,0.0,6000.0,-0.0104675870389,-0.00332348188385,-0.0104675870389,63.8365440369,0.349065840244,0.0240919683129,-0.029100658372,0.306081712246,0.000118798445328,0.000118798445328,-0.0105361696333,0.00222145183943,157.930847168,157.930847168,-249.171386719,-59.8051986694,2038,2033,2635,2037,2037,3062,3444,3443,3298,3379,3127,3003,3145,3089,3219,2696,3375,3395,3221,3350,3116,3342,3383,3194
1508403461604092494,113,1508403461603929463,plot_matl,0.25,-3000.0,0.219016760588,0.0112366322428,-0.0309832450002,-90.2523803711,0.349065840244,0.0175432581455,-0.0104692811146,0.219079941511,0.000822525296826,0.000822525296826,-0.00328796682879,0.00996161997318,-94.558265686,-94.558265686,-2.31391072273,118.84715271,2048,2057,2132,2029,2029,2632,3300,3331,3133,3289,3003,2965,3043,3090,3165,2994,3403,3397,3250,3298,2967,3277,3310,3035,0.009992638,1.129953251,1.129168094,0.401425719261,4500.0,0.365259617567,-0.0248617790639,-0.0361661016941,162.747451782,0.0,6000.0,-0.0104618789628,-0.00343515677378,-0.0104618789628,63.7978591919,0.349065840244,0.0240919683129,-0.0290842074901,0.306159466505,0.000118011703307,0.000118011703307,0.00448469119146,0.000643549137749,157.781326294,157.781326294,-249.2762146,-59.7302207947,2037,2039,2635,2034,2034,3062,3445,3440,3296,3378,3127,3002,3145,3089,3219,2696,3375,3395,3221,3350,3116,3342,3383,3194
1508403461614080276,114,1508403461613941195,plot_matl,0.25,-3000.0,0.219079941511,0.0099161406979,-0.0309200584888,-90.3031234741,0.349065840244,0.0175432581455,-0.0104738296941,0.219135075808,0.000690016604494,0.000690016604494,0.0102232899517,0.00880875438452,-94.572303772,-94.572303772,-2.62609481812,118.773399353,2035,2050,2132,2029,2029,2632,3300,3331,3133,3289,3003,2965,3041,3091,3165,2994,3402,3398,3253,3297,2965,3278,3310,3035,0.010012089,1.139964955,1.141378146,0.401425719261,4500.0,0.366609096527,0.000992070185021,-0.0348166190088,156.674789429,0.0,6000.0,-0.0104819051921,-0.00303201121278,-0.0104819051921,63.8216629028,0.349065840244,0.0216827709228,-0.0290858671069,0.306279778481,-0.0241965968162,-0.0241965968162,0.00449615577236,-0.00178897904698,157.839447021,157.839447021,-249.342514038,-59.4918785095,2037,2035,2635,2034,2034,3062,3445,3440,3296,3378,3127,3002,3145,3090,3221,2698,3375,3395,3220,3352,3117,3344,3383,3194
1508403461624047467,115,1508403461623936025,plot_matl,0.25,-3000.0,0.219056457281,-0.0275675095618,-0.0309435501695,-99.4609909058,0.349065840244,0.0175432581455,-0.0104653034359,0.219076856971,0.000768311379943,0.000768311379943,0.0100524444133,0.00988582987338,-94.5435943604,-94.5435943604,-2.56604242325,118.742179871,2027,2059,2133,2028,2028,2629,3300,3332,3134,3289,3003,2965,3041,3091,3165,2994,3402,3398,3253,3297,2965,3278,3309,3033,0.009994446,1.149959874,1.14936129,0.401425719261,4500.0,0.366609096527,0.0017828787677,-0.0348166190088,156.674789429,0.0,6000.0,-0.0104732075706,-0.00320648215711,-0.0104732075706,63.803943634,0.349065840244,0.0240919683129,-0.0291143301874,0.306324005127,0.000963386206422,0.000963386206422,0.00505639985204,-0.00273036840372,157.839736938,157.839736938,-249.446060181,-59.7043304443,2038,2043,2635,2032,2032,3060,3444,3442,3295,3379,3127,3002,3145,3090,3221,2698,3375,3395,3220,3352,3117,3344,3384,3193
1508403461634031772,116,1508403461633931368,plot_matl,0.25,-3000.0,0.219081073999,0.0098223509267,-0.0309189204127,-90.3542709351,0.349065840244,0.0175432581455,-0.0104718524963,0.219032049179,0.00140799419023,0.00140799419023,-0.00323908240534,0.0108033511788,-94.5726699829,-94.5726699829,-2.69486355782,118.604042053,2026,2042,2133,2028,2028,2629,3300,3332,3134,3289,3000,2966,3043,3090,3164,2996,3404,3399,3253,3297,2965,3278,3309,3033,0.009994948,1.159955027,1.159413968,0.401425719261,4500.0,0.366609096527,0.00141828681808,-0.0348166190088,156.674789429,0.0,6000.0,-0.010465439409,-0.00336653925478,-0.010465439409,63.8046951294,0.349065840244,0.0240919683129,-0.029110532254,0.306299239397,0.000322946842061,0.000322946842061,0.00497797643766,-0.00224584131502,157.792449951,157.792449951,-249.532394409,-59.683216095,2033,2031,2635,2032,2032,3060,3444,3442,3295,3379,3128,3001,3144,3091,3220,2702,3374,3395,3223,3355,3117,3344,3384,3193
1508403461644106364,117,1508403461643949806,plot_matl,0.25,-3000.0,0.21903796494,0.0106937242672,-0.0309620425105,-90.3358612061,0.349065840244,0.0175432581455,-0.0104874968529,0.219096884131,0.00138513708953,0.00138513708953,-0.00291750300676,-0.0284090824425,-94.5257492065,-94.5257492065,-2.64268946648,118.677185059,2027,2076,2133,2029,2029,2626,3297,3329,3134,3289,3000,2966,3043,3090,3164,2996,3404,3399,3253,3297,2967,3277,3312,3035,0.010018595,1.169973649,1.172175615,0.401425719261,4500.0,0.365259617567,-0.0241274982691,-0.0361661016941,162.747451782,0.0,6000.0,-0.0104841608554,-0.00298926886171,-0.0104841608554,63.7813949585,0.349065840244,0.0240919683129,-0.0291055180132,0.306280881166,0.000267651776085,0.000267651776085,0.00487230764702,-0.00183796836063,157.859268188,157.859268188,-249.483230591,-59.4848098755,2038,2039,2634,2030,2030,3060,3444,3442,3295,3379,3128,3001,3144,3091,3220,2702,3374,3395,3223,3355,3118,3343,3385,3194
1508403461654079061,118,1508403461653935518,plot_matl,0.25,-3000.0,0.219099581242,0.00946355517954,-0.0309004187584,-90.5599365234,0.349065840244,0.0175432581455,-0.0104874968529,0.219096884131,0.00138513708953,0.00138513708953,-0.00291750300676,-0.0284090824425,-94.5257492065,-94.5257492065,-2.64268946648,118.677185059,2011,2072,2133,2029,2029,2626,3297,3329,3131,3285,2999,2966,3040,3091,3166,2998,3404,3398,3253,3297,2967,3277,3312,3035,0.009985447,1.179959245,1.178282746,0.401425719261,4500.0,0.366609096527,0.00306181819178,-0.0348166190088,156.674789429,0.0,6000.0,-0.0104737160727,-0.00320883258246,-0.0104737160727,63.7328109741,0.349065840244,0.0240919683129,-0.0291055180132,0.306280881166,0.000267651776085,0.000267651776085,0.00487230764702,-0.00183796836063,157.859268188,157.859268188,-249.483230591,-59.4848098755,2025,2038,2634,2030,2030,3060,3444,3442,3296,3378,3126,3001,3145,3090,3221,2705,3374,3395,3223,3355,3118,3343,3385,3194
1508403461664128145,119,1508403461663934574,plot_matl,0.25,-3000.0,0.219148218632,0.0084609631449,-0.0308517869562,-90.5051269531,0.349065840244,0.0175432581455,-0.0104695493355,0.219161108136,0.00200280873105,0.00200280873105,-0.00328930863179,0.00820790883154,-94.397277832,-94.397277832,-2.23679375648,118.876541138,2020,2057,2133,2023,2023,2623,3297,3329,3131,3285,2999,2966,3040,3091,3166,2998,3404,3398,3252,3297,2967,3280,3313,3035,0.009999832,1.189958558,1.189980008,0.401425719261,4500.0,0.366609096527,0.00394175807014,-0.0348166190088,156.674789429,0.0,6000.0,-0.0104772113264,0.0102812983096,-0.0104772113264,59.7899131775,0.349065840244,0.0240919683129,-0.0291177295148,0.306454360485,0.00132499600295,0.00132499600295,0.00509177707136,-0.0053059165366,157.981491089,157.981491089,-249.683807373,-59.4497871399,2024,2030,2634,2032,2032,3061,3444,3442,3296,3378,3126,3001,3145,3090,3221,2705,3374,3395,3221,3353,3118,3342,3384,3195
1508403461674093810,120,1508403461673934728,plot_matl,0.25,-3000.0,0.219121098518,0.00901440437883,-0.0308789033443,-90.4912033081,0.349065840244,0.0175432581455,-0.010449799709,0.219172284007,0.00211382773705,0.00211382773705,0.00974808633327,0.00799490045756,-94.4146499634,-94.4146499634,-2.06702852249,118.685302734,2016,2053,2133,2023,2023,2623,3297,3330,3133,3287,2999,2965,3040,3091,3164,2997,3404,3398,3252,3297,2967,3280,3313,3035,0.010000348,1.199959185,1.20004176,0.401425719261,4500.0,0.366609096527,0.00421539787203,-0.0348166190088,156.674789429,0.0,6000.0,-0.0104692466557,-0.00329024810344,-0.0104692466557,63.7766342163,0.349065840244,0.0216827709228,-0.0291538778692,0.306407898664,-0.0232701487839,-0.0232701487839,0.00582127226517,-0.00434360001236,158.199630737,158.199630737,-249.410919189,-59.5254936218,2024,2023,2634,2032,2032,3061,3444,3442,3296,3377,3126,3003,3145,3090,3220,2705,3374,3395,3221,3353,3118,3342,3384,3195
1508403461684129981,121,1508403461683934079,plot_matl,0.25,-3000.0,0.219167500734,0.00810027867556,-0.0308324955404,-90.5203018188,0.349065840244,0.0175432581455,-0.0104480516165,0.219035282731,0.00173103588168,0.00173103588168,-0.00370651576668,-0.0271221026778,-94.4287414551,-94.4287414551,-2.24972987175,118.711135864,2021,2046,2133,2023,2023,2623,3297,3330,3133,3287,2999,2965,3040,3091,3164,2997,3405,3398,3252,3298,2966,3278,3311,3034,0.009999027,1.209958258,1.209882267,0.401425719261,4500.0,0.366609096527,0.00390198943205,-0.0348166190088,156.674789429,0.0,6000.0,-0.010438144207,0.00951359048486,-0.010438144207,59.7619514465,0.349065840244,0.0240919683129,-0.0291287489235,0.306199938059,-0.000417397153797,-0.000417397153797,0.00531832594424,-0.000139281910378,158.654190063,158.654190063,-249.594482422,-59.5421142578,2018,2018,2635,2034,2034,3061,3444,3442,3296,3377,3126,3003,3145,3090,3220,2705,3378,3395,3220,3354,3117,3344,3385,3195
1508403461694092420,122,1508403461693933447,plot_matl,0.25,-3000.0,0.219040557742,0.0107123097405,-0.0309594459832,-90.1760635376,0.349065840244,0.0175432581455,-0.0104704461992,0.218998670578,0.00164153997321,0.00164153997321,-0.00325723364949,0.0115657327697,-94.2975158691,-94.2975158691,-2.28475356102,118.979621887,2008,2036,2133,2023,2023,2626,3296,3329,3130,3289,2999,2968,3040,3090,3164,2997,3405,3398,3252,3298,2966,3278,3311,3034,0.0099988,1.219957331,1.2198536,0.401425719261,4500.0,0.366609096527,0.003700183006,-0.0348166190088,156.674789429,0.0,6000.0,-0.0104499915615,-0.00367105309851,-0.0104499915615,63.8496360779,0.349065840244,0.0240919683129,-0.0290934238583,0.306138038635,5.33906932105e-05,5.33906932105e-05,0.00460515916348,0.00110544764902,158.995880127,158.995880127,-249.523254395,-59.6255493164,2012,2011,2635,2034,2034,3061,3443,3442,3296,3378,3126,3002,3144,3091,3220,2705,3378,3395,3220,3354,3117,3344,3385,3195
1508403461704078352,123,1508403461703931208,plot_matl,0.25,-3000.0,0.219043463469,0.010664774105,-0.0309565309435,-90.1269378662,0.349065840244,0.0175432581455,-0.0104627404362,0.21899959445,0.00111216469668,0.00111216469668,-0.00340295769274,-0.026340091601,-94.2981414795,-94.2981414795,-2.54662322998,118.867919922,2009,2044,2133,2023,2023,2626,3296,3329,3130,3289,2999,2968,3040,3090,3163,2997,3404,3397,3253,3301,2968,3278,3313,3036,0.009997241,1.229954946,1.229660643,0.401425719261,4500.0,0.366609096527,0.00250496249646,-0.0348166190088,156.674789429,0.0,6000.0,-0.0104689691216,0.0101451203227,-0.0104689691216,59.5679931641,0.349065840244,0.0240919683129,-0.0291082281619,0.306315273046,9.62733247434e-05,9.62733247434e-05,-0.0104402862489,-0.00237191072665,159.16104126,159.16104126,-249.580734253,-59.7273750305,2018,2015,2635,2034,2034,3061,3443,3442,3296,3378,3126,3002,3144,3091,3221,2703,3376,3394,3220,3353,3119,3342,3383,3192
1508403461714065935,124,1508403461713928735,plot_matl,0.25,-3000.0,0.219009593129,0.0113776456565,-0.0309904031456,-90.2721099854,0.349065840244,0.0161937773228,-0.0104816919193,0.219037383795,-0.0124537525699,-0.0124537525699,-0.00301754218526,0.0107973283157,-94.3156738281,-94.3156738281,-2.56873941422,118.820426941,2005,2031,2133,2023,2023,2628,3298,3330,3133,3289,3002,2965,3040,3090,3163,2997,3404,3397,3253,3301,2968,3278,3313,3036,0.009997437,1.239952554,1.239682188,0.401425719261,4500.0,0.366609096527,0.00204874901101,-0.0348166190088,156.674789429,0.0,6000.0,-0.0104628344998,0.0100199272856,-0.0104628344998,59.8112335205,0.349065840244,0.0265011657029,-0.0291191525757,0.306301683187,0.0243807770312,0.0243807770312,-0.01020687446,-0.00204681651667,159.216110229,159.216110229,-249.579772949,-59.7775230408,2013,2012,2635,2035,2035,3061,3444,3440,3296,3379,3126,3002,3144,3091,3221,2703,3376,3394,3220,3353,3119,3342,3383,3192
1508403461724042395,125,1508403461723930326,plot_matl,0.25,-3000.0,0.219003126025,0.0114114554599,-0.0309968777001,-90.4781570435,0.349065840244,0.0175432581455,-0.0104963798076,0.218992829323,0.000952042988501,0.000952042988501,-0.0027296547778,-0.0263131763786,-94.3681182861,-94.3681182861,-1.96735167503,118.814979553,2010,2015,2133,2023,2023,2628,3298,3330,3133,3289,3002,2965,3042,3091,3165,2995,3404,3395,3251,3299,2965,3279,3313,3036,0.010001288,1.249953998,1.250161,0.401425719261,4500.0,0.366609096527,0.00270754890516,-0.0348166190088,156.674789429,0.0,6000.0,-0.0104932226241,-0.0027852000203,-0.0104932226241,63.7201843262,0.349065840244,0.0240919683129,-0.029115235433,0.306229114532,0.000472870277008,0.000472870277008,-0.0103089492768,-0.000628597685136,159.227310181,159.227310181,-249.488983154,-59.747505188,2014,2004,2635,2035,2035,3061,3444,3440,3296,3379,3126,3002,3146,3089,3221,2701,3377,3396,3219,3354,3117,3341,3383,3192
1508403461734086484,126,1508403461733930280,plot_matl,0.25,-3000.0,0.219037041068,0.0107028856874,-0.0309629645199,-90.3924713135,0.349065840244,0.0175432581455,-0.0104826744646,0.218923836946,0.00102979165968,0.00102979165968,0.0104203429073,0.0130314715207,-94.390838623,-94.390838623,-1.55484056473,118.802085876,2008,2041,2133,2021,2021,2629,3299,3332,3132,3287,3002,2965,3042,3091,3165,2995,3404,3395,3251,3299,2965,3279,3312,3036,0.010000069,1.259953957,1.260008694,0.401425719261,4500.0,0.366609096527,0.00175917043816,-0.0348166190088,156.674789429,0.0,6000.0,-0.0104933306575,-0.00278160115704,-0.0104933306575,63.7631149292,0.349065840244,0.0240919683129,-0.0291241407394,0.306394010782,0.000844630179927,0.000844630179927,0.00522718857974,0.0579566024244,159.2943573,159.2943573,-249.450714111,-59.5039978027,2022,2019,2636,2032,2032,3061,3445,3442,3298,3378,3126,3002,3146,3089,3221,2701,3377,3396,3219,3354,3117,3341,3385,3195
1508403461744098824,127,1508403461743929021,plot_matl,0.25,-3000.0,0.218939736485,0.0127697391436,-0.0310602597892,-89.8556060791,0.349065840244,0.0175432581455,-0.0104826744646,0.218923836946,0.00102979165968,0.00102979165968,0.0104203429073,0.0130314715207,-94.390838623,-94.390838623,-1.55484056473,118.802085876,2013,2059,2133,2021,2021,2629,3299,3332,3132,3287,3001,2967,3041,3087,3165,2996,3406,3395,3254,3296,2965,3279,3312,3036,0.009998484,1.269952659,1.269807468,0.401425719261,4500.0,0.366609096527,0.00243510841392,-0.0348166190088,156.674789429,0.0,6000.0,-0.010482034646,-0.0030258637853,-0.010482034646,63.8718414307,0.349065840244,0.0240919683129,-0.0291241407394,0.306394010782,0.000844630179927,0.000844630179927,0.00522718857974,0.0579566024244,159.2943573,159.2943573,-249.450714111,-59.5039978027,2021,2024,2636,2032,2032,3061,3445,3442,3298,3378,3126,3002,3145,3090,3222,2701,3376,3395,3222,3352,3117,3341,3385,3195
1508403461754137469,128,1508403461753934439,plot_matl,0.25,-3000.0,0.218915835023,-0.0246307384223,-0.0310841612518,-98.8997344971,0.349065840244,0.0175432581455,-0.0104826744646,0.218923836946,0.00102979165968,0.00102979165968,0.0104203429073,0.0130314715207,-94.390838623,-94.390838623,-1.55484056473,118.802085876,2007,2056,2134,2021,2021,2627,3296,3333,3132,3287,3001,2967,3041,3087,3165,2996,3406,3395,3254,3296,2966,3278,3309,3034,0.010005661,1.279958124,1.280724608,0.401425719261,4500.0,0.366609096527,0.00253847171552,-0.0348166190088,156.674789429,0.0,6000.0,-0.0104965334758,-0.00272324634716,-0.0104965334758,63.760559082,0.349065840244,0.0240919683129,-0.0291241407394,0.306394010782,0.000844630179927,0.000844630179927,0.00522718857974,0.0579566024244,159.2943573,159.2943573,-249.450714111,-59.5039978027,2016,2030,2635,2035,2035,3062,3445,3444,3298,3378,3126,3002,3145,3090,3222,2701,3376,3395,3222,3352,3118,3344,3386,3195
1508403461764044704,129,1508403461763930765,plot_matl,0.25,-3000.0,0.218933433294,0.0129180150107,-0.0310665629804,-90.16456604,0.349065840244,0.0175432581455,-0.0104826744646,0.218923836946,0.00102979165968,0.00102979165968,0.0104203429073,0.0130314715207,-94.390838623,-94.390838623,-1.55484056473,118.802085876,2040,2062,2134,2021,2021,2627,3296,3333,3131,3288,3000,2967,3040,3090,3165,2999,3403,3399,3254,3296,2966,3278,3309,3034,0.009996794,1.28995509,1.289586426,0.401425719261,4500.0,0.366609096527,0.00208559702151,-0.0348166190088,156.674789429,0.0,6000.0,-0.0105208475143,-0.00223245704547,-0.0105208475143,63.7804679871,0.349065840244,0.0240919683129,-0.0291241407394,0.306394010782,0.000844630179927,0.000844630179927,0.00522718857974,0.0579566024244,159.2943573,159.2943573,-249.450714111,-59.5039978027,2041,2038,2635,2035,2035,3062,3445,3444,3295,3379,3126,3003,3146,3090,3221,2703,3377,3393,3222,3352,3118,3344,3386,3195
1508403461774103938,130,1508403461773936728,plot_matl,0.25,-3000.0,0.219017311931,0.0112201422453,-0.0309826880693,-90.2832870483,0.349065840244,0.0161937773228,-0.0105202971026,0.218970790505,-0.0121855381876,-0.0121855381876,0.0111781330779,0.0121582746506,-94.5594482422,-94.5594482422,-2.07321596146,118.837738037,2057,2075,2134,2022,2022,2625,3296,3333,3131,3288,3000,2967,3040,3090,3165,2999,3403,3399,3253,3298,2967,3278,3310,3035,0.010005244,1.299960544,1.30068172,0.401425719261,4500.0,0.366609096527,0.00267559243366,-0.0348166190088,156.674789429,0.0,6000.0,-0.010490404442,0.0105678113177,-0.010490404442,59.8086967468,0.349065840244,0.0240919683129,-0.0291647296399,0.306340903044,0.000991294160485,0.000991294160485,0.00604816898704,-0.0028603002429,159.651763916,159.651763916,-249.560928345,-59.4328308105,2046,2042,2635,2036,2036,3061,3445,3444,3295,3379,3126,3003,3146,3090,3221,2703,3377,3393,3221,3354,3118,3342,3385,3195
1508403461784068539,131,1508403461783927670,plot_matl,0.25,-3000.0,0.219048157334,0.0105967344716,-0.0309518370777,-90.3072052002,0.349065840244,0.0161937773228,-0.0105202971026,0.218970790505,-0.0121855381876,-0.0121855381876,0.0111781330779,0.0121582746506,-94.5594482422,-94.5594482422,-2.07321596146,118.837738037,2051,2078,2134,2022,2022,2625,3298,3332,3134,3289,3002,2966,3041,3089,3163,2998,3403,3399,3253,3298,2967,3278,3310,3035,0.009990199,1.309951178,1.308716069,0.401425719261,4500.0,0.366609096527,0.00170606758911,-0.0348166190088,156.674789429,0.0,6000.0,-0.0104791987687,0.0103428419679,-0.0104791987687,59.7704315186,0.349065840244,0.0240919683129,-0.0291647296399,0.306340903044,0.000991294160485,0.000991294160485,0.00604816898704,-0.0028603002429,159.651763916,159.651763916,-249.560928345,-59.4328308105,2044,2043,2635,2036,2036,3061,3444,3442,3295,3378,3126,3001,3145,3091,3221,2705,3377,3393,3221,3354,3118,3342,3385,3195
1508403461794071270,132,1508403461793926838,plot_matl,0.25,-3000.0,0.219106569886,0.00942388828844,-0.0308934357017,-90.3972015381,0.349065840244,0.0161937773228,-0.0105202971026,0.218970790505,-0.0121855381876,-0.0121855381876,0.0111781330779,0.0121582746506,-94.5594482422,-94.5594482422,-2.07321596146,118.837738037,2061,2087,2133,2024,2024,2625,3298,3332,3134,3289,3002,2966,3041,3089,3163,2998,3403,3397,3254,3296,2967,3280,3311,3033,0.009998882,1.319950089,1.319852424,0.401425719261,4500.0,0.366609096527,0.0018660328351,-0.0348166190088,156.674789429,0.0,6000.0,-0.0104939369485,-0.00278291269206,-0.0104939369485,63.8037528992,0.349065840244,0.0240919683129,-0.0291647296399,0.306340903044,0.000991294160485,0.000991294160485,0.00604816898704,-0.0028603002429,159.651763916,159.651763916,-249.560928345,-59.4328308105,2055,2050,2634,2033,2033,3061,3444,3442,3295,3378,3126,3001,3145,3091,3221,2705,3377,3394,3221,3354,3117,3342,3385,3195
1508403461804046031,133,1508403461803928413,plot_matl,0.25,-3000.0,0.219197496772,0.0455033034086,-0.0308024957776,-81.230430603,0.349065840244,0.0161937773228,-0.0105202971026,0.218970790505,-0.0121855381876,-0.0121855381876,0.0111781330779,0.0121582746506,-94.5594482422,-94.5594482422,-2.07321596146,118.837738037,2053,2069,2133,2024,2024,2623,3298,3331,3132,3288,3000,2968,3042,3091,3163,2998,3403,3397,3254,3296,2967,3280,3311,3033,0.010002021,1.329952085,1.330268793,0.401425719261,4500.0,0.366609096527,0.00249877665192,-0.0348166190088,156.674789429,0.0,6000.0,-0.0105061959475,-0.00253367680125,-0.0105061959475,63.8139266968,0.349065840244,0.0240919683129,-0.0291647296399,0.306340903044,0.000991294160485,0.000991294160485,0.00604816898704,-0.0028603002429,159.651763916,159.651763916,-249.560928345,-59.4328308105,2053,2045,2634,2033,2033,3060,3446,3445,3294,3377,3124,3003,3146,3092,3221,2705,3377,3394,3221,3354,3117,3342,3385,3195
1508403461814093397,134,1508403461813931893,plot_matl,0.25,-3000.0,0.219166606665,0.00821652449667,-0.0308333970606,-90.5666122437,0.349065840244,0.0175432581455,-0.0105202756822,0.219132721424,0.00110894755926,0.00110894755926,-0.0022488720715,0.00890029408038,-94.4051818848,-94.4051818848,-2.62333512306,118.877410889,2046,2077,2133,2024,2024,2623,3298,3331,3132,3288,3000,2968,3042,3091,3166,2997,3403,3397,3254,3298,2967,3277,3311,3035,0.010003759,1.339955466,1.340503706,0.401425719261,4500.0,0.366609096527,0.00154706696048,-0.0348166190088,156.674789429,0.0,6000.0,-0.0105150816962,-0.00233111088164,-0.0105150816962,63.7813987732,0.349065840244,0.0265011657029,-0.029226673767,0.306534290314,0.0264451652765,0.0264451652765,-0.0080269118771,-0.0068121701479,159.583114624,159.583114624,-249.120300293,-58.6492805481,2043,2048,2634,2033,2033,3060,3446,3445,3294,3377,3124,3003,3146,3092,3221,2704,3374,3396,3220,3352,3119,3343,3385,3194
1508403461824152137,135,1508403461823929498,plot_matl,0.25,-3000.0,0.219172134995,0.00812788121402,-0.0308278687298,-90.5603485107,0.349065840244,0.0175432581455,-0.0105202756822,0.219132721424,0.00110894755926,0.00110894755926,-0.0022488720715,0.00890029408038,-94.4051818848,-94.4051818848,-2.62333512306,118.877410889,2048,2096,2133,2024,2024,2624,3297,3329,3132,3288,2999,2968,3042,3091,3166,2997,3403,3397,3254,3298,2967,3277,3311,3035,0.009997395,1.349953317,1.349648325,0.401425719261,4500.0,0.365259617567,-0.0244956351817,-0.0361661016941,162.747451782,0.0,6000.0,-0.0104869324714,0.0105220284313,-0.0104869324714,59.8086509705,0.349065840244,0.0265011657029,-0.029226673767,0.306534290314,0.0264451652765,0.0264451652765,-0.0080269118771,-0.0068121701479,159.583114624,159.583114624,-249.120300293,-58.6492805481,2053,2059,2634,2030,2030,3059,3444,3442,3295,3380,3125,3004,3146,3092,3221,2704,3374,3396,3220,3352,3119,3343,3385,3194
1508403461834065639,136,1508403461833934551,plot_matl,0.25,-3000.0,0.219075977802,-0.0277969893068,-0.0309240240604,-99.2079315186,0.349065840244,0.0175432581455,-0.0105202756822,0.219132721424,0.00110894755926,0.00110894755926,-0.0022488720715,0.00890029408038,-94.4051818848,-94.4051818848,-2.62333512306,118.877410889,2022,2063,2133,2024,2024,2624,3297,3329,3132,3288,2999,2968,3040,3089,3165,2997,3402,3397,3251,3298,2966,3279,3311,3035,0.010004621,1.359958081,1.360628456,0.401425719261,4500.0,0.366609096527,0.00272684451193,-0.0348166190088,156.674789429,0.0,6000.0,-0.0104784704745,-0.00308375107124,-0.0104784704745,63.7632637024,0.349065840244,0.0265011657029,-0.029226673767,0.306534290314,0.0264451652765,0.0264451652765,-0.0080269118771,-0.0068121701479,159.583114624,159.583114624,-249.120300293,-58.6492805481,2034,2038,2634,2030,2030,3059,3444,3442,3295,3380,3125,3004,3144,3090,3222,2704,3375,3397,3222,3353,3119,3343,3385,3194
1508403461844084836,137,1508403461843931602,plot_matl,0.25,-3000.0,0.219098553061,0.00964640080929,-0.0309014413506,-90.5173873901,0.349065840244,0.0175432581455,-0.0105202756822,0.219132721424,0.00110894755926,0.00110894755926,-0.0022488720715,0.00890029408038,-94.4051818848,-94.4051818848,-2.62333512306,118.877410889,2035,2065,2132,2023,2023,2625,3297,3330,3133,3288,2999,2968,3040,3089,3165,2997,3402,3397,3251,3298,2966,3279,3312,3034,0.009997567,1.369955477,1.369666679,0.401425719261,4500.0,0.366609096527,0.00223170034587,-0.0348166190088,156.674789429,0.0,6000.0,-0.0104813873768,-0.00302036618814,-0.0104813873768,63.7517127991,0.349065840244,0.0265011657029,-0.029226673767,0.306534290314,0.0264451652765,0.0264451652765,-0.0080269118771,-0.0068121701479,159.583114624,159.583114624,-249.120300293,-58.6492805481,2036,2037,2634,2031,2031,3059,3445,3442,3293,3380,3125,3004,3144,3090,3222,2704,3375,3397,3222,3353,3119,3343,3384,3193
1508403461854083653,138,1508403461853931595,plot_matl,0.25,-3000.0,0.219075471163,-0.027844812721,-0.0309245344251,-99.4838104248,0.349065840244,0.0175432581455,-0.0104472050443,0.219113916159,0.00174846616574,0.00174846616574,0.00971287302673,0.00929953344166,-94.339012146,-94.339012146,-1.4942804575,118.794822693,2014,2049,2132,2023,2023,2625,3297,3330,3133,3288,2999,2966,3040,3091,3164,2997,3402,3395,3253,3297,2966,3279,3312,3034,0.00999958,1.379955272,1.37994204,0.401425719261,4500.0,0.366609096527,0.00322587834671,-0.0348166190088,156.674789429,0.0,6000.0,-0.0104492530227,-0.00367366801947,-0.0104492530227,63.8041267395,0.349065840244,0.0240919683129,-0.0291725024581,0.306540459394,-5.09093770233e-05,-5.09093770233e-05,0.00621944479644,-0.00696839904413,159.653747559,159.653747559,-249.722991943,-58.4764709473,2026,2022,2634,2031,2031,3059,3445,3442,3293,3380,3126,3003,3145,3090,3222,2704,3376,3394,3221,3352,3119,3343,3384,3193
1508403461864098635,139,1508403461863933020,plot_matl,0.25,-3000.0,0.219066992402,-0.0276505239308,-0.0309330001473,-99.3944168091,0.349065840244,0.0175432581455,-0.0104472050443,0.219113916159,0.00174846616574,0.00174846616574,0.00971287302673,0.00929953344166,-94.339012146,-94.339012146,-1.4942804575,118.794822693,2012,2050,2133,2024,2024,2624,3296,3330,3133,3288,2999,2966,3040,3091,3164,2997,3402,3395,3253,3297,2965,3278,3311,3034,0.010001234,1.389956724,1.390171526,0.401425719261,4500.0,0.366609096527,0.00406108237803,-0.0348166190088,156.674789429,0.0,6000.0,-0.0104458276182,0.0096731018275,-0.0104458276182,59.7934455872,0.349065840244,0.0240919683129,-0.0291725024581,0.306540459394,-5.09093770233e-05,-5.09093770233e-05,0.00621944479644,-0.00696839904413,159.653747559,159.653747559,-249.722991943,-58.4764709473,2020,2022,2634,2033,2033,3059,3443,3442,3293,3380,3126,3003,3145,3090,3222,2704,3376,3394,3221,3352,3117,3341,3385,3194
1508403461874105018,140,1508403461873934693,plot_matl,0.25,-3000.0,0.219053938985,0.0105096250772,-0.0309460610151,-90.3184967041,0.349065840244,0.0175432581455,-0.0104472050443,0.219113916159,0.00174846616574,0.00174846616574,0.00971287302673,0.00929953344166,-94.339012146,-94.339012146,-1.4942804575,118.794822693,2006,2037,2133,2024,2024,2624,3296,3330,3130,3290,3001,2965,3042,3090,3164,2997,3402,3398,3253,3297,2965,3278,3311,3034,0.010001915,1.399958298,1.4002681,0.401425719261,4500.0,0.365259617567,-0.0233967341483,-0.0361661016941,162.747451782,0.0,6000.0,-0.0104677164927,-0.00330920796841,-0.0104677164927,63.798500061,0.349065840244,0.0240919683129,-0.0291725024581,0.306540459394,-5.09093770233e-05,-5.09093770233e-05,0.00621944479644,-0.00696839904413,159.653747559,159.653747559,-249.722991943,-58.4764709473,2015,2011,2634,2033,2033,3059,3443,3442,3293,3380,3126,3003,3145,3091,3220,2704,3375,3396,3221,3352,3117,3341,3385,3194
1508403461884078732,141,1508403461883931122,plot_matl,0.25,-3000.0,0.219050973654,0.0105755804107,-0.0309490207583,-90.3154678345,0.349065840244,0.0175432581455,-0.0104472050443,0.219113916159,0.00174846616574,0.00174846616574,0.00971287302673,0.00929953344166,-94.339012146,-94.339012146,-1.4942804575,118.794822693,1989,2024,2133,2022,2022,2624,3296,3330,3130,3290,3001,2965,3042,3090,3164,2997,3402,3398,3253,3299,2967,3276,3311,3036,0.009996084,1.409954773,1.409447844,0.401425719261,4500.0,0.366609096527,0.00316596869379,-0.0348166190088,156.674789429,0.0,6000.0,-0.0104627776891,-0.00340592535213,-0.0104627776891,63.7978134155,0.349065840244,0.0240919683129,-0.0291725024581,0.306540459394,-5.09093770233e-05,-5.09093770233e-05,0.00621944479644,-0.00696839904413,159.653747559,159.653747559,-249.722991943,-58.4764709473,2005,2008,2634,2028,2028,3058,3443,3442,3293,3380,3126,3003,3145,3091,3220,2704,3375,3396,3221,3352,3117,3344,3385,3194
1508403461894109791,142,1508403461893935388,plot_matl,0.25,-3000.0,0.219012916088,0.0113768577576,-0.030987078324,-90.0094223022,0.349065840244,0.0175432581455,-0.0104495445266,0.219038978219,0.0018497457495,0.0018497457495,-0.00366228632629,0.0108438357711,-94.4993667603,-94.4993667603,-1.92767250538,118.831214905,2001,2018,2133,2022,2022,2624,3297,3330,3132,3289,3000,2966,3039,3090,3163,2997,3402,3398,3253,3299,2967,3276,3311,3036,0.010004263,1.419959077,1.420605346,0.401425719261,4500.0,0.366609096527,0.00305140786804,-0.0348166190088,156.674789429,0.0,6000.0,-0.0104675143957,0.0101226838306,-0.0104675143957,59.5116081238,0.349065840244,0.0216827709228,-0.0291564837098,0.306495606899,-0.0243854112923,-0.0243854112923,-0.00943939480931,0.0558786578476,159.277359009,159.277359009,-249.630065918,-58.5991172791,2007,2000,2634,2028,2028,3058,3444,3442,3295,3378,3126,3002,3144,3091,3221,2705,3375,3396,3221,3352,3117,3344,3385,3194
1508403461904127500,143,1508403461903938540,plot_matl,0.25,-3000.0,0.219080135226,0.0100093213841,-0.0309198703617,-90.304069519,0.349065840244,0.0175432581455,-0.0104495445266,0.219038978219,0.0018497457495,0.0018497457495,-0.00366228632629,0.0108438357711,-94.4993667603,-94.4993667603,-1.92767250538,118.831214905,1987,2020,2133,2022,2022,2624,3297,3330,3132,3289,3000,2966,3039,3090,3163,2997,3406,3396,3254,3297,2968,3277,3312,3034,0.010003532,1.429962285,1.430505076,0.401425719261,4500.0,0.366609096527,0.00341478758492,-0.0348166190088,156.674789429,0.0,6000.0,-0.0104256756604,0.00926223862916,-0.0104256756604,59.7014007568,0.349065840244,0.0216827709228,-0.0291564837098,0.306495606899,-0.0243854112923,-0.0243854112923,-0.00943939480931,0.0558786578476,159.277359009,159.277359009,-249.630065918,-58.5991172791,2000,1996,2635,2030,2030,3058,3444,3442,3295,3378,3126,3002,3144,3091,3221,2705,3376,3395,3222,3353,3117,3343,3385,3193
1508403461914088234,144,1508403461913927552,plot_matl,0.25,-3000.0,0.219136252999,0.00895195174962,-0.0308637470007,-90.4123687744,0.349065840244,0.0175432581455,-0.0104495445266,0.219038978219,0.0018497457495,0.0018497457495,-0.00366228632629,0.0108438357711,-94.4993667603,-94.4993667603,-1.92767250538,118.831214905,1981,2022,2133,2022,2022,2624,3299,3330,3132,3288,3000,2965,3043,3090,3163,2997,3406,3396,3254,3297,2968,3277,3312,3034,0.009988019,1.439950993,1.438274736,0.401425719261,4500.0,0.365259617567,-0.0229909066111,-0.0361661016941,162.747451782,0.0,6000.0,-0.0104268211871,-0.00412050262094,-0.0104268211871,63.8350067139,0.349065840244,0.0216827709228,-0.0291564837098,0.306495606899,-0.0243854112923,-0.0243854112923,-0.00943939480931,0.0558786578476,159.277359009,159.277359009,-249.630065918,-58.5991172791,1999,1995,2635,2030,2030,3060,3444,3442,3296,3378,3127,3002,3145,3091,3221,2705,3376,3395,3222,3353,3117,3343,3385,3193
1508403461924069670,145,1508403461923929354,plot_matl,0.25,-3000.0,0.219250127673,0.0066219381988,-0.0307498686016,-90.5922317505,0.349065840244,0.0175432581455,-0.0104495445266,0.219038978219,0.0018497457495,0.0018497457495,-0.00366228632629,0.0108438357711,-94.4993667603,-94.4993667603,-1.92767250538,118.831214905,1978,2023,2133,2022,2022,2624,3299,3330,3132,3288,3000,2965,3043,3090,3165,2997,3402,3396,3253,3299,2970,3278,3312,3034,0.010002098,1.449953069,1.45030421,0.401425719261,4500.0,0.366609096527,0.00549685163423,-0.0348166190088,156.674789429,0.0,6000.0,-0.0104374559596,0.00953471381217,-0.0104374559596,59.6122360229,0.349065840244,0.0216827709228,-0.0291564837098,0.306495606899,-0.0243854112923,-0.0243854112923,-0.00943939480931,0.0558786578476,159.277359009,159.277359009,-249.630065918,-58.5991172791,1993,1995,2635,2030,2030,3060,3444,3442,3296,3378,3127,3002,3145,3091,3221,2705,3376,3395,3223,3353,3118,3342,3385,3193
1508403461934075934,146,1508403461933929934,plot_matl,0.25,-3000.0,0.219344437122,0.0046964911744,-0.0306555572897,-90.8483734131,0.349065840244,0.0175432581455,-0.0104463584721,0.219369128346,0.0026778888423,0.0026778888423,-0.00370143190958,0.00421604467556,-94.9729156494,-94.9729156494,-1.33552980423,118.817771912,1973,2023,2134,2021,2021,2624,3298,3332,3131,3290,2998,2967,3043,3090,3165,2997,3402,3396,3253,3299,2970,3278,3312,3034,0.01000069,1.459953709,1.46010074,0.401425719261,4500.0,0.366609096527,0.0060038426891,-0.0348166190088,156.674789429,0.0,6000.0,-0.0104225687683,0.00924455560744,-0.0104225687683,59.7572860718,0.349065840244,0.0240919683129,-0.0291253942996,0.306525200605,0.00102203420829,0.00102203420829,0.0053082597442,-0.00649015652016,159.063369751,159.063369751,-249.239868164,-58.7774581909,1991,1998,2637,2035,2035,3059,3444,3443,3294,3379,3125,3002,3145,3091,3221,2705,3376,3395,3223,3353,3118,3342,3385,3193
1508403461944042023,147,1508403461943930896,plot_matl,0.25,-3000.0,0.219241648912,-0.0310994517058,-0.0307583492249,-99.4102401733,0.349065840244,0.0175432581455,-0.0104554481804,0.219279691577,0.00290703005157,0.00290703005157,-0.00352523149922,0.00603093486279,-94.9723968506,-94.9723968506,-1.87134957314,118.77822113,1984,2020,2134,2021,2021,2624,3298,3332,3131,3290,2998,2967,3041,3090,3164,2997,3404,3397,3252,3300,2968,3279,3312,3034,0.010000977,1.469954769,1.470143619,0.401425719261,4500.0,0.366609096527,0.00600007502362,-0.0348166190088,156.674789429,0.0,6000.0,-0.0104604316875,-0.00341998552904,-0.0104604316875,63.7500419617,0.349065840244,0.0240919683129,-0.0291323065758,0.306470304728,0.00126654829364,0.00126654829364,0.00544911529869,-0.00549423368648,159.11946106,159.11946106,-248.998626709,-58.8764953613,2001,2004,2637,2035,2035,3059,3444,3443,3294,3379,3125,3002,3144,3090,3221,2707,3379,3396,3223,3354,3119,3342,3385,3193
1508403461954093412,148,1508403461953937559,plot_matl,0.25,-3000.0,0.219264790416,0.00631363363937,-0.0307352021337,-90.7896118164,0.349065840244,0.0175432581455,-0.0104554481804,0.219279691577,0.00290703005157,0.00290703005157,-0.00352523149922,0.00603093486279,-94.9723968506,-94.9723968506,-1.87134957314,118.77822113,2014,2037,2135,2025,2025,2625,3297,3329,3134,3287,2998,2967,3041,3090,3164,2997,3404,3397,3252,3300,2968,3279,3310,3034,0.010006518,1.479961275,1.480964664,0.401425719261,4500.0,0.366609096527,0.00538048660383,-0.0348166190088,156.674789429,0.0,6000.0,-0.0104561187327,0.00990203209221,-0.0104561187327,59.933807373,0.349065840244,0.0240919683129,-0.0291323065758,0.306470304728,0.00126654829364,0.00126654829364,0.00544911529869,-0.00549423368648,159.11946106,159.11946106,-248.998626709,-58.8764953613,2017,2013,2636,2035,2035,3059,3445,3443,3296,3378,3125,3002,3144,3090,3221,2707,3379,3396,3223,3354,3119,3342,3385,3195
1508403461964135848,149,1508403461963937998,plot_matl,0.25,-3000.0,0.219256818295,0.0443777814507,-0.0307431872934,-81.4005584717,0.349065840244,0.0175432581455,-0.0104554481804,0.219279691577,0.00290703005157,0.00290703005157,-0.00352523149922,0.00603093486279,-94.9723968506,-94.9723968506,-1.87134957314,118.77822113,2025,2049,2135,2025,2025,2625,3297,3329,3134,3287,3002,2967,3040,3092,3164,2997,3403,3399,3256,3299,2968,3279,3310,3034,0.010002737,1.489962438,1.490407813,0.401425719261,4500.0,0.366609096527,0.00394228892401,-0.0348166190088,156.674789429,0.0,6000.0,-0.0104617839679,0.0100209582597,-0.0104617839679,59.7173309326,0.349065840244,0.0240919683129,-0.0291323065758,0.306470304728,0.00126654829364,0.00126654829364,0.00544911529869,-0.00549423368648,159.11946106,159.11946106,-248.998626709,-58.8764953613,2028,2024,2636,2035,2035,3059,3445,3443,3296,3378,3126,3001,3144,3091,3221,2707,3376,3397,3222,3355,3119,3342,3385,3195
1508403461974117015,150,1508403461973932112,plot_matl,0.25,-3000.0,0.219140008092,-0.0290938187391,-0.0308599956334,-99.462852478,0.349065840244,0.0175432581455,-0.0104554481804,0.219279691577,0.00290703005157,0.00290703005157,-0.00352523149922,0.00603093486279,-94.9723968506,-94.9723968506,-1.87134957314,118.77822113,2018,2055,2135,2024,2024,2623,3297,3331,3134,3287,3002,2967,3040,3092,3164,2997,3403,3399,3256,3299,2969,3280,3315,3035,0.009991477,1.499955867,1.49872155,0.401425719261,4500.0,0.366609096527,0.00420838687569,-0.0348166190088,156.674789429,0.0,6000.0,-0.0104808406904,-0.00302149122581,-0.0104808406904,63.782989502,0.349065840244,0.0240919683129,-0.0291323065758,0.306470304728,0.00126654829364,0.00126654829364,0.00544911529869,-0.00549423368648,159.11946106,159.11946106,-248.998626709,-58.8764953613,2019,2021,2637,2034,2034,3060,3444,3443,3296,3378,3126,3001,3144,3091,3221,2707,3376,3397,3222,3355,3120,3343,3386,3195
1508403461984147780,151,1508403461983936727,plot_matl,0.25,-3000.0,0.2190117836,-0.0265210028738,-0.0309882164001,-99.3725357056,0.349065840244,0.0175432581455,-0.0104979518801,0.219045162201,0.00211358838715,0.00211358838715,-0.00267821061425,-0.0271647125483,-95.0914993286,-95.0914993286,-1.60184156895,118.989303589,2024,2079,2135,2024,2024,2623,3297,3331,3131,3288,3002,2967,3041,3091,3165,2997,3407,3396,3256,3299,2969,3280,3315,3035,0.010005426,1.509960551,1.510819326,0.401425719261,4500.0,0.366609096527,0.00392236886546,-0.0348166190088,156.674789429,0.0,6000.0,-0.0104825459421,-0.00298860948533,-0.0104825459421,63.8023910522,0.349065840244,0.0265011657029,-0.0292056109756,0.306340128183,0.0264334604144,0.0264334604144,-0.00843378342688,-0.002831566846,159.141448975,159.141448975,-248.802246094,-58.9089202881,2032,2041,2637,2034,2034,3060,3444,3443,3295,3379,3126,3001,3144,3091,3221,2705,3377,3394,3222,3355,3120,3343,3386,3195
1508403461994132518,152,1508403461993936513,plot_matl,0.25,-3000.0,0.219048678875,0.0106388498098,-0.030951326713,-90.0639572144,0.349065840244,0.0175432581455,-0.0104979518801,0.219045162201,0.00211358838715,0.00211358838715,-0.00267821061425,-0.0271647125483,-95.0914993286,-95.0914993286,-1.60184156895,118.989303589,2029,2073,2134,2025,2025,2626,3297,3331,3131,3288,3002,2967,3041,3091,3165,2997,3407,3396,3253,3299,2969,3278,3310,3035,0.009999592,1.51996032,1.519937984,0.401425719261,4500.0,0.366609096527,0.00511952489614,-0.0348166190088,156.674789429,0.0,6000.0,-0.0104609215632,0.0100064342842,-0.0104609215632,59.4843788147,0.349065840244,0.0265011657029,-0.0292056109756,0.306340128183,0.0264334604144,0.0264334604144,-0.00843378342688,-0.002831566846,159.141448975,159.141448975,-248.802246094,-58.9089202881,2039,2044,2635,2034,2034,3061,3444,3443,3295,3379,3126,3001,3144,3091,3221,2705,3377,3394,3221,3355,3117,3344,3385,3194
1508403462004154127,153,1508403462003941020,plot_matl,0.25,-3000.0,0.219079837203,0.0100289238617,-0.030920162797,-90.3709640503,0.349065840244,0.0175432581455,-0.0104979518801,0.219045162201,0.00211358838715,0.00211358838715,-0.00267821061425,-0.0271647125483,-95.0914993286,-95.0914993286,-1.60184156895,118.989303589,2051,2092,2134,2025,2025,2626,3298,3330,3132,3286,3001,2967,3042,3091,3166,2998,3407,3396,3253,3299,2969,3278,3310,3035,0.01000442,1.529964783,1.53067626,0.401425719261,4500.0,0.366609096527,0.00223951600492,-0.0348166190088,156.674789429,0.0,6000.0,-0.0104557489976,-0.00351824029349,-0.0104557489976,63.797164917,0.349065840244,0.0265011657029,-0.0292056109756,0.306340128183,0.0264334604144,0.0264334604144,-0.00843378342688,-0.002831566846,159.141448975,159.141448975,-248.802246094,-58.9089202881,2050,2056,2635,2034,2034,3061,3444,3443,3296,3381,3126,3001,3145,3092,3221,2704,3377,3394,3221,3355,3117,3344,3385,3194
1508403462014178395,154,1508403462013941066,plot_matl,0.25,-3000.0,0.219106897712,0.00953136757016,-0.030893098563,-90.4049224854,0.349065840244,0.0175432581455,-0.0104979518801,0.219045162201,0.00211358838715,0.00211358838715,-0.00267821061425,-0.0271647125483,-95.0914993286,-95.0914993286,-1.60184156895,118.989303589,2057,2103,2134,2024,2024,2626,3298,3330,3132,3286,3001,2967,3042,3091,3166,2998,3404,3395,3254,3300,2968,3280,3312,3035,0.01000008,1.539965026,1.54001232,0.401425719261,4500.0,0.366609096527,0.00140829093289,-0.0348166190088,156.674789429,0.0,6000.0,-0.0104624340311,-0.00336180976592,-0.0104624340311,63.8039970398,0.349065840244,0.0265011657029,-0.0292056109756,0.306340128183,0.0264334604144,0.0264334604144,-0.00843378342688,-0.002831566846,159.141448975,159.141448975,-248.802246094,-58.9089202881,2058,2057,2635,2033,2033,3061,3444,3443,3296,3381,3126,3001,3145,3092,3221,2704,3376,3396,3221,3352,3118,3342,3385,3192
1508403462024154479,155,1508403462023935881,plot_matl,0.25,-3000.0,0.2190541327,-0.0273475479335,-0.0309458654374,-99.6103897095,0.349065840244,0.0175432581455,-0.0104566197842,0.219091325998,0.000377418502467,0.000377418502467,0.0099381338805,0.00981755647808,-95.0168685913,-95.0168685913,-0.864745676517,118.656768799,2044,2081,2134,2024,2024,2626,3299,3332,3133,3288,2999,2967,3041,3089,3166,2998,3404,3395,3254,3300,2968,3280,3312,3035,0.009994882,1.549960168,1.54920671,0.401425719261,4500.0,0.366609096527,0.00120512011927,-0.0348166190088,156.674789429,0.0,6000.0,-0.0104566169903,0.00993443466723,-0.0104566169903,59.6853294373,0.349065840244,0.0240919683129,-0.0291913580149,0.30659365654,0.0015947278589,0.0015947278589,0.00662435730919,-0.00795652437955,159.737686157,159.737686157,-249.130462646,-59.1267471313,2047,2043,2635,2033,2033,3059,3443,3442,3297,3380,3126,3002,3145,3089,3221,2704,3376,3396,3221,3352,3118,3342,3385,3192
1508403462034115813,156,1508403462033934560,plot_matl,0.25,-3000.0,0.218937084079,-0.0250186659396,-0.0310629196465,-98.9532318115,0.349065840244,0.0175432581455,-0.0104566197842,0.219091325998,0.000377418502467,0.000377418502467,0.0099381338805,0.00981755647808,-95.0168685913,-95.0168685913,-0.864745676517,118.656768799,2041,2066,2134,2024,2024,2626,3299,3332,3133,3288,2999,2967,3041,3089,3167,2998,3404,3398,3253,3296,2967,3280,3312,3034,0.00999773,1.559958342,1.55964588,0.401425719261,4500.0,0.366609096527,0.000535284110811,-0.0348166190088,156.674789429,0.0,6000.0,-0.0104776006192,-0.00307174003683,-0.0104776006192,63.7595291138,0.349065840244,0.0240919683129,-0.0291913580149,0.30659365654,0.0015947278589,0.0015947278589,0.00662435730919,-0.00795652437955,159.737686157,159.737686157,-249.130462646,-59.1267471313,2045,2041,2635,2033,2033,3059,3443,3442,3297,3380,3126,3002,3145,3089,3221,2702,3376,3394,3221,3352,3117,3342,3383,3194
1508403462044157935,157,1508403462043939443,plot_matl,0.25,-3000.0,0.219055593014,0.0105317700654,-0.0309444069862,-90.2253417969,0.349065840244,0.0175432581455,-0.0104566197842,0.219091325998,0.000377418502467,0.000377418502467,0.0099381338805,0.00981755647808,-95.0168685913,-95.0168685913,-0.864745676517,118.656768799,2029,2053,2133,2025,2025,2629,3299,3331,3133,3289,3000,2967,3041,3089,3167,2998,3404,3398,3253,3296,2967,3280,3312,3034,0.010004812,1.569963231,1.570755484,0.401425719261,4500.0,0.366609096527,0.000518214423209,-0.0348166190088,156.674789429,0.0,6000.0,-0.0104930708185,-0.00277051376179,-0.0104930708185,63.8291015625,0.349065840244,0.0240919683129,-0.0291913580149,0.30659365654,0.0015947278589,0.0015947278589,0.00662435730919,-0.00795652437955,159.737686157,159.737686157,-249.130462646,-59.1267471313,2036,2030,2635,2034,2034,3060,3442,3440,3295,3380,3126,3003,3145,3089,3221,2702,3376,3394,3221,3352,3117,3342,3383,3194
