%time,field.header.seq,field.header.stamp,field.header.frame_id,field.FFJ4_set_point,field.FFJ4_position_gain,field.FFJ4_process_value,field.FFJ4_process_value_dot,field.FFJ4_error,field.FFJ4_command,field.FFJ1,field.FFJ2,field.FFJ3,field.FFJ4,field.FFJ1_dot,field.FFJ2_dot,field.FFJ3_dot,field.FFJ4_dot,field.FFJ1_tao,field.FFJ2_tao,field.FFJ3_tao,field.FFJ4_tao,field.pac0,field.pac1,field.pdc0,field.tac0,field.tdc0,field.el0,field.el1,field.el2,field.el3,field.el4,field.el5,field.el6,field.el7,field.el8,field.el9,field.el10,field.el11,field.el12,field.el13,field.el14,field.el15,field.el16,field.el17,field.el18,field.dt,field.time,field.test_time2,field.FFJ0_set_point,field.FFJ0_position_gain,field.FFJ0_process_value,field.FFJ0_process_value_dot,field.FFJ0_error,field.FFJ0_command,field.FFJ3_set_point,field.FFJ3_position_gain,field.FFJ3_process_value,field.FFJ3_process_value_dot,field.FFJ3_error,field.FFJ3_command,field.MFJ1,field.MFJ2,field.MFJ3,field.MFJ4,field.MFJ1_dot,field.MFJ2_dot,field.MFJ3_dot,field.MFJ4_dot,field.MFJ1_tao,field.MFJ2_tao,field.MFJ3_tao,field.MFJ4_tao,field.Mpac0,field.Mpac1,field.Mpdc0,field.Mtac0,field.Mtdc0,field.Mel0,field.Mel1,field.Mel2,field.Mel3,field.Mel4,field.Mel5,field.Mel6,field.Mel7,field.Mel8,field.Mel9,field.Mel10,field.Mel11,field.Mel12,field.Mel13,field.Mel14,field.Mel15,field.Mel16,field.Mel17,field.Mel18
1508404252569620380,103,1508404252569075350,plot_matl,-0.300000011921,-2000.0,-0.243660718203,-0.0019042257918,0.0563392862678,112.234603882,0.349065840244,0.116055399179,-0.011450426653,-0.24366183579,-0.00167798763141,-0.00167798763141,0.00312952673994,0.00409907568246,-0.187557697296,-0.187557697296,-50.9947547913,-128.141403198,2027,2062,2132,2030,2030,2856,3366,3377,3198,3319,3045,2973,3077,3075,3176,2838,3370,3369,3197,3280,2928,3290,3317,3043,0.00996268,1.029983945,1.02615604,0.453785598278,4500.0,0.465121239424,-0.00258770561777,0.0113356439397,-51.01039505,0.0,6000.0,-0.0114500243217,0.0031232482288,-0.0114500243217,67.7585906982,0.349065840244,0.0265011657029,-0.00522698415443,0.305068224669,-0.00265431567095,-0.00265431567095,-0.00182236859109,0.0228720176965,110.230003357,110.230003357,-0.214785590768,61.4655303955,2021,2020,2554,2032,2032,2935,3432,3433,3255,3374,3099,3059,3163,3157,3249,2888,3424,3430,3271,3382,3158,3363,3396,3203
1508404252579455138,104,1508404252579070583,plot_matl,-0.300000011921,-2000.0,-0.243672594428,0.00431337906048,0.056327406317,113.700553894,0.349065840244,0.116055399179,-0.0114347413182,-0.243652045727,-0.0016173889162,-0.0016173889162,0.00280343508348,0.00389623688534,-0.221432358027,-0.221432358027,-50.8204879761,-128.34262085,2017,2037,2132,2030,2030,2856,3362,3378,3198,3319,3045,2973,3077,3075,3176,2838,3370,3369,3197,3280,2929,3292,3321,3042,0.009993764,1.039978687,1.039351456,0.453785598278,4500.0,0.465121239424,-0.00309779052623,0.0113356439397,-51.01039505,0.0,6000.0,-0.0114322574809,0.00276102311909,-0.0114322574809,67.8096618652,0.349065840244,0.0265011657029,-0.00521564017981,0.305104225874,-0.00307554216124,-0.00307554216124,-0.0020521231927,-0.039621155709,110.169036865,110.169036865,-0.150405243039,61.3692703247,2013,2018,2553,2030,2030,2936,3432,3433,3255,3374,3099,3059,3163,3157,3249,2888,3424,3430,3271,3382,3157,3363,3397,3203
1508404252589479830,105,1508404252589090096,plot_matl,-0.300000011921,-2000.0,-0.243658304214,-0.00195060484111,0.0563417002559,112.221488953,0.349065840244,0.117404878139,-0.0114444680512,-0.243660181761,0.0112862335518,0.0112862335518,0.00300386524759,-0.00191281130537,-0.201314717531,-0.201314717531,-50.7251205444,-128.178131104,2016,2043,2132,2030,2030,2856,3362,3378,3198,3316,3045,2973,3076,3076,3175,2841,3369,3371,3197,3280,2929,3292,3321,3042,0.01002013,1.049998611,1.05211365,0.453785598278,4500.0,0.465121239424,-0.0033649855759,0.0113356439397,-51.01039505,0.0,6000.0,-0.0114568695426,-0.0101719805971,-0.0114568695426,71.7645339966,0.349065840244,0.0265011657029,-0.00523394998163,0.305301815271,-0.00256810267456,-0.00256810267456,-0.00168145110365,0.0182121116668,110.157562256,110.157562256,-0.400129407644,61.509727478,2018,2018,2553,2030,2030,2936,3432,3433,3254,3373,3101,3058,3162,3158,3247,2888,3423,3429,3271,3382,3157,3363,3397,3203
1508404252599531255,106,1508404252599069498,plot_matl,-0.300000011921,-2000.0,-0.243648543954,0.0038301339373,0.0563514642417,113.623542786,0.349065840244,0.116055399179,-0.0114512993023,-0.243644684553,-0.0024449150078,-0.0024449150078,0.00315824104473,0.0037625557743,-0.18125757575,-0.18125757575,-50.84375,-128.395217896,2012,2029,2132,2029,2029,2855,3362,3378,3198,3316,3045,2973,3076,3076,3175,2841,3369,3371,3195,3278,2928,3291,3318,3042,0.009979352,1.059978058,1.057811312,0.453785598278,4500.0,0.465121239424,-0.00414940249175,0.0113356439397,-51.01039505,0.0,6000.0,-0.0114516746253,0.00315451715142,-0.0114516746253,67.7661361694,0.349065840244,0.0265011657029,-0.00524932472035,0.30523571372,-0.0021022350993,-0.0021022350993,-0.00137054780498,0.019480375573,110.132324219,110.132324219,-0.369715511799,61.5966720581,2016,2018,2554,2031,2031,2936,3432,3433,3254,3373,3101,3058,3162,3158,3247,2888,3423,3429,3269,3380,3158,3363,3398,3202
1508404252609433895,107,1508404252609077485,plot_matl,-0.300000011921,-2000.0,-0.243635237217,0.00356984324753,0.0563647598028,113.566703796,0.349065840244,0.116055399179,-0.011423134245,-0.243632793427,-0.00274540297687,-0.00274540297687,0.0025857987348,0.00352245592512,-0.148404017091,-0.148404017091,-50.6904029846,-128.433044434,2008,2036,2132,2029,2029,2855,3363,3377,3199,3319,3045,2973,3076,3073,3174,2838,3369,3371,3195,3278,2928,3291,3318,3042,0.01000699,1.069985945,1.07074793,0.453785598278,4500.0,0.465121239424,-0.00482189143077,0.0113356439397,-51.01039505,0.0,6000.0,-0.0114338137209,0.00280284299515,-0.0114338137209,67.7857208252,0.349065840244,0.0265011657029,-0.00526293646544,0.30534940958,-0.00388581189327,-0.00388581189327,-0.00110966758803,-0.0446805469692,110.18270874,110.18270874,-0.336898446083,61.5691719055,2014,2017,2554,2031,2031,2936,3433,3432,3253,3372,3101,3058,3163,3157,3248,2888,3423,3429,3269,3380,3158,3363,3398,3202
1508404252619602820,108,1508404252619080556,plot_matl,-0.300000011921,-2000.0,-0.243629783392,0.00346233625896,0.0563702099025,113.551765442,0.349065840244,0.116055399179,-0.011423134245,-0.243632793427,-0.00274540297687,-0.00274540297687,0.0025857987348,0.00352245592512,-0.148404017091,-0.148404017091,-50.6904029846,-128.433044434,2018,2053,2132,2027,2027,2855,3363,3377,3199,3319,3045,2973,3076,3073,3174,2838,3369,3372,3196,3278,2928,3288,3318,3044,0.010003822,1.079989416,1.080412776,0.453785598278,4500.0,0.465121239424,-0.00540170352906,0.0113356439397,-51.01039505,0.0,6000.0,-0.0114206122234,0.00253502954729,-0.0114206122234,67.7847366333,0.349065840244,0.0265011657029,-0.00526293646544,0.30534940958,-0.00388581189327,-0.00388581189327,-0.00110966758803,-0.0446805469692,110.18270874,110.18270874,-0.336898446083,61.5691719055,2018,2025,2553,2030,2030,2936,3433,3432,3253,3372,3101,3058,3163,3157,3248,2888,3424,3431,3272,3382,3159,3364,3398,3205
1508404252629529112,109,1508404252629069540,plot_matl,-0.300000011921,-2000.0,-0.243625983596,0.00338115170598,0.0563740171492,113.59703064,0.349065840244,0.116055399179,-0.011423134245,-0.243632793427,-0.00274540297687,-0.00274540297687,0.0025857987348,0.00352245592512,-0.148404017091,-0.148404017091,-50.6904029846,-128.433044434,2023,2055,2132,2027,2027,2857,3364,3376,3200,3319,3044,2972,3076,3074,3174,2838,3369,3372,3196,3278,2928,3288,3318,3044,0.009987601,1.089978045,1.088648509,0.453785598278,4500.0,0.465121239424,-0.00441396702081,0.0113356439397,-51.01039505,0.0,6000.0,-0.0114240543917,-0.0108441105112,-0.0114240543917,71.9455566406,0.349065840244,0.0265011657029,-0.00526293646544,0.30534940958,-0.00388581189327,-0.00388581189327,-0.00110966758803,-0.0446805469692,110.18270874,110.18270874,-0.336898446083,61.5691719055,2022,2023,2553,2030,2030,2936,3432,3434,3252,3372,3100,3058,3164,3156,3248,2888,3424,3431,3272,3382,3159,3364,3398,3205
1508404252639624527,110,1508404252639120509,plot_matl,-0.300000011921,-2000.0,-0.243618130684,-0.00275185494684,0.0563818663359,112.107444763,0.349065840244,0.116055399179,-0.011423134245,-0.243632793427,-0.00274540297687,-0.00274540297687,0.0025857987348,0.00352245592512,-0.148404017091,-0.148404017091,-50.6904029846,-128.433044434,2009,2052,2132,2027,2027,2857,3364,3376,3200,3319,3044,2972,3076,3074,3178,2838,3369,3369,3198,3283,2930,3289,3316,3042,0.010051325,1.10002941,1.10564575,0.453785598278,4500.0,0.466470718384,0.0217013917863,0.0126851247624,-57.0830612183,0.0,6000.0,-0.0114244492725,0.00259043322876,-0.0114244492725,67.7732086182,0.349065840244,0.0265011657029,-0.00526293646544,0.30534940958,-0.00388581189327,-0.00388581189327,-0.00110966758803,-0.0446805469692,110.18270874,110.18270874,-0.336898446083,61.5691719055,2018,2019,2553,2030,2030,2936,3432,3434,3252,3372,3100,3058,3164,3156,3249,2887,3424,3432,3270,3382,3158,3361,3398,3203
1508404252649576266,111,1508404252649096418,plot_matl,-0.300000011921,-2000.0,-0.243616625667,0.00319439265877,0.0563833713531,113.534332275,0.349065840244,0.116055399179,-0.0114144599065,-0.243611454964,-0.00282003520988,-0.00282003520988,0.00238911970519,0.00309134274721,-0.0200254842639,-0.0200254842639,-50.8990058899,-128.46194458,2016,2058,2133,2030,2030,2858,3365,3374,3198,3319,3048,2973,3076,3074,3178,2838,3369,3369,3198,3283,2930,3289,3316,3042,0.009976155,1.110005365,1.107353205,0.453785598278,4500.0,0.465121239424,-0.00501069286838,0.0113356439397,-51.01039505,0.0,6000.0,-0.0114265391603,-0.0107839666307,-0.0114265391603,71.8012924194,0.349065840244,0.0265011657029,-0.00526809180155,0.305482983589,-0.00484699662775,-0.00484699662775,-0.00100998859853,0.014420828782,110.212020874,110.212020874,-0.423071235418,61.8469047546,2021,2030,2554,2032,2032,2935,3433,3433,3254,3374,3101,3059,3164,3156,3249,2887,3424,3432,3270,3382,3158,3361,3398,3203
1508404252659505705,112,1508404252659083143,plot_matl,-0.300000011921,-2000.0,-0.243625596166,-0.00260590109974,0.0563744083047,112.180747986,0.349065840244,0.116055399179,-0.0114144599065,-0.243611454964,-0.00282003520988,-0.00282003520988,0.00238911970519,0.00309134274721,-0.0200254842639,-0.0200254842639,-50.8990058899,-128.46194458,2029,2071,2133,2030,2030,2858,3365,3374,3198,3319,3048,2973,3075,3074,3176,2839,3369,3372,3198,3278,2927,3289,3316,3042,0.009984112,1.119990962,1.118220544,0.453785598278,4500.0,0.466470718384,0.0201421715319,0.0126851247624,-57.0830612183,0.0,6000.0,-0.0114155774936,0.00242088665254,-0.0114155774936,67.8340835571,0.349065840244,0.0265011657029,-0.00526809180155,0.305482983589,-0.00484699662775,-0.00484699662775,-0.00100998859853,0.014420828782,110.212020874,110.212020874,-0.423071235418,61.8469047546,2031,2035,2554,2032,2032,2935,3433,3433,3254,3374,3101,3059,3164,3155,3248,2888,3422,3430,3270,3384,3159,3365,3398,3203
1508404252669520678,113,1508404252669068383,plot_matl,-0.300000011921,-2000.0,-0.24364900589,-0.00213246396743,0.0563509948552,112.224838257,0.349065840244,0.116055399179,-0.0114144599065,-0.243611454964,-0.00282003520988,-0.00282003520988,0.00238911970519,0.00309134274721,-0.0200254842639,-0.0200254842639,-50.8990058899,-128.46194458,2014,2063,2133,2033,2033,2856,3366,3378,3197,3316,3048,2973,3075,3074,3176,2839,3369,3372,3198,3278,2927,3289,3320,3041,0.009996306,1.129976968,1.129582578,0.453785598278,4500.0,0.465121239424,-0.00583161460236,0.0113356439397,-51.01039505,0.0,6000.0,-0.0114155774936,0.00242088665254,-0.0114155774936,67.8340835571,0.349065840244,0.0265011657029,-0.00526809180155,0.305482983589,-0.00484699662775,-0.00484699662775,-0.00100998859853,0.014420828782,110.212020874,110.212020874,-0.423071235418,61.8469047546,2024,2028,2553,2031,2031,2935,3433,3431,3251,3375,3101,3059,3164,3155,3248,2888,3422,3430,3270,3384,3159,3365,3399,3203
1508404252679454521,114,1508404252679094268,plot_matl,-0.300000011921,-2000.0,-0.243652924895,0.00391557998955,0.0563470758498,113.588653564,0.349065840244,0.116055399179,-0.0114144599065,-0.243611454964,-0.00282003520988,-0.00282003520988,0.00238911970519,0.00309134274721,-0.0200254842639,-0.0200254842639,-50.8990058899,-128.46194458,2029,2072,2133,2033,2033,2856,3366,3378,3197,3316,3046,2972,3074,3074,3175,2840,3371,3371,3196,3280,2927,3289,3320,3041,0.010014646,1.14000278,1.141669644,0.453785598278,4500.0,0.465121239424,-0.00521361967549,0.0113356439397,-51.01039505,0.0,6000.0,-0.0114052304998,0.00222538551316,-0.0114052304998,67.8130874634,0.349065840244,0.0265011657029,-0.00526809180155,0.305482983589,-0.00484699662775,-0.00484699662775,-0.00100998859853,0.014420828782,110.212020874,110.212020874,-0.423071235418,61.8469047546,2034,2040,2553,2031,2031,2935,3433,3431,3251,3375,3100,3056,3164,3157,3250,2889,3423,3429,3270,3383,3159,3365,3399,3203
1508404252689502084,115,1508404252689066636,plot_matl,-0.300000011921,-2000.0,-0.243639439344,-0.0023340433836,0.0563605614007,112.164581299,0.349065840244,0.116055399179,-0.0114329671487,-0.243649169803,-0.00240451027639,-0.00240451027639,0.00277135614306,0.00384126976132,-0.0750224366784,-0.0750224366784,-50.834941864,-128.148498535,2026,2069,2131,2030,2030,2857,3363,3376,3197,3316,3046,2972,3074,3074,3175,2840,3371,3371,3196,3280,2927,3290,3319,3043,0.009972041,1.149974735,1.146784715,0.453785598278,4500.0,0.465121239424,-0.00426889769733,0.0113356439397,-51.01039505,0.0,6000.0,-0.0114175733179,0.00246009253897,-0.0114175733179,67.7695999146,0.349065840244,0.0265011657029,-0.00529500935227,0.305159151554,-0.0012252148008,-0.0012252148008,-0.000454224471468,0.020870456472,110.275726318,110.275726318,-0.397514224052,61.8124580383,2029,2035,2554,2030,2030,2934,3433,3433,3251,3375,3100,3056,3164,3157,3250,2889,3423,3429,3270,3383,3158,3363,3400,3203
1508404252699493040,116,1508404252699092947,plot_matl,-0.300000011921,-2000.0,-0.243633896112,-0.00244528474286,0.056366097182,112.147605896,0.349065840244,0.116055399179,-0.0114329671487,-0.243649169803,-0.00240451027639,-0.00240451027639,0.00277135614306,0.00384126976132,-0.0750224366784,-0.0750224366784,-50.834941864,-128.148498535,2017,2049,2131,2030,2030,2857,3363,3376,3198,3318,3043,2972,3076,3075,3174,2839,3370,3370,3196,3280,2927,3290,3319,3043,0.01002707,1.160001655,1.16314012,0.453785598278,4500.0,0.465121239424,-0.00551357166842,0.0113356439397,-51.01039505,0.0,6000.0,-0.0114080132917,0.00226545403711,-0.0114080132917,67.7685928345,0.349065840244,0.0265011657029,-0.00529500935227,0.305159151554,-0.0012252148008,-0.0012252148008,-0.000454224471468,0.020870456472,110.275726318,110.275726318,-0.397514224052,61.8124580383,2023,2024,2554,2030,2030,2934,3433,3433,3255,3370,3100,3057,3163,3157,3248,2889,3421,3430,3270,3383,3158,3363,3400,3203
1508404252709456969,117,1508404252709102113,plot_matl,-0.300000011921,-2000.0,-0.243639886379,-0.00232173339464,0.0563601143658,112.121009827,0.349065840244,0.116055399179,-0.0114329671487,-0.243649169803,-0.00240451027639,-0.00240451027639,0.00277135614306,0.00384126976132,-0.0750224366784,-0.0750224366784,-50.834941864,-128.148498535,2028,2067,2132,2031,2031,2855,3363,3376,3198,3318,3043,2972,3076,3075,3174,2839,3370,3370,3197,3279,2926,3290,3320,3042,0.010007225,1.170010152,1.170845325,0.453785598278,4500.0,0.465121239424,-0.00599003490061,0.0113356439397,-51.01039505,0.0,6000.0,-0.0114113837481,0.00233687297441,-0.0114113837481,67.7134017944,0.349065840244,0.0265011657029,-0.00529500935227,0.305159151554,-0.0012252148008,-0.0012252148008,-0.000454224471468,0.020870456472,110.275726318,110.275726318,-0.397514224052,61.8124580383,2026,2030,2554,2031,2031,2935,3433,3433,3255,3370,3100,3057,3163,3157,3248,2889,3421,3430,3272,3381,3156,3363,3397,3204
1508404252719449817,118,1508404252719063732,plot_matl,-0.300000011921,-2000.0,-0.243622511625,-0.00266446918249,0.0563774928451,112.148246765,0.349065840244,0.116055399179,-0.0114329671487,-0.243649169803,-0.00240451027639,-0.00240451027639,0.00277135614306,0.00384126976132,-0.0750224366784,-0.0750224366784,-50.834941864,-128.148498535,2030,2066,2132,2031,2031,2855,3365,3376,3198,3320,3045,2971,3077,3076,3173,2839,3370,3370,3197,3279,2926,3290,3320,3042,0.009961529,1.179971941,1.175460422,0.453785598278,4500.0,0.466470718384,0.0198679827154,0.0126851247624,-57.0830612183,0.0,6000.0,-0.0114282583818,0.0026572025381,-0.0114282583818,67.8088531494,0.349065840244,0.0265011657029,-0.00529500935227,0.305159151554,-0.0012252148008,-0.0012252148008,-0.000454224471468,0.020870456472,110.275726318,110.275726318,-0.397514224052,61.8124580383,2023,2029,2554,2031,2031,2935,3435,3432,3253,3373,3101,3059,3162,3158,3248,2887,3421,3430,3272,3381,3156,3363,3397,3204
1508404252729501714,119,1508404252729082759,plot_matl,-0.300000011921,-2000.0,-0.243613928556,0.0031269416213,0.0563860684633,113.515922546,0.349065840244,0.116055399179,-0.0114182345569,-0.243621468544,-0.00392300495878,-0.00392300495878,0.00245595257729,0.00328302709386,-0.192451864481,-0.192451864481,-50.7778511047,-128.378860474,2017,2058,2131,2033,2033,2855,3365,3376,3198,3320,3045,2971,3077,3076,3173,2839,3371,3371,3198,3280,2928,3291,3318,3042,0.010019268,1.189991264,1.192292892,0.453785598278,4500.0,0.465121239424,-0.00694807153195,0.0113356439397,-51.01039505,0.0,6000.0,-0.0114427441731,-0.0104751810431,-0.0114427441731,71.7555389404,0.349065840244,0.0240919683129,-0.00528549496084,0.305027365685,-0.0245782304555,-0.0245782304555,-0.000643881096039,-0.0383230783045,110.075439453,110.075439453,-0.023911960423,61.7994651794,2014,2024,2554,2032,2032,2935,3435,3432,3253,3373,3101,3059,3162,3158,3248,2887,3422,3430,3269,3381,3156,3362,3399,3203
1508404252739527015,120,1508404252739091573,plot_matl,-0.300000011921,-2000.0,-0.2436067909,-0.00298314052634,0.0563932135701,112.087234497,0.349065840244,0.116055399179,-0.0114182345569,-0.243621468544,-0.00392300495878,-0.00392300495878,0.00245595257729,0.00328302709386,-0.192451864481,-0.192451864481,-50.7778511047,-128.378860474,2019,2058,2131,2033,2033,2856,3364,3374,3198,3317,3047,2972,3075,3075,3173,2839,3371,3371,3198,3280,2928,3291,3318,3042,0.010008453,1.200000047,1.20101436,0.453785598278,4500.0,0.465121239424,-0.00672828266397,0.0113356439397,-51.01039505,0.0,6000.0,-0.0114416191354,-0.0104962131009,-0.0114416191354,71.7199554443,0.349065840244,0.0240919683129,-0.00528549496084,0.305027365685,-0.0245782304555,-0.0245782304555,-0.000643881096039,-0.0383230783045,110.075439453,110.075439453,-0.023911960423,61.7994651794,2018,2032,2554,2032,2032,2936,3433,3434,3254,3371,3100,3058,3162,3155,3248,2887,3422,3430,3269,3381,3156,3362,3399,3203
1508404252749473751,121,1508404252749128039,plot_matl,-0.300000011921,-2000.0,-0.243612498045,-0.00287137250416,0.0563874989748,112.033882141,0.349065840244,0.116055399179,-0.0114182345569,-0.243621468544,-0.00392300495878,-0.00392300495878,0.00245595257729,0.00328302709386,-0.192451864481,-0.192451864481,-50.7778511047,-128.378860474,2013,2045,2131,2033,2033,2856,3364,3374,3198,3317,3047,2972,3075,3075,3175,2838,3369,3369,3196,3278,2928,3291,3319,3045,0.010036827,1.210036739,1.214456067,0.453785598278,4500.0,0.465121239424,-0.00647222297266,0.0113356439397,-51.01039505,0.0,6000.0,-0.0114277983084,0.00264650932513,-0.0114277983084,67.7061233521,0.349065840244,0.0240919683129,-0.00528549496084,0.305027365685,-0.0245782304555,-0.0245782304555,-0.000643881096039,-0.0383230783045,110.075439453,110.075439453,-0.023911960423,61.7994651794,2013,2014,2554,2032,2032,2936,3433,3434,3254,3371,3100,3058,3162,3155,3247,2887,3423,3430,3269,3382,3159,3362,3398,3205
1508404252759484787,122,1508404252759108830,plot_matl,-0.300000011921,-2000.0,-0.243600606918,0.00286334683187,0.056399397552,113.461341858,0.349065840244,0.116055399179,-0.0114182345569,-0.243621468544,-0.00392300495878,-0.00392300495878,0.00245595257729,0.00328302709386,-0.192451864481,-0.192451864481,-50.7778511047,-128.378860474,2007,2050,2133,2030,2030,2856,3364,3375,3199,3317,3046,2974,3075,3075,3175,2838,3369,3369,3196,3278,2928,3291,3319,3045,0.009979152,1.220017069,1.217456544,0.453785598278,4500.0,0.465121239424,-0.00718636391684,0.0113356439397,-51.01039505,0.0,6000.0,-0.0114279109985,-0.0107587985694,-0.0114279109985,71.673789978,0.349065840244,0.0240919683129,-0.00528549496084,0.305027365685,-0.0245782304555,-0.0245782304555,-0.000643881096039,-0.0383230783045,110.075439453,110.075439453,-0.023911960423,61.7994651794,2012,2019,2553,2025,2025,2935,3432,3433,3253,3373,3101,3058,3162,3155,3247,2887,3423,3430,3269,3382,3159,3362,3398,3205
1508404252769512889,123,1508404252769086708,plot_matl,-0.300000011921,-2000.0,-0.243611752987,-0.00288562825881,0.0563882403076,112.07068634,0.349065840244,0.117404878139,-0.0114176347852,-0.243612572551,0.00978565122932,0.00978565122932,0.0024582715705,-0.00287089659832,-0.417191386223,-0.417191386223,-50.6807594299,-128.00428772,2011,2054,2133,2030,2030,2856,3364,3375,3199,3317,3046,2974,3076,3075,3174,2839,3369,3369,3195,3279,2928,3289,3319,3045,0.009978284,1.229995599,1.227328932,0.453785598278,4500.0,0.465121239424,-0.00783260911703,0.0113356439397,-51.01039505,0.0,6000.0,-0.0114167388529,0.00244301138446,-0.0114167388529,67.7534179688,0.349065840244,0.0265011657029,-0.00523566035554,0.305372029543,0.000750983308535,0.000750983308535,-0.00162897165865,-0.0453844815493,109.977592468,109.977592468,0.0792413502932,61.5976982117,2030,2030,2553,2025,2025,2935,3432,3433,3253,3373,3101,3058,3163,3158,3248,2887,3424,3430,3270,3382,3158,3364,3398,3205
1508404252779527732,124,1508404252779119897,plot_matl,-0.300000011921,-2000.0,-0.243606552482,-0.00298717548139,0.056393455714,112.095901489,0.349065840244,0.117404878139,-0.0114176347852,-0.243612572551,0.00978565122932,0.00978565122932,0.0024582715705,-0.00287089659832,-0.417191386223,-0.417191386223,-50.6807594299,-128.00428772,2010,2064,2132,2029,2029,2856,3365,3375,3199,3321,3046,2974,3076,3075,3174,2839,3369,3369,3195,3279,2928,3289,3318,3042,0.010033199,1.240028733,1.244116676,0.453785598278,4500.0,0.465121239424,-0.00843122787774,0.0113356439397,-51.01039505,0.0,6000.0,-0.0114318151027,0.00273515470326,-0.0114318151027,67.7972640991,0.349065840244,0.0265011657029,-0.00523566035554,0.305372029543,0.000750983308535,0.000750983308535,-0.00162897165865,-0.0453844815493,109.977592468,109.977592468,0.0792413502932,61.5976982117,2022,2025,2554,2030,2030,2934,3432,3433,3253,3374,3101,3058,3163,3158,3248,2887,3424,3430,3270,3382,3158,3364,3397,3204
1508404252789601348,125,1508404252789097766,plot_matl,-0.300000011921,-2000.0,-0.243627563119,-0.00256285280921,0.0563724413514,112.12953186,0.349065840244,0.117404878139,-0.0114176347852,-0.243612572551,0.00978565122932,0.00978565122932,0.0024582715705,-0.00287089659832,-0.417191386223,-0.417191386223,-50.6807594299,-128.00428772,2015,2063,2132,2029,2029,2856,3365,3375,3199,3321,3045,2973,3075,3074,3173,2838,3370,3369,3196,3280,2928,3289,3318,3042,0.009977227,1.250006251,1.247153375,0.453785598278,4500.0,0.465121239424,-0.00787714496255,0.0113356439397,-51.01039505,0.0,6000.0,-0.0114542869851,-0.0102236103266,-0.0114542869851,71.7933502197,0.349065840244,0.0265011657029,-0.00523566035554,0.305372029543,0.000750983308535,0.000750983308535,-0.00162897165865,-0.0453844815493,109.977592468,109.977592468,0.0792413502932,61.5976982117,2027,2034,2554,2030,2030,2934,3432,3433,3253,3374,3101,3058,3162,3158,3250,2887,3425,3431,3269,3381,3158,3364,3397,3204
1508404252799509929,126,1508404252799109461,plot_matl,-0.300000011921,-2000.0,-0.243612810969,0.00311720883474,0.0563871897757,113.522514343,0.349065840244,0.117404878139,-0.0114176347852,-0.243612572551,0.00978565122932,0.00978565122932,0.0024582715705,-0.00287089659832,-0.417191386223,-0.417191386223,-50.6807594299,-128.00428772,2025,2067,2133,2030,2030,2855,3365,3375,3199,3321,3045,2973,3075,3074,3173,2838,3370,3369,3196,3280,2928,3288,3320,3042,0.01001135,1.260018172,1.2614301,0.453785598278,4500.0,0.466470718384,0.0192170739174,0.0126851247624,-57.0830612183,0.0,6000.0,-0.0114255864173,0.00262066815048,-0.0114255864173,67.7669448853,0.349065840244,0.0265011657029,-0.00523566035554,0.305372029543,0.000750983308535,0.000750983308535,-0.00162897165865,-0.0453844815493,109.977592468,109.977592468,0.0792413502932,61.5976982117,2032,2031,2554,2034,2034,2935,3433,3434,3253,3374,3101,3058,3162,3158,3250,2887,3425,3431,3269,3381,3159,3361,3399,3202
1508404252809521474,127,1508404252809093790,plot_matl,-0.300000011921,-2000.0,-0.243622004986,-0.00267237890512,0.0563779994845,112.113235474,0.349065840244,0.116055399179,-0.0114285638556,-0.24361781776,-0.00397136854008,-0.00397136854008,0.00267341197468,0.00321815279312,-0.473465293646,-0.473465293646,-50.70129776,-128.001724243,2027,2066,2133,2030,2030,2855,3365,3375,3198,3318,3046,2972,3077,3075,3176,2840,3367,3371,3196,3280,2928,3288,3320,3042,0.009984449,1.270002675,1.268025023,0.453785598278,4500.0,0.466470718384,0.0196460746229,0.0126851247624,-57.0830612183,0.0,6000.0,-0.0114393383265,-0.0105283427984,-0.0114393383265,71.7965545654,0.349065840244,0.0265011657029,-0.00521229300648,0.305231958628,-0.00177710771095,-0.00177710771095,-0.00212021940388,0.0194165036082,110.078651428,110.078651428,-0.00617287261412,61.6831092834,2038,2032,2554,2034,2034,2935,3433,3434,3255,3373,3101,3058,3162,3156,3249,2890,3425,3430,3269,3381,3159,3361,3399,3202
1508404252819617696,128,1508404252819128384,plot_matl,-0.300000011921,-2000.0,-0.243619322777,0.003246556269,0.056380674243,113.550674438,0.349065840244,0.116055399179,-0.0114285638556,-0.24361781776,-0.00397136854008,-0.00397136854008,0.00267341197468,0.00321815279312,-0.473465293646,-0.473465293646,-50.70129776,-128.001724243,2027,2051,2132,2030,2030,2856,3365,3375,3198,3318,3046,2972,3077,3075,3176,2840,3367,3371,3198,3277,2928,3292,3318,3042,0.010033698,1.280036712,1.284313344,0.453785598278,4500.0,0.465121239424,-0.0067209280096,0.0113356439397,-51.01039505,0.0,6000.0,-0.0114740235731,-0.00983393006027,-0.0114740235731,71.8304748535,0.349065840244,0.0265011657029,-0.00521229300648,0.305231958628,-0.00177710771095,-0.00177710771095,-0.00212021940388,0.0194165036082,110.078651428,110.078651428,-0.00617287261412,61.6831092834,2034,2027,2553,2031,2031,2934,3433,3434,3255,3373,3101,3058,3162,3156,3249,2890,3425,3430,3271,3382,3158,3364,3398,3202
1508404252829472792,129,1508404252829069948,plot_matl,-0.300000011921,-2000.0,-0.243616193533,0.0031779280398,0.0563838072121,113.50605011,0.349065840244,0.116055399179,-0.0114285638556,-0.24361781776,-0.00397136854008,-0.00397136854008,0.00267341197468,0.00321815279312,-0.473465293646,-0.473465293646,-50.70129776,-128.001724243,2028,2054,2132,2030,2030,2856,3363,3376,3198,3319,3045,2970,3077,3075,3175,2837,3367,3371,3198,3277,2928,3292,3318,3042,0.009940648,1.289978067,1.282343592,0.453785598278,4500.0,0.465121239424,-0.00801653973758,0.0113356439397,-51.01039505,0.0,6000.0,-0.0114650512114,0.00342239276506,-0.0114650512114,67.7993850708,0.349065840244,0.0265011657029,-0.00521229300648,0.305231958628,-0.00177710771095,-0.00177710771095,-0.00212021940388,0.0194165036082,110.078651428,110.078651428,-0.00617287261412,61.6831092834,2034,2027,2553,2031,2031,2934,3433,3436,3253,3371,3101,3057,3165,3157,3248,2888,3425,3430,3271,3382,3158,3364,3398,3202
1508404252839426050,130,1508404252839069161,plot_matl,-0.300000011921,-2000.0,-0.243629798293,-0.00251849414781,0.0563702024519,112.166603088,0.349065840244,0.116055399179,-0.0114285638556,-0.24361781776,-0.00397136854008,-0.00397136854008,0.00267341197468,0.00321815279312,-0.473465293646,-0.473465293646,-50.70129776,-128.001724243,2027,2057,2132,2026,2026,2856,3363,3376,3198,3319,3045,2970,3077,3075,3175,2837,3370,3371,3198,3280,2930,3290,3317,3043,0.010002079,1.299980783,1.30027027,0.453785598278,4500.0,0.466470718384,0.018707735464,0.0126851247624,-57.0830612183,0.0,6000.0,-0.0114711392671,-0.00987952481955,-0.0114711392671,71.6417388916,0.349065840244,0.0265011657029,-0.00521229300648,0.305231958628,-0.00177710771095,-0.00177710771095,-0.00212021940388,0.0194165036082,110.078651428,110.078651428,-0.00617287261412,61.6831092834,2028,2028,2554,2032,2032,2934,3433,3436,3253,3371,3101,3057,3165,3157,3248,2888,3422,3431,3270,3383,3157,3363,3399,3205
1508404252849586020,131,1508404252849092828,plot_matl,-0.300000011921,-2000.0,-0.243646070361,-0.00222630868666,0.0563539341092,112.199333191,0.349065840244,0.117404878139,-0.0114453257993,-0.243633836508,0.00963630992919,0.00963630992919,0.00302293896675,0.00357320043258,-0.282574027777,-0.282574027777,-51.6958122253,-127.882789612,2027,2057,2132,2026,2026,2856,3363,3376,3198,3319,3045,2970,3077,3075,3175,2837,3370,3371,3198,3280,2930,3290,3317,3043,0.010021378,1.310001699,1.312800518,0.453785598278,4500.0,0.466470718384,0.018707735464,0.0126851247624,-57.0830612183,0.0,6000.0,-0.0114711392671,-0.00987952481955,-0.0114711392671,71.6417388916,0.349065840244,0.0265011657029,-0.00525119714439,0.305304229259,0.000967993226368,0.000967993226368,-0.00133394158911,0.0179170761257,110.108055115,110.108055115,0.611447691917,61.9770851135,2028,2028,2554,2032,2032,2934,3433,3436,3253,3371,3101,3057,3165,3157,3248,2888,3422,3431,3270,3383,3157,3363,3399,3205
1508404252859387491,132,1508404252859067004,plot_matl,-0.300000011921,-2000.0,-0.243646070361,-0.00222630868666,0.0563539341092,112.199333191,0.349065840244,0.117404878139,-0.0114453257993,-0.243633836508,0.00963630992919,0.00963630992919,0.00302293896675,0.00357320043258,-0.282574027777,-0.282574027777,-51.6958122253,-127.882789612,2027,2059,2132,2026,2026,2854,3368,3376,3207,3328,3052,2985,3087,3084,3175,2837,3370,3371,3198,3280,2930,3290,3317,3043,0.009972787,1.319975504,1.316407884,0.453785598278,4500.0,0.465121239424,-0.00736746843904,0.0113356439397,-51.01039505,0.0,6000.0,-0.0114506846294,0.00304291909561,-0.0114506846294,67.7964553833,0.349065840244,0.0265011657029,-0.00525119714439,0.305304229259,0.000967993226368,0.000967993226368,-0.00133394158911,0.0179170761257,110.108055115,110.108055115,0.611447691917,61.9770851135,2028,2030,2554,2032,2032,2935,3432,3433,3265,3383,3107,3069,3173,3164,3248,2888,3422,3431,3270,3383,3157,3363,3399,3205
1508404252869374905,133,1508404252869066566,plot_matl,-0.300000011921,-2000.0,-0.243639662862,-0.00234576337971,0.0563603416085,112.161865234,0.349065840244,0.117404878139,-0.0114453257993,-0.243633836508,0.00963630992919,0.00963630992919,0.00302293896675,0.00357320043258,-0.282574027777,-0.282574027777,-51.6958122253,-127.882789612,2033,2052,2132,2026,2026,2854,3368,3376,3207,3328,3052,2985,3087,3084,3184,2844,3378,3377,3202,3285,2931,3295,3324,3047,0.009998571,1.329974776,1.329809943,0.453785598278,4500.0,0.466470718384,0.0191788319498,0.0126851247624,-57.0830612183,0.0,6000.0,-0.0114703318104,0.00345166376792,-0.0114703318104,67.7606887817,0.349065840244,0.0265011657029,-0.00525119714439,0.305304229259,0.000967993226368,0.000967993226368,-0.00133394158911,0.0179170761257,110.108055115,110.108055115,0.611447691917,61.9770851135,2032,2030,2554,2032,2032,2935,3432,3433,3265,3383,3107,3069,3173,3164,3253,2894,3430,3436,3275,3387,3162,3367,3401,3209
1508404252879369925,134,1508404252879071146,plot_matl,-0.300000011921,-2000.0,-0.243633463979,0.00349901965819,0.0563665404916,113.584075928,0.349065840244,0.117404878139,-0.0114453257993,-0.243633836508,0.00963630992919,0.00963630992919,0.00302293896675,0.00357320043258,-0.282574027777,-0.282574027777,-51.6958122253,-127.882789612,2027,2054,2132,2031,2031,2859,3367,3378,3200,3320,3046,2973,3076,3077,3177,2840,3373,3372,3198,3281,2929,3290,3324,3047,0.010014502,1.339979495,1.341943268,0.453785598278,4500.0,0.465121239424,-0.00720456056297,0.0113356439397,-51.01039505,0.0,6000.0,-0.0114505914971,0.0030755836051,-0.0114505914971,67.7623672485,0.349065840244,0.0265011657029,-0.00525119714439,0.305304229259,0.000967993226368,0.000967993226368,-0.00133394158911,0.0179170761257,110.108055115,110.108055115,0.611447691917,61.9770851135,2028,2025,2554,2032,2032,2938,3434,3435,3255,3375,3104,3060,3165,3158,3249,2891,3424,3432,3273,3382,3158,3362,3401,3209
1508404252889559081,135,1508404252889101770,plot_matl,-0.300000011921,-2000.0,-0.243623018265,-0.00268118595704,0.0563769824803,112.118125916,0.349065840244,0.116055399179,-0.011453082785,-0.243623644114,-0.00347387674265,-0.00347387674265,-0.0102899288759,0.00330623332411,-0.498262345791,-0.498262345791,-51.699962616,-127.992515564,2026,2050,2132,2032,2032,2855,3366,3377,3197,3318,3046,2973,3076,3077,3177,2840,3373,3372,3198,3281,2929,3290,3320,3042,0.010019938,1.350010025,1.35269163,0.453785598278,4500.0,0.465121239424,-0.00720456056297,0.0113356439397,-51.01039505,0.0,6000.0,-0.0114469174296,0.00301065389067,-0.0114469174296,67.7684020996,0.349065840244,0.0313195586205,-0.00526365451515,0.305065214634,0.0481837838888,0.0481837838888,-0.00107165053487,0.022757999599,110.079139709,110.079139709,0.649335324764,62.0205001831,2026,2019,2555,2033,2033,2938,3434,3435,3254,3372,3104,3060,3165,3158,3249,2891,3424,3432,3273,3382,3158,3362,3398,3204
1508404252899307312,136,1508404252899066637,plot_matl,-0.300000011921,-2000.0,-0.243636354804,-0.00240826327354,0.0563636496663,112.155273438,0.349065840244,0.116055399179,-0.011453082785,-0.243623644114,-0.00347387674265,-0.00347387674265,-0.0102899288759,0.00330623332411,-0.498262345791,-0.498262345791,-51.699962616,-127.992515564,2026,2050,2132,2032,2032,2855,3366,3377,3197,3318,3046,2973,3076,3077,3177,2840,3373,3372,3198,3281,2929,3290,3320,3042,0.009963902,1.359974355,1.355090672,0.453785598278,4500.0,0.465121239424,-0.00642639119178,0.0113356439397,-51.01039505,0.0,6000.0,-0.0114421965554,0.00292693148367,-0.0114421965554,67.7675552368,0.349065840244,0.0313195586205,-0.00526365451515,0.305065214634,0.0481837838888,0.0481837838888,-0.00107165053487,0.022757999599,110.079139709,110.079139709,0.649335324764,62.0205001831,2026,2019,2555,2033,2033,2938,3434,3435,3254,3372,3104,3060,3165,3158,3249,2891,3424,3432,3273,3382,3158,3362,3398,3204
1508404252909422719,137,1508404252909124478,plot_matl,-0.300000011921,-2000.0,-0.243647649884,-0.00217649643309,0.0563523583114,112.188873291,0.349065840244,0.116055399179,-0.011453082785,-0.243623644114,-0.00347387674265,-0.00347387674265,-0.0102899288759,0.00330623332411,-0.498262345791,-0.498262345791,-51.699962616,-127.992515564,2021,2044,2132,2032,2032,2855,3366,3377,3197,3318,3047,2973,3076,3075,3174,2841,3369,3370,3198,3278,2929,3290,3320,3042,0.010058928,1.370032893,1.378073136,0.453785598278,4500.0,0.465121239424,-0.0052599045448,0.0113356439397,-51.01039505,0.0,6000.0,-0.0114275449887,0.0026383891236,-0.0114275449887,67.7706604004,0.349065840244,0.0313195586205,-0.00526365451515,0.305065214634,0.0481837838888,0.0481837838888,-0.00107165053487,0.022757999599,110.079139709,110.079139709,0.649335324764,62.0205001831,2021,2015,2555,2033,2033,2938,3434,3435,3254,3372,3101,3057,3163,3158,3248,2889,3422,3431,3270,3382,3158,3362,3398,3204
1508404252919450882,138,1508404252919115149,plot_matl,-0.300000011921,-2000.0,-0.24363553524,0.00355299329385,0.0563644617796,113.577850342,0.349065840244,0.116055399179,-0.011453082785,-0.243623644114,-0.00347387674265,-0.00347387674265,-0.0102899288759,0.00330623332411,-0.498262345791,-0.498262345791,-51.699962616,-127.992515564,2014,2052,2133,2034,2034,2857,3366,3378,3197,3318,3047,2973,3076,3075,3174,2841,3369,3370,3198,3278,2929,3290,3318,3042,0.009989545,1.380023253,1.37855721,0.453785598278,4500.0,0.466470718384,0.0219481997192,0.0126851247624,-57.0830612183,0.0,6000.0,-0.0114764161408,0.00363101926632,-0.0114764161408,67.775718689,0.349065840244,0.0313195586205,-0.00526365451515,0.305065214634,0.0481837838888,0.0481837838888,-0.00107165053487,0.022757999599,110.079139709,110.079139709,0.649335324764,62.0205001831,2014,2011,2554,2030,2030,2935,3433,3433,3254,3372,3101,3057,3163,3158,3248,2889,3422,3431,3270,3382,3158,3363,3398,3204
1508404252929538014,139,1508404252929079965,plot_matl,-0.300000011921,-2000.0,-0.243631124496,-0.00250671966933,0.056368868798,112.107147217,0.349065840244,0.117404878139,-0.0114740747958,-0.243625953794,0.0108382962644,0.0108382962644,0.00358092389069,-0.00261178915389,-0.472036480904,-0.472036480904,-51.5490226746,-128.196670532,2003,2051,2133,2034,2034,2857,3366,3378,3199,3319,3043,2972,3077,3075,3177,2840,3371,3369,3198,3278,2929,3290,3318,3042,0.009965874,1.38998868,1.385256486,0.453785598278,4500.0,0.463771760464,-0.0320669338107,0.00998616218567,-44.9377288818,0.0,6000.0,-0.0114669073373,0.00343686714768,-0.0114669073373,67.7085418701,0.349065840244,0.0265011657029,-0.00526692951098,0.305223912001,0.000498300651088,0.000498300651088,0.0143301812932,-0.0421987921,109.997154236,109.997154236,0.48480963707,61.8278694153,2016,2023,2554,2030,2030,2935,3433,3433,3251,3373,3101,3057,3162,3157,3247,2889,3423,3430,3270,3382,3158,3363,3398,3204
1508404252939496829,140,1508404252939117529,plot_matl,-0.300000011921,-2000.0,-0.243616119027,0.00317209749483,0.0563838817179,113.611457825,0.349065840244,0.117404878139,-0.0114740747958,-0.243625953794,0.0108382962644,0.0108382962644,0.00358092389069,-0.00261178915389,-0.472036480904,-0.472036480904,-51.5490226746,-128.196670532,2018,2063,2133,2035,2035,2857,3365,3378,3198,3318,3046,2973,3076,3075,3175,2838,3371,3369,3197,3280,2928,3290,3319,3041,0.010036943,1.400025884,1.40517202,0.453785598278,4500.0,0.465121239424,-0.00537305651233,0.0113356439397,-51.01039505,0.0,6000.0,-0.0114357797429,0.00281122745946,-0.0114357797429,67.6780014038,0.349065840244,0.0265011657029,-0.00526692951098,0.305223912001,0.000498300651088,0.000498300651088,0.0143301812932,-0.0421987921,109.997154236,109.997154236,0.48480963707,61.8278694153,2032,2035,2554,2034,2034,2934,3433,3434,3252,3374,3100,3058,3163,3156,3247,2888,3423,3430,3270,3382,3159,3362,3400,3205
1508404252949552343,141,1508404252949093774,plot_matl,-0.300000011921,-2000.0,-0.243603810668,0.00292326812632,0.0563961863518,113.537384033,0.349065840244,0.117404878139,-0.0114740747958,-0.243625953794,0.0108382962644,0.0108382962644,0.00358092389069,-0.00261178915389,-0.472036480904,-0.472036480904,-51.5490226746,-128.196670532,2018,2063,2133,2035,2035,2857,3365,3378,3198,3318,3046,2973,3076,3075,3175,2838,3371,3369,3197,3280,2928,3290,3319,3041,0.009977894,1.410003898,1.406883054,0.453785598278,4500.0,0.465121239424,-0.00595430377871,0.0113356439397,-51.01039505,0.0,6000.0,-0.0114571470767,0.00326053309254,-0.0114571470767,67.7085952759,0.349065840244,0.0265011657029,-0.00526692951098,0.305223912001,0.000498300651088,0.000498300651088,0.0143301812932,-0.0421987921,109.997154236,109.997154236,0.48480963707,61.8278694153,2032,2035,2554,2034,2034,2934,3433,3434,3252,3374,3100,3058,3163,3156,3247,2888,3423,3430,3270,3382,3159,3362,3400,3205
1508404252959625095,142,1508404252959144724,plot_matl,-0.300000011921,-2000.0,-0.243596598506,-0.0031960401684,0.0564034022391,112.00831604,0.349065840244,0.117404878139,-0.0114740747958,-0.243625953794,0.0108382962644,0.0108382962644,0.00358092389069,-0.00261178915389,-0.472036480904,-0.472036480904,-51.5490226746,-128.196670532,2036,2062,2133,2033,2033,2857,3367,3376,3196,3318,3046,2973,3074,3074,3175,2838,3369,3371,3197,3280,2928,3292,3320,3043,0.010049246,1.420053223,1.426992932,0.453785598278,4500.0,0.465121239424,-0.00529951462522,0.0113356439397,-51.01039505,0.0,6000.0,-0.0114390552044,0.0029054954648,-0.0114390552044,67.7474594116,0.349065840244,0.0265011657029,-0.00526692951098,0.305223912001,0.000498300651088,0.000498300651088,0.0143301812932,-0.0421987921,109.997154236,109.997154236,0.48480963707,61.8278694153,2038,2034,2553,2029,2029,2935,3434,3432,3253,3373,3100,3059,3163,3157,3247,2888,3422,3432,3269,3382,3159,3362,3398,3202
1508404252969490300,143,1508404252969080131,plot_matl,-0.300000011921,-2000.0,-0.243596598506,-0.0031960401684,0.0564034022391,112.00831604,0.349065840244,0.117404878139,-0.0114654833451,-0.243590161204,0.010866900906,0.010866900906,0.0034391139634,0.0026468904689,-0.546098530293,-0.546098530293,-51.614944458,-128.50668335,2036,2062,2133,2033,2033,2857,3367,3376,3196,3318,3046,2973,3074,3074,3175,2838,3369,3371,3197,3280,2928,3292,3320,3043,0.009933955,1.429988561,1.420555565,0.453785598278,4500.0,0.465121239424,-0.00529951462522,0.0113356439397,-51.01039505,0.0,6000.0,-0.0114725502208,-0.00984740722924,-0.0114725502208,71.9197235107,0.349065840244,0.0265011657029,-0.00528899300843,0.305358976126,0.00149858894292,0.00149858894292,-0.000553727266379,0.0788786113262,110.248901367,110.248901367,0.55398786068,61.6118164062,2038,2034,2553,2029,2029,2935,3434,3432,3253,3373,3100,3059,3163,3157,3247,2888,3422,3432,3269,3382,3159,3362,3398,3202
1508404252979391222,144,1508404252979079042,plot_matl,-0.300000011921,-2000.0,-0.243583515286,0.00276937102899,0.0564164891839,113.440238953,0.349065840244,0.117404878139,-0.0114654833451,-0.243590161204,0.010866900906,0.010866900906,0.0034391139634,0.0026468904689,-0.546098530293,-0.546098530293,-51.614944458,-128.50668335,2020,2048,2133,2033,2033,2857,3367,3376,3196,3318,3046,2973,3074,3074,3176,2839,3370,3369,3198,3280,2929,3305,3333,3057,0.009997773,1.439987326,1.439679312,0.453785598278,4500.0,0.465121239424,-0.00866780802608,0.0113356439397,-51.01039505,0.0,6000.0,-0.01146742329,0.0034785985481,-0.01146742329,67.7619400024,0.349065840244,0.0265011657029,-0.00528899300843,0.305358976126,0.00149858894292,0.00149858894292,-0.000553727266379,0.0788786113262,110.248901367,110.248901367,0.55398786068,61.6118164062,2024,2020,2553,2029,2029,2935,3434,3432,3253,3373,3100,3059,3163,3157,3249,2889,3422,3431,3271,3383,3157,3374,3408,3221
1508404252989589373,145,1508404252989095835,plot_matl,-0.300000011921,-2000.0,-0.243592843413,-0.00306089967489,0.0564071536064,112.032325745,0.349065840244,0.117404878139,-0.0114654833451,-0.243590161204,0.010866900906,0.010866900906,0.0034391139634,0.0026468904689,-0.546098530293,-0.546098530293,-51.614944458,-128.50668335,2015,2041,2132,2033,2033,2864,3371,3385,3202,3325,3049,2976,3074,3074,3176,2839,3370,3369,3198,3280,2929,3305,3333,3057,0.010017623,1.450004329,1.452555335,0.453785598278,4500.0,0.466470718384,0.0200759358704,0.0126851247624,-57.0830612183,0.0,6000.0,-0.0114473849535,0.00307182245888,-0.0114473849535,67.7681655884,0.349065840244,0.0265011657029,-0.00528899300843,0.305358976126,0.00149858894292,0.00149858894292,-0.000553727266379,0.0788786113262,110.248901367,110.248901367,0.55398786068,61.6118164062,2018,2017,2554,2030,2030,2941,3438,3439,3260,3377,3105,3061,3163,3157,3249,2889,3422,3431,3271,3383,3157,3374,3408,3221
1508404252999527863,146,1508404252999076124,plot_matl,-0.300000011921,-2000.0,-0.243595302105,-0.00304653937928,0.0564046986401,112.024421692,0.349065840244,0.117404878139,-0.0114654833451,-0.243590161204,0.010866900906,0.010866900906,0.0034391139634,0.0026468904689,-0.546098530293,-0.546098530293,-51.614944458,-128.50668335,2023,2050,2132,2033,2033,2864,3371,3385,3202,3325,3049,2976,3079,3080,3179,2842,3373,3374,3202,3281,2932,3291,3333,3057,0.009979607,1.459984764,1.457022622,0.453785598278,4500.0,0.465121239424,-0.00686309766024,0.0113356439397,-51.01039505,0.0,6000.0,-0.0114795388654,0.00372034660541,-0.0114795388654,67.7451705933,0.349065840244,0.0265011657029,-0.00528899300843,0.305358976126,0.00149858894292,0.00149858894292,-0.000553727266379,0.0788786113262,110.248901367,110.248901367,0.55398786068,61.6118164062,2030,2032,2554,2030,2030,2941,3438,3439,3260,3377,3105,3061,3166,3161,3249,2891,3425,3433,3273,3385,3159,3363,3408,3221
1508404253009463912,147,1508404253009093096,plot_matl,-0.300000011921,-2000.0,-0.243612900376,0.00325407856144,0.0563870929182,113.508560181,0.349065840244,0.116055399179,-0.0115073593333,-0.243604511023,-0.00323300436139,-0.00323300436139,-0.00914110802114,-0.00287027098238,-0.475901097059,-0.475901097059,-51.8708953857,-128.315673828,2018,2044,2132,2033,2033,2857,3363,3377,3201,3320,3049,2976,3079,3080,3179,2842,3373,3374,3202,3281,2932,3291,3321,3043,0.010016361,1.470001466,1.472405067,0.453785598278,4500.0,0.465121239424,-0.00664451858029,0.0113356439397,-51.01039505,0.0,6000.0,-0.011479742825,0.00372212845832,-0.011479742825,67.7845687866,0.349065840244,0.0265011657029,-0.00528533756733,0.305406570435,-0.00233579892665,-0.00233579892665,-0.000641750637442,0.0160855446011,110.278129578,110.278129578,1.05257892609,61.7347297668,2023,2021,2553,2029,2029,2935,3433,3435,3255,3374,3105,3061,3166,3161,3249,2891,3425,3433,3273,3385,3159,3363,3400,3206
1508404253019453442,148,1508404253019069216,plot_matl,-0.300000011921,-2000.0,-0.243616983294,-0.00266426708549,0.05638301,112.107597351,0.349065840244,0.116055399179,-0.0115073593333,-0.243604511023,-0.00323300436139,-0.00323300436139,-0.00914110802114,-0.00287027098238,-0.475901097059,-0.475901097059,-51.8708953857,-128.315673828,2007,2046,2132,2033,2033,2857,3363,3377,3201,3320,3046,2974,3078,3076,3176,2841,3370,3370,3198,3282,2932,3291,3321,3043,0.009976099,1.47997755,1.476462652,0.453785598278,4500.0,0.465121239424,-0.00692162569612,0.0113356439397,-51.01039505,0.0,6000.0,-0.0115045495331,0.0042131957598,-0.0115045495331,67.7781906128,0.349065840244,0.0265011657029,-0.00528533756733,0.305406570435,-0.00233579892665,-0.00233579892665,-0.000641750637442,0.0160855446011,110.278129578,110.278129578,1.05257892609,61.7347297668,2015,2020,2553,2029,2029,2935,3433,3435,3255,3374,3104,3059,3165,3157,3249,2889,3423,3432,3270,3383,3159,3363,3400,3206
1508404253029521886,149,1508404253029076742,plot_matl,-0.300000011921,-2000.0,-0.243613824248,0.00322676147334,0.0563861764967,113.550598145,0.349065840244,0.116055399179,-0.0115073593333,-0.243604511023,-0.00323300436139,-0.00323300436139,-0.00914110802114,-0.00287027098238,-0.475901097059,-0.475901097059,-51.8708953857,-128.315673828,2030,2068,2132,2035,2035,2858,3365,3376,3201,3320,3046,2974,3078,3076,3176,2841,3370,3370,3198,3282,2929,3289,3321,3044,0.010007376,1.489985337,1.491099024,0.453785598278,4500.0,0.465121239424,-0.00751551613212,0.0113356439397,-51.01039505,0.0,6000.0,-0.0114907491952,0.00394124770537,-0.0114907491952,67.7231216431,0.349065840244,0.0265011657029,-0.00528533756733,0.305406570435,-0.00233579892665,-0.00233579892665,-0.000641750637442,0.0160855446011,110.278129578,110.278129578,1.05257892609,61.7347297668,2028,2034,2555,2029,2029,2937,3435,3434,3255,3374,3104,3059,3165,3157,3249,2889,3423,3432,3270,3383,3158,3363,3398,3205
1508404253039613628,150,1508404253039110562,plot_matl,-0.300000011921,-2000.0,-0.243611931801,0.00317577947862,0.0563880726695,113.537185669,0.349065840244,0.116055399179,-0.0115073593333,-0.243604511023,-0.00323300436139,-0.00323300436139,-0.00914110802114,-0.00287027098238,-0.475901097059,-0.475901097059,-51.8708953857,-128.315673828,2031,2050,2132,2035,2035,2858,3365,3376,3200,3318,3045,2972,3075,3075,3179,2839,3369,3371,3198,3282,2929,3289,3321,3044,0.010033956,1.500019228,1.5050934,0.453785598278,4500.0,0.465121239424,-0.00711074890569,0.0113356439397,-51.01039505,0.0,6000.0,-0.0114800110459,0.00372514943592,-0.0114800110459,67.7375640869,0.349065840244,0.0265011657029,-0.00528533756733,0.305406570435,-0.00233579892665,-0.00233579892665,-0.000641750637442,0.0160855446011,110.278129578,110.278129578,1.05257892609,61.7347297668,2023,2019,2555,2029,2029,2937,3435,3434,3253,3374,3100,3058,3162,3158,3249,2889,3424,3429,3270,3383,3158,3363,3398,3205
1508404253049529827,151,1508404253049111073,plot_matl,-0.300000011921,-2000.0,-0.243616938591,-0.0027129559312,0.0563830547035,112.083869934,0.349065840244,0.116055399179,-0.0114955920726,-0.243614494801,-0.003347909078,-0.003347909078,-0.00938366726041,-0.00275309453718,-0.448688924313,-0.448688924313,-51.9567527771,-128.230117798,2021,2045,2133,2033,2033,2856,3365,3376,3200,3318,3045,2972,3075,3075,3179,2839,3369,3371,3196,3281,2928,3289,3320,3043,0.010000325,1.510019758,1.510049075,0.453785598278,4500.0,0.465121239424,-0.00631639966741,0.0113356439397,-51.01039505,0.0,6000.0,-0.0114695746452,0.00351556553505,-0.0114695746452,67.7404708862,0.349065840244,0.0265011657029,-0.0052618519403,0.305492639542,-0.000249032425927,-0.000249032425927,-0.00112524547148,-0.0475481785834,110.193901062,110.193901062,1.0364587307,61.8383674622,2012,2010,2554,2030,2030,2937,3435,3434,3253,3374,3100,3058,3162,3158,3249,2889,3424,3429,3269,3383,3158,3362,3398,3205
1508404253059408786,152,1508404253059068169,plot_matl,-0.300000011921,-2000.0,-0.24361102283,-0.00285172020085,0.0563889741898,112.001777649,0.349065840244,0.116055399179,-0.0114955920726,-0.243614494801,-0.003347909078,-0.003347909078,-0.00938366726041,-0.00275309453718,-0.448688924313,-0.448688924313,-51.9567527771,-128.230117798,2032,2061,2133,2033,2033,2856,3364,3376,3200,3317,3045,2971,3077,3073,3177,2840,3369,3371,3196,3281,2928,3289,3320,3043,0.009956104,1.51997701,1.513327808,0.453785598278,4500.0,0.465121239424,-0.0061455485411,0.0113356439397,-51.01039505,0.0,6000.0,-0.0114769209176,-0.00977538712323,-0.0114769209176,72.131729126,0.349065840244,0.0265011657029,-0.0052618519403,0.305492639542,-0.000249032425927,-0.000249032425927,-0.00112524547148,-0.0475481785834,110.193901062,110.193901062,1.0364587307,61.8383674622,2033,2026,2554,2030,2030,2937,3434,3434,3253,3374,3101,3057,3164,3155,3249,2889,3424,3429,3269,3383,3158,3362,3398,3205
1508404253069460112,153,1508404253069059488,plot_matl,-0.300000011921,-2000.0,-0.243609547615,0.0030851517804,0.0563904605806,113.495574951,0.349065840244,0.116055399179,-0.0114955920726,-0.243614494801,-0.003347909078,-0.003347909078,-0.00938366726041,-0.00275309453718,-0.448688924313,-0.448688924313,-51.9567527771,-128.230117798,2022,2056,2133,2030,2030,2856,3364,3376,3200,3317,3045,2971,3077,3073,3177,2840,3371,3373,3196,3278,2926,3289,3320,3045,0.009989871,1.529967597,1.528450263,0.453785598278,4500.0,0.465121239424,-0.0061455485411,0.0113356439397,-51.01039505,0.0,6000.0,-0.011479947716,0.00368423573673,-0.011479947716,67.790222168,0.349065840244,0.0265011657029,-0.0052618519403,0.305492639542,-0.000249032425927,-0.000249032425927,-0.00112524547148,-0.0475481785834,110.193901062,110.193901062,1.0364587307,61.8383674622,2024,2022,2554,2026,2026,2937,3434,3434,3253,3374,3101,3057,3164,3155,3249,2889,3424,3430,3270,3382,3158,3364,3398,3203
1508404253079638359,154,1508404253079077247,plot_matl,-0.300000011921,-2000.0,-0.243604272604,0.00297252740711,0.0563957281411,113.488296509,0.349065840244,0.116055399179,-0.0114955920726,-0.243614494801,-0.003347909078,-0.003347909078,-0.00938366726041,-0.00275309453718,-0.448688924313,-0.448688924313,-51.9567527771,-128.230117798,2009,2033,2133,2030,2030,2857,3364,3377,3199,3318,3046,2972,3076,3075,3177,2840,3371,3373,3196,3278,2926,3289,3320,3045,0.010018766,1.539985973,1.542889964,0.453785598278,4500.0,0.465121239424,-0.00582860130817,0.0113356439397,-51.01039505,0.0,6000.0,-0.0115078249946,0.00424456642941,-0.0115078249946,67.7794647217,0.349065840244,0.0265011657029,-0.0052618519403,0.305492639542,-0.000249032425927,-0.000249032425927,-0.00112524547148,-0.0475481785834,110.193901062,110.193901062,1.0364587307,61.8383674622,2018,2018,2554,2026,2026,2936,3433,3433,3253,3373,3102,3058,3165,3156,3249,2889,3424,3430,3270,3382,3158,3364,3398,3203
1508404253089478311,155,1508404253089074089,plot_matl,-0.300000011921,-2000.0,-0.243615031242,0.00318402657285,0.0563849695027,113.520629883,0.349065840244,0.116055399179,-0.0115086873993,-0.243612974882,-0.00274540856481,-0.00274540856481,-0.00915885064751,-0.00282900640741,-0.295974195004,-0.295974195004,-52.3101081848,-128.445541382,2033,2069,2133,2030,2030,2857,3364,3377,3199,3318,3046,2972,3076,3075,3173,2841,3371,3369,3198,3277,2927,3289,3318,3042,0.009996281,1.549982669,1.549423555,0.453785598278,4500.0,0.465121239424,-0.00477405916899,0.0113356439397,-51.01039505,0.0,6000.0,-0.0114926416427,0.00394561421126,-0.0114926416427,67.7754516602,0.349065840244,0.0265011657029,-0.00529221305624,0.305522441864,-0.00181741139386,-0.00181741139386,-0.000505858974066,-0.048065520823,110.188049316,110.188049316,1.07845890522,61.8477210999,2036,2037,2554,2026,2026,2936,3433,3433,3253,3373,3102,3058,3165,3156,3245,2889,3424,3429,3269,3382,3157,3364,3398,3202
1508404253099517092,156,1508404253099090233,plot_matl,-0.300000011921,-2000.0,-0.243618920445,-0.00271626003087,0.056381072849,112.10509491,0.349065840244,0.116055399179,-0.0115086873993,-0.243612974882,-0.00274540856481,-0.00274540856481,-0.00915885064751,-0.00282900640741,-0.295974195004,-0.295974195004,-52.3101081848,-128.445541382,2016,2052,2132,2028,2028,2856,3363,3376,3197,3318,3045,2974,3076,3075,3173,2841,3371,3369,3198,3277,2927,3289,3318,3042,0.010015448,1.559998704,1.562409888,0.453785598278,4500.0,0.465121239424,-0.00583165464923,0.0113356439397,-51.01039505,0.0,6000.0,-0.0114569645375,0.00323007302359,-0.0114569645375,67.7658233643,0.349065840244,0.0265011657029,-0.00529221305624,0.305522441864,-0.00181741139386,-0.00181741139386,-0.000505858974066,-0.048065520823,110.188049316,110.188049316,1.07845890522,61.8477210999,2032,2028,2554,2026,2026,2935,3434,3433,3252,3374,3100,3058,3165,3156,3245,2889,3424,3429,3269,3382,3157,3364,3398,3202
1508404253109485540,157,1508404253109071280,plot_matl,-0.300000011921,-2000.0,-0.243617087603,-0.0027556149289,0.0563829168677,112.115875244,0.349065840244,0.116055399179,-0.0115086873993,-0.243612974882,-0.00274540856481,-0.00274540856481,-0.00915885064751,-0.00282900640741,-0.295974195004,-0.295974195004,-52.3101081848,-128.445541382,2014,2042,2132,2028,2028,2856,3363,3376,3197,3318,3045,2974,3077,3076,3175,2839,3368,3371,3199,3280,2928,3288,3318,3042,0.009990772,1.569990174,1.568551204,0.453785598278,4500.0,0.466470718384,0.0204875431955,0.0126851247624,-57.0830612183,0.0,6000.0,-0.0114662069827,-0.0100018233061,-0.0114662069827,71.7197952271,0.349065840244,0.0265011657029,-0.00529221305624,0.305522441864,-0.00181741139386,-0.00181741139386,-0.000505858974066,-0.048065520823,110.188049316,110.188049316,1.07845890522,61.8477210999,2026,2030,2554,2026,2026,2935,3434,3433,3252,3374,3100,3058,3162,3156,3248,2888,3424,3431,3272,3381,3157,3362,3398,3202
1508404253119496148,158,1508404253119091535,plot_matl,-0.300000011921,-2000.0,-0.243598535657,0.00284426496364,0.0564014650881,113.536056519,0.349065840244,0.116055399179,-0.0115086873993,-0.243612974882,-0.00274540856481,-0.00274540856481,-0.00915885064751,-0.00282900640741,-0.295974195004,-0.295974195004,-52.3101081848,-128.445541382,2038,2067,2132,2034,2034,2857,3364,3375,3199,3317,3045,2974,3077,3076,3175,2839,3368,3371,3199,3280,2928,3288,3319,3042,0.010010454,1.580000261,1.581651732,0.453785598278,4500.0,0.465121239424,-0.00708403578028,0.0113356439397,-51.01039505,0.0,6000.0,-0.0114464471117,0.00302573852241,-0.0114464471117,67.6925735474,0.349065840244,0.0265011657029,-0.00529221305624,0.305522441864,-0.00181741139386,-0.00181741139386,-0.000505858974066,-0.048065520823,110.188049316,110.188049316,1.07845890522,61.8477210999,2041,2040,2553,2026,2026,2934,3433,3433,3253,3372,3100,3058,3162,3156,3248,2888,3424,3431,3272,3381,3157,3362,3397,3203
1508404253129447316,159,1508404253129082434,plot_matl,-0.300000011921,-2000.0,-0.243593916297,-0.00321742845699,0.0564060807228,112.026000977,0.349065840244,0.116055399179,-0.0114504713565,-0.243601217866,-0.00333555461839,-0.00333555461839,0.00312128569931,0.00290780491196,-0.489615499973,-0.489615499973,-51.9794692993,-128.308990479,2027,2066,2132,2034,2034,2857,3364,3375,3199,3317,3046,2972,3075,3076,3177,2837,3369,3371,3195,3280,2928,3288,3319,3042,0.009989771,1.589990778,1.588373589,0.453785598278,4500.0,0.465121239424,-0.00681752432138,0.0113356439397,-51.01039505,0.0,6000.0,-0.0114421416074,0.00295295659453,-0.0114421416074,67.7577438354,0.349065840244,0.0265011657029,-0.00530533865094,0.305508136749,-0.00134777731728,-0.00134777731728,-0.000262381683569,0.0140649015084,110.292762756,110.292762756,1.34960258007,61.6841545105,2028,2030,2553,2026,2026,2934,3433,3433,3253,3372,3102,3059,3162,3157,3248,2887,3423,3431,3269,3380,3157,3362,3397,3203
1508404253139506163,160,1508404253139079476,plot_matl,-0.300000011921,-2000.0,-0.243596836925,0.00280282506719,0.0564031600952,113.47631073,0.349065840244,0.116055399179,-0.0114504713565,-0.243601217866,-0.00333555461839,-0.00333555461839,0.00312128569931,0.00290780491196,-0.489615499973,-0.489615499973,-51.9794692993,-128.308990479,2019,2056,2132,2033,2033,2855,3363,3373,3199,3317,3046,2972,3075,3076,3177,2837,3369,3371,3195,3280,2928,3290,3319,3043,0.009997283,1.599988302,1.59956528,0.453785598278,4500.0,0.465121239424,-0.00798759888858,0.0113356439397,-51.01039505,0.0,6000.0,-0.0114404913038,0.00290806870908,-0.0114404913038,67.7668075562,0.349065840244,0.0265011657029,-0.00530533865094,0.305508136749,-0.00134777731728,-0.00134777731728,-0.000262381683569,0.0140649015084,110.292762756,110.292762756,1.34960258007,61.6841545105,2019,2030,2555,2028,2028,2935,3433,3433,3253,3372,3102,3059,3162,3157,3248,2887,3423,3431,3269,3380,3157,3363,3398,3203
1508404253149616612,161,1508404253149098112,plot_matl,-0.300000011921,-2000.0,-0.243593379855,0.00272625032812,0.0564066208899,113.464569092,0.349065840244,0.116055399179,-0.0114504713565,-0.243601217866,-0.00333555461839,-0.00333555461839,0.00312128569931,0.00290780491196,-0.489615499973,-0.489615499973,-51.9794692993,-128.308990479,2041,2067,2132,2033,2033,2855,3363,3373,3199,3321,3043,2971,3076,3076,3174,2839,3369,3373,3195,3280,2928,3290,3319,3043,0.010019709,1.610007038,1.613173149,0.453785598278,4500.0,0.465121239424,-0.00792103540152,0.0113356439397,-51.01039505,0.0,6000.0,-0.0114736557007,0.00356925744563,-0.0114736557007,67.7679290771,0.349065840244,0.0265011657029,-0.00530533865094,0.305508136749,-0.00134777731728,-0.00134777731728,-0.000262381683569,0.0140649015084,110.292762756,110.292762756,1.34960258007,61.6841545105,2038,2037,2555,2028,2028,2935,3433,3433,3255,3372,3099,3057,3164,3156,3248,2888,3423,3431,3269,3380,3157,3363,3398,3203
1508404253159504088,162,1508404253159088614,plot_matl,-0.300000011921,-2000.0,-0.243595957756,-0.00319894985296,0.056404042989,112.038749695,0.349065840244,0.116055399179,-0.0114504713565,-0.243601217866,-0.00333555461839,-0.00333555461839,0.00312128569931,0.00290780491196,-0.489615499973,-0.489615499973,-51.9794692993,-128.308990479,2022,2052,2132,2031,2031,2857,3363,3373,3199,3321,3043,2971,3076,3076,3174,2839,3369,3373,3197,3278,2926,3289,3319,3044,0.009990127,1.619998257,1.618400574,0.453785598278,4500.0,0.465121239424,-0.00800256524235,0.0113356439397,-51.01039505,0.0,6000.0,-0.0114415846765,0.00292524485849,-0.0114415846765,67.7656784058,0.349065840244,0.0265011657029,-0.00530533865094,0.305508136749,-0.00134777731728,-0.00134777731728,-0.000262381683569,0.0140649015084,110.292762756,110.292762756,1.34960258007,61.6841545105,2022,2023,2554,2030,2030,2935,3433,3433,3255,3372,3099,3057,3164,3156,3248,2888,3423,3431,3271,3382,3156,3361,3400,3203
1508404253169248736,163,1508404253169055853,plot_matl,-0.300000011921,-2000.0,-0.243595957756,-0.00319894985296,0.056404042989,112.038749695,0.349065840244,0.116055399179,-0.0114457430318,-0.243605226278,-0.0040253768675,-0.0040253768675,0.00300833396614,-0.00301188067533,-0.395019769669,-0.395019769669,-51.9040260315,-128.414382935,2016,2051,2132,2031,2031,2857,3363,3375,3200,3317,3046,2971,3077,3077,3173,2838,3369,3373,3197,3278,2926,3289,3319,3044,0.009963558,1.629963923,1.624059954,0.453785598278,4500.0,0.465121239424,-0.00800256524235,0.0113356439397,-51.01039505,0.0,6000.0,-0.0114621957764,-0.0100708017126,-0.0114621957764,71.4696731567,0.349065840244,0.0265011657029,-0.00528596714139,0.305220007896,0.000229811237659,0.000229811237659,-0.000638063647784,0.0198584608734,110.089378357,110.089378357,1.30127286911,61.6645584106,2023,2016,2554,2030,2030,2935,3431,3433,3254,3373,3101,3058,3162,3156,3248,2889,3423,3431,3271,3382,3156,3361,3400,3203
