%time,field.header.seq,field.header.stamp,field.header.frame_id,field.FFJ4_set_point,field.FFJ4_position_gain,field.FFJ4_process_value,field.FFJ4_process_value_dot,field.FFJ4_error,field.FFJ4_command,field.FFJ1,field.FFJ2,field.FFJ3,field.FFJ4,field.FFJ1_dot,field.FFJ2_dot,field.FFJ3_dot,field.FFJ4_dot,field.FFJ1_tao,field.FFJ2_tao,field.FFJ3_tao,field.FFJ4_tao,field.pac0,field.pac1,field.pdc0,field.tac0,field.tdc0,field.el0,field.el1,field.el2,field.el3,field.el4,field.el5,field.el6,field.el7,field.el8,field.el9,field.el10,field.el11,field.el12,field.el13,field.el14,field.el15,field.el16,field.el17,field.el18,field.dt,field.time,field.test_time2,field.FFJ0_set_point,field.FFJ0_position_gain,field.FFJ0_process_value,field.FFJ0_process_value_dot,field.FFJ0_error,field.FFJ0_command,field.FFJ3_set_point,field.FFJ3_position_gain,field.FFJ3_process_value,field.FFJ3_process_value_dot,field.FFJ3_error,field.FFJ3_command,field.MFJ1,field.MFJ2,field.MFJ3,field.MFJ4,field.MFJ1_dot,field.MFJ2_dot,field.MFJ3_dot,field.MFJ4_dot,field.MFJ1_tao,field.MFJ2_tao,field.MFJ3_tao,field.MFJ4_tao,field.Mpac0,field.Mpac1,field.Mpdc0,field.Mtac0,field.Mtdc0,field.Mel0,field.Mel1,field.Mel2,field.Mel3,field.Mel4,field.Mel5,field.Mel6,field.Mel7,field.Mel8,field.Mel9,field.Mel10,field.Mel11,field.Mel12,field.Mel13,field.Mel14,field.Mel15,field.Mel16,field.Mel17,field.Mel18
1508404555865913427,113,1508404555865408534,plot_matl,0.25,-3000.0,0.221779763699,-0.00663053337485,-0.0282202418894,-86.2463989258,0.349065840244,0.0728719979525,-0.00319848814979,0.221772998571,-0.000626402616035,-0.000626402616035,-0.00249308813363,-0.00649441685528,-90.2271957397,-90.2271957397,-57.1015510559,94.8569335938,2030,2059,2125,2018,2018,2664,3312,3338,3141,3291,3004,2972,3050,3089,3168,2967,3397,3392,3239,3292,2958,3281,3312,3033,0.010003313,1.130008528,1.130374369,0.453785598278,4500.0,0.423287332058,0.0259924251586,-0.0304982792586,137.242263794,0.0,6000.0,-0.00319589255378,-0.002545340918,-0.00319589255378,19.9361934662,0.349065840244,0.0240919683129,-0.00150484603364,0.309075057507,0.00726336520165,0.00726336520165,-0.000297246588161,0.0037089753896,113.769424438,113.769424438,0.300020307302,74.5328216553,2028,2027,2556,2026,2026,2943,3432,3433,3253,3372,3096,3052,3158,3147,3241,2862,3412,3423,3257,3373,3146,3356,3390,3197
1508404555875540965,114,1508404555875400688,plot_matl,0.25,-3000.0,0.221857339144,0.029683155939,-0.0281426534057,-77.4537277222,0.349065840244,0.0728719979525,-0.00319651071914,0.221849098802,-0.000513236795086,-0.000513236795086,-0.00253674550913,-0.0080707995221,-90.2216110229,-90.2216110229,-57.1158065796,94.717376709,2029,2054,2125,2018,2018,2661,3308,3335,3139,3289,3003,2971,3048,3090,3168,2967,3397,3392,3239,3292,2958,3281,3312,3033,0.00999184,1.140000708,1.13906976,0.453785598278,4500.0,0.421937853098,-0.00104771275073,-0.0318477600813,143.314926147,0.0,6000.0,-0.00319390743971,-0.00258923391812,-0.00319390743971,19.9251747131,0.349065840244,0.0216827709228,-0.00150742940605,0.309158712626,-0.0174690037966,-0.0174690037966,-0.000243546062848,-0.0598943755031,113.813148499,113.813148499,0.0969416722655,73.930480957,2030,2027,2556,2026,2026,2939,3428,3427,3250,3368,3095,3050,3158,3147,3241,2862,3412,3423,3257,3373,3146,3356,3390,3197
1508404555885721230,115,1508404555885434500,plot_matl,0.25,-3000.0,0.221850931644,-0.00811447948217,-0.0281490646303,-86.4045181274,0.349065840244,0.0728719979525,-0.00320831779391,0.22184304893,-0.000910809263587,-0.000910809263587,-0.00230800360441,-0.00795457232744,-90.0998916626,-90.0998916626,-57.2142372131,94.9007873535,2016,2032,2125,2018,2018,2661,3308,3335,3139,3289,3003,2971,3048,3090,3168,2967,3396,3391,3237,3290,2956,3281,3310,3033,0.010034143,1.15003499,1.153926445,0.453785598278,4500.0,0.421937853098,-0.00185823766515,-0.0318477600813,143.314926147,0.0,6000.0,-0.00320602580905,-0.00235440046526,-0.00320602580905,19.9465389252,0.349065840244,0.0240919683129,-0.00150955328718,0.309233546257,0.00554173765704,0.00554173765704,-0.000199393936782,0.000473782420158,113.59803772,113.59803772,-0.0288699418306,73.7389602661,2019,2009,2556,2026,2026,2939,3428,3427,3250,3368,3095,3050,3158,3147,3241,2861,3412,3421,3258,3371,3146,3354,3391,3196
1508404555895662035,116,1508404555895435271,plot_matl,0.25,-3000.0,0.221780329943,-0.00668778922409,-0.0282196775079,-86.2766952515,0.349065840244,0.0728719979525,-0.00320831779391,0.22184304893,-0.000910809263587,-0.000910809263587,-0.00230800360441,-0.00795457232744,-90.0998916626,-90.0998916626,-57.2142372131,94.9007873535,2018,2043,2125,2018,2018,2660,3306,3337,3138,3288,3003,2970,3051,3090,3168,2967,3396,3391,3237,3290,2956,3281,3310,3033,0.01000052,1.160035626,1.16006032,0.453785598278,4500.0,0.421937853098,-0.00251618283801,-0.0318477600813,143.314926147,0.0,6000.0,-0.00318980659358,0.0107460785657,-0.00318980659358,15.8787851334,0.349065840244,0.0240919683129,-0.00150955328718,0.309233546257,0.00554173765704,0.00554173765704,-0.000199393936782,0.000473782420158,113.59803772,113.59803772,-0.0288699418306,73.7389602661,2027,2022,2556,2029,2029,2939,3430,3430,3249,3367,3094,3049,3155,3147,3241,2861,3412,3421,3258,3371,3146,3354,3391,3196
1508404555905723373,117,1508404555905415981,plot_matl,0.25,-3000.0,0.221755594015,-0.00610097078606,-0.0282444134355,-86.2816848755,0.349065840244,0.0728719979525,-0.00320831779391,0.22184304893,-0.000910809263587,-0.000910809263587,-0.00230800360441,-0.00795457232744,-90.0998916626,-90.0998916626,-57.2142372131,94.9007873535,2019,2048,2125,2018,2018,2660,3306,3337,3138,3288,3003,2970,3051,3088,3166,2965,3395,3390,3239,3293,2955,3279,3310,3033,0.00998055,1.170016125,1.16772435,0.453785598278,4500.0,0.421937853098,-0.00204863632098,-0.0318477600813,143.314926147,0.0,6000.0,-0.0032138240058,-0.00218566390686,-0.0032138240058,19.9710445404,0.349065840244,0.0240919683129,-0.00150955328718,0.309233546257,0.00554173765704,0.00554173765704,-0.000199393936782,0.000473782420158,113.59803772,113.59803772,-0.0288699418306,73.7389602661,2025,2028,2556,2029,2029,2939,3430,3430,3249,3367,3094,3049,3155,3148,3240,2861,3413,3420,3257,3374,3145,3356,3391,3196
1508404555915892152,118,1508404555915425938,plot_matl,0.25,-3000.0,0.221727743745,-0.00555768795311,-0.0282722506672,-86.0271759033,0.349065840244,0.0728719979525,-0.0032121501863,0.221722021699,-0.00134689768311,-0.00134689768311,-0.00224641337991,-0.00544294668362,-89.931892395,-89.931892395,-57.3814811707,95.0805358887,2008,2056,2125,2018,2018,2661,3307,3335,3137,3289,3001,2970,3051,3088,3166,2965,3395,3390,3239,3293,2955,3279,3310,3030,0.010010112,1.180026633,1.181193216,0.453785598278,4500.0,0.421937853098,-0.00275058252737,-0.0318477600813,143.314926147,0.0,6000.0,-0.0032098274678,0.0111351264641,-0.0032098274678,16.2480449677,0.349065840244,0.0216827709228,-0.00146411883179,0.309116184711,-0.0185294821858,-0.0185294821858,0.0142494365573,0.00290329707786,113.542907715,113.542907715,-0.343731850386,74.2711868286,2017,2019,2556,2027,2027,2938,3430,3430,3249,3368,3093,3049,3155,3148,3240,2861,3413,3420,3257,3374,3145,3356,3391,3197
1508404555925646159,119,1508404555925433043,plot_matl,0.25,-3000.0,0.22167699039,-0.0045406059362,-0.0283230096102,-86.1287841797,0.349065840244,0.0728719979525,-0.0032121501863,0.221722021699,-0.00134689768311,-0.00134689768311,-0.00224641337991,-0.00544294668362,-89.931892395,-89.931892395,-57.3814811707,95.0805358887,2024,2073,2125,2018,2018,2661,3307,3335,3137,3289,3001,2971,3049,3089,3167,2966,3397,3393,3239,3293,2955,3279,3310,3030,0.010005722,1.190033307,1.190680918,0.453785598278,4500.0,0.421937853098,-0.00324324565008,-0.0318477600813,143.314926147,0.0,6000.0,-0.00320485350676,-0.00239991419949,-0.00320485350676,19.980632782,0.349065840244,0.0216827709228,-0.00146411883179,0.309116184711,-0.0185294821858,-0.0185294821858,0.0142494365573,0.00290329707786,113.542907715,113.542907715,-0.343731850386,74.2711868286,2032,2038,2556,2027,2027,2938,3430,3430,3249,3368,3093,3050,3156,3147,3238,2861,3412,3422,3257,3373,3144,3356,3391,3197
1508404555935669170,120,1508404555935399759,plot_matl,0.25,-3000.0,0.221665620804,-0.00434099137783,-0.0283343847841,-86.0805511475,0.349065840244,0.0728719979525,-0.0032121501863,0.221722021699,-0.00134689768311,-0.00134689768311,-0.00224641337991,-0.00544294668362,-89.931892395,-89.931892395,-57.3814811707,95.0805358887,2032,2065,2125,2017,2017,2660,3307,3338,3136,3289,3001,2971,3049,3089,3167,2966,3397,3393,3239,3293,2955,3279,3309,3032,0.00996621,1.200000299,1.1959452,0.453785598278,4500.0,0.421937853098,-0.0021138812881,-0.0318477600813,143.314926147,0.0,6000.0,-0.0032028069254,-0.00243241596036,-0.0032028069254,19.9646854401,0.349065840244,0.0216827709228,-0.00146411883179,0.309116184711,-0.0185294821858,-0.0185294821858,0.0142494365573,0.00290329707786,113.542907715,113.542907715,-0.343731850386,74.2711868286,2035,2035,2556,2028,2028,2938,3430,3430,3249,3368,3093,3050,3156,3147,3238,2861,3412,3422,3257,3373,3144,3357,3392,3197
1508404555945657780,121,1508404555945440622,plot_matl,0.25,-3000.0,0.221769928932,0.0314908362925,-0.0282300747931,-77.5373306274,0.349065840244,0.0728719979525,-0.0032121501863,0.221722021699,-0.00134689768311,-0.00134689768311,-0.00224641337991,-0.00544294668362,-89.931892395,-89.931892395,-57.3814811707,95.0805358887,2030,2063,2125,2017,2017,2660,3307,3338,3136,3291,3001,2971,3047,3088,3165,2966,3397,3390,3237,3293,2955,3279,3309,3032,0.010041766,1.210041258,1.215053686,0.453785598278,4500.0,0.421937853098,-0.0012204105733,-0.0318477600813,143.314926147,0.0,6000.0,-0.00322465505451,-0.0153957260773,-0.00322465505451,23.7241039276,0.349065840244,0.0216827709228,-0.00146411883179,0.309116184711,-0.0185294821858,-0.0185294821858,0.0142494365573,0.00290329707786,113.542907715,113.542907715,-0.343731850386,74.2711868286,2030,2029,2556,2028,2028,2938,3430,3430,3249,3369,3094,3050,3155,3147,3239,2861,3413,3421,3256,3373,3144,3357,3392,3197
1508404555955946433,122,1508404555955456207,plot_matl,0.25,-3000.0,0.221743091941,-0.00588473072276,-0.0282569136471,-86.2400360107,0.349065840244,0.0728719979525,-0.00323213101365,0.221737444401,-0.000233028622461,-0.000233028622461,-0.00182879879139,-0.00577143253759,-89.9370880127,-89.9370880127,-57.4174079895,95.2538070679,2030,2059,2125,2019,2019,2661,3306,3338,3136,3291,3001,2971,3047,3088,3165,2966,3397,3390,3237,3292,2956,3280,3309,3030,0.010016366,1.220056912,1.221996652,0.453785598278,4500.0,0.421937853098,-0.000475206354167,-0.0318477600813,143.314926147,0.0,6000.0,-0.0032303603366,-0.00186469964683,-0.0032303603366,19.9592151642,0.349065840244,0.0265011657029,-0.00144958496094,0.308949530125,0.0275443792343,0.0275443792343,-0.00139655428939,0.00627797329798,113.671897888,113.671897888,-0.305980652571,77.2024993896,2032,2039,2556,2025,2025,2938,3427,3430,3249,3369,3094,3050,3155,3147,3239,2861,3413,3421,3256,3374,3145,3356,3391,3198
1508404555965757844,123,1508404555965437949,plot_matl,0.25,-3000.0,0.22182585299,-0.00756495213136,-0.0281741414219,-86.3059234619,0.349065840244,0.0728719979525,-0.00323213101365,0.221737444401,-0.000233028622461,-0.000233028622461,-0.00182879879139,-0.00577143253759,-89.9370880127,-89.9370880127,-57.4174079895,95.2538070679,2022,2055,2125,2019,2019,2661,3306,3336,3138,3289,3003,2969,3048,3089,3164,2967,3396,3390,3237,3292,2956,3280,3309,3030,0.009980069,1.230038234,1.227548487,0.453785598278,4500.0,0.421937853098,-0.000845427392051,-0.0318477600813,143.314926147,0.0,6000.0,-0.0032102749683,0.0111501282081,-0.0032102749683,15.9817562103,0.349065840244,0.0265011657029,-0.00144958496094,0.308949530125,0.0275443792343,0.0275443792343,-0.00139655428939,0.00627797329798,113.671897888,113.671897888,-0.305980652571,77.2024993896,2031,2031,2556,2025,2025,2938,3427,3429,3249,3367,3094,3050,3155,3146,3240,2860,3415,3421,3256,3374,3145,3356,3391,3198
1508404555975859599,124,1508404555975474857,plot_matl,0.25,-3000.0,0.221816495061,-0.00736740650609,-0.0281835068017,-86.3147506714,0.349065840244,0.0728719979525,-0.00323213101365,0.221737444401,-0.000233028622461,-0.000233028622461,-0.00182879879139,-0.00577143253759,-89.9370880127,-89.9370880127,-57.4174079895,95.2538070679,2021,2051,2125,2018,2018,2661,3306,3336,3138,3289,3003,2969,3048,3089,3164,2967,3396,3391,3239,3294,2956,3279,3311,3033,0.010036546,1.240075506,1.244531704,0.453785598278,4500.0,0.420588374138,-0.0284494701773,-0.0331972427666,149.387588501,0.0,6000.0,-0.00320741045289,-0.00232955534011,-0.00320741045289,19.9366607666,0.349065840244,0.0265011657029,-0.00144958496094,0.308949530125,0.0275443792343,0.0275443792343,-0.00139655428939,0.00627797329798,113.671897888,113.671897888,-0.305980652571,77.2024993896,2023,2017,2556,2024,2024,2938,3427,3429,3249,3367,3094,3050,3155,3146,3240,2860,3415,3421,3257,3373,3145,3356,3392,3196
1508404555985729996,125,1508404555985448330,plot_matl,0.25,-3000.0,0.221856698394,-0.00817666295916,-0.0281433053315,-86.4614105225,0.349065840244,0.0728719979525,-0.00323213101365,0.221737444401,-0.000233028622461,-0.000233028622461,-0.00182879879139,-0.00577143253759,-89.9370880127,-89.9370880127,-57.4174079895,95.2538070679,2016,2042,2125,2018,2018,2662,3308,3336,3138,3289,3002,2970,3047,3088,3166,2967,3396,3391,3239,3294,2956,3279,3311,3033,0.009972459,1.250048446,1.246557375,0.453785598278,4500.0,0.421937853098,-0.00247573526576,-0.0318477600813,143.314926147,0.0,6000.0,-0.0032282336615,-0.001907433616,-0.0032282336615,19.9574623108,0.349065840244,0.0265011657029,-0.00144958496094,0.308949530125,0.0275443792343,0.0275443792343,-0.00139655428939,0.00627797329798,113.671897888,113.671897888,-0.305980652571,77.2024993896,2022,2024,2556,2024,2024,2939,3429,3428,3250,3367,3094,3049,3157,3148,3240,2860,3415,3421,3257,3373,3145,3356,3392,3196
1508404555995764551,126,1508404555995439859,plot_matl,0.25,-3000.0,0.221885979176,-0.00879507232457,-0.0281140133739,-86.4116516113,0.349065840244,0.0728719979525,-0.00323546491563,0.221877604723,-0.000996064161882,-0.000996064161882,-0.00175807380583,-0.00862594693899,-89.8452072144,-89.8452072144,-56.9106445312,95.1864395142,2028,2045,2125,2018,2018,2662,3308,3336,3138,3289,3002,2970,3047,3088,3166,2966,3397,3390,3238,3291,2955,3280,3309,3031,0.00999163,1.260039956,1.25894538,0.453785598278,4500.0,0.421937853098,-0.00203118706122,-0.0318477600813,143.314926147,0.0,6000.0,-0.00323376175947,-0.0017925434513,-0.00323376175947,19.9285488129,0.349065840244,0.0240919683129,-0.00145452725701,0.309356451035,0.00498340465128,0.00498340465128,-0.00131522293668,-0.00192342873197,113.883003235,113.883003235,-0.166149154305,75.9918136597,2028,2023,2556,2024,2024,2939,3429,3428,3250,3367,3094,3049,3157,3148,3240,2861,3414,3421,3258,3374,3145,3356,3390,3195
1508404556005864582,127,1508404556005462780,plot_matl,0.25,-3000.0,0.2219440341,0.027915796265,-0.0280559603125,-77.5372314453,0.349065840244,0.0728719979525,-0.00323546491563,0.221877604723,-0.000996064161882,-0.000996064161882,-0.00175807380583,-0.00862594693899,-89.8452072144,-89.8452072144,-56.9106445312,95.1864395142,2018,2041,2125,2017,2017,2661,3308,3334,3138,3290,3003,2970,3049,3088,3166,2966,3397,3390,3238,3291,2955,3280,3309,3031,0.010022313,1.270062864,1.272833751,0.453785598278,4500.0,0.421937853098,-0.00166263093706,-0.0318477600813,143.314926147,0.0,6000.0,-0.00324040441774,-0.0150895062834,-0.00324040441774,23.9154071808,0.349065840244,0.0240919683129,-0.00145452725701,0.309356451035,0.00498340465128,0.00498340465128,-0.00131522293668,-0.00192342873197,113.883003235,113.883003235,-0.166149154305,75.9918136597,2028,2016,2556,2026,2026,2938,3429,3431,3249,3367,3092,3049,3156,3148,3240,2861,3414,3421,3258,3374,3145,3356,3390,3195
1508404556015718578,128,1508404556015418599,plot_matl,0.25,-3000.0,0.22188706696,-0.00882981810719,-0.0281129274517,-86.3636169434,0.349065840244,0.0728719979525,-0.00323546491563,0.221877604723,-0.000996064161882,-0.000996064161882,-0.00175807380583,-0.00862594693899,-89.8452072144,-89.8452072144,-56.9106445312,95.1864395142,2011,2039,2125,2017,2017,2661,3308,3334,3138,3290,3003,2970,3049,3089,3166,2966,3399,3391,3237,3294,2956,3277,3309,3031,0.009955004,1.280018555,1.274240512,0.453785598278,4500.0,0.421937853098,-0.00231016241014,-0.0318477600813,143.314926147,0.0,6000.0,-0.0031957004685,0.0108461380005,-0.0031957004685,16.0569324493,0.349065840244,0.0240919683129,-0.00145452725701,0.309356451035,0.00498340465128,0.00498340465128,-0.00131522293668,-0.00192342873197,113.883003235,113.883003235,-0.166149154305,75.9918136597,2019,2011,2556,2026,2026,2938,3429,3431,3249,3367,3092,3049,3156,3147,3240,2861,3412,3420,3257,3373,3145,3354,3394,3195
1508404556025666062,129,1508404556025410235,plot_matl,0.25,-3000.0,0.221879348159,-0.00864867679775,-0.0281206443906,-86.5047225952,0.349065840244,0.0728719979525,-0.00323546491563,0.221877604723,-0.000996064161882,-0.000996064161882,-0.00175807380583,-0.00862594693899,-89.8452072144,-89.8452072144,-56.9106445312,95.1864395142,2007,2052,2126,2017,2017,2662,3309,3336,3139,3288,3002,2970,3049,3089,3166,2966,3399,3391,3237,3294,2956,3277,3309,3034,0.00999243,1.290010579,1.28902347,0.453785598278,4500.0,0.421937853098,-0.00142213795334,-0.0318477600813,143.314926147,0.0,6000.0,-0.0031830072403,-0.00283626955934,-0.0031830072403,19.9679431915,0.349065840244,0.0240919683129,-0.00145452725701,0.309356451035,0.00498340465128,0.00498340465128,-0.00131522293668,-0.00192342873197,113.883003235,113.883003235,-0.166149154305,75.9918136597,2025,2024,2556,2028,2028,2938,3429,3430,3250,3366,3095,3049,3156,3147,3240,2861,3412,3420,3257,3373,3145,3354,3394,3196
1508404556035617794,130,1508404556035402945,plot_matl,0.25,-3000.0,0.221900716424,-0.00917395576835,-0.0280992779881,-86.4852905273,0.349065840244,0.0728719979525,-0.00319869653322,0.221892341971,-0.00132685306016,-0.00132685306016,-0.00250136712566,-0.00900325365365,-89.9656906128,-89.9656906128,-56.9982643127,94.7290496826,2014,2057,2126,2017,2017,2662,3309,3336,3139,3288,3002,2970,3049,3088,3166,2966,3398,3392,3239,3292,2955,3277,3309,3034,0.00999135,1.300002919,1.2988755,0.453785598278,4500.0,0.421937853098,-0.00270402082242,-0.0318477600813,143.314926147,0.0,6000.0,-0.0031963523943,-0.00254879333079,-0.0031963523943,19.942987442,0.349065840244,0.0240919683129,-0.0014674247941,0.309480071068,0.00547172548249,0.00547172548249,-0.00099686824251,-0.00444222940132,113.760177612,113.760177612,-0.138833045959,77.0113983154,2023,2032,2556,2028,2028,2938,3429,3430,3250,3366,3095,3048,3156,3146,3242,2860,3411,3421,3257,3374,3146,3354,3394,3196
1508404556045753676,131,1508404556045443873,plot_matl,0.25,-3000.0,0.221897408366,-0.00906193163246,-0.0281025916338,-84.3077774048,0.349065840244,0.0728719979525,-0.00319869653322,0.221892341971,-0.00132685306016,-0.00132685306016,-0.00250136712566,-0.00900325365365,-89.9656906128,-89.9656906128,-56.9982643127,94.7290496826,2014,2057,2126,2017,2017,2662,3309,3336,3139,3288,3002,2970,3049,3088,3166,2966,3398,3392,3239,3292,2955,3277,3309,3034,0.010040394,1.310043696,1.315291614,0.453785598278,4500.0,0.421937853098,-0.00273894309066,-0.0318477600813,143.314926147,0.0,6000.0,-0.00319344224408,-0.00261671538465,-0.00319344224408,19.160654068,0.349065840244,0.0240919683129,-0.0014674247941,0.309480071068,0.00547172548249,0.00547172548249,-0.00099686824251,-0.00444222940132,113.760177612,113.760177612,-0.138833045959,77.0113983154,2023,2032,2556,2028,2028,2938,3429,3430,3250,3366,3095,3048,3156,3146,3242,2860,3411,3421,3257,3374,3146,3354,3394,3196
1508404556055600813,132,1508404556055398274,plot_matl,0.25,-3000.0,0.221897408366,-0.00906193163246,-0.0281025916338,-84.3077774048,0.349065840244,0.0728719979525,-0.00319869653322,0.221892341971,-0.00132685306016,-0.00132685306016,-0.00250136712566,-0.00900325365365,-89.9656906128,-89.9656906128,-56.9982643127,94.7290496826,2037,2077,2126,2021,2021,2662,3306,3336,3135,3308,3002,2970,3049,3088,3166,2966,3398,3392,3239,3292,2955,3280,3310,3034,0.009954316,1.319998081,1.313969712,0.453785598278,4500.0,0.421937853098,-0.00273894309066,-0.0318477600813,143.314926147,0.0,6000.0,-0.00319344224408,-0.00261671538465,-0.00319344224408,19.160654068,0.349065840244,0.0240919683129,-0.0014674247941,0.309480071068,0.00547172548249,0.00547172548249,-0.00099686824251,-0.00444222940132,113.760177612,113.760177612,-0.138833045959,77.0113983154,2043,2038,2556,2025,2025,2938,3430,3429,3249,3388,3095,3048,3156,3146,3242,2860,3411,3421,3257,3374,3146,3357,3390,3197
1508404556065685498,133,1508404556065403124,plot_matl,0.25,-3000.0,0.221889466047,-0.00866023078561,-0.0281105283648,-86.4495315552,0.349065840244,0.0728719979525,-0.00319869653322,0.221892341971,-0.00132685306016,-0.00132685306016,-0.00250136712566,-0.00900325365365,-89.9656906128,-89.9656906128,-56.9982643127,94.7290496826,2036,2072,2126,2021,2021,2662,3306,3336,3135,3308,3017,2985,3063,3099,3178,2976,3406,3400,3247,3298,2955,3280,3310,3034,0.010005211,1.330003148,1.330693063,0.453785598278,4500.0,0.421937853098,-0.0032995424699,-0.0318477600813,143.314926147,0.0,6000.0,-0.00320306327194,0.0110782524571,-0.00320306327194,15.931189537,0.349065840244,0.0240919683129,-0.0014674247941,0.309480071068,0.00547172548249,0.00547172548249,-0.00099686824251,-0.00444222940132,113.760177612,113.760177612,-0.138833045959,77.0113983154,2036,2034,2556,2025,2025,2938,3430,3429,3249,3388,3109,3064,3170,3158,3250,2869,3421,3429,3266,3380,3146,3357,3390,3197
1508404556075848252,134,1508404556075410881,plot_matl,0.25,-3000.0,0.221906557679,-0.00904858671129,-0.0280934460461,-86.6282958984,0.349065840244,0.0728719979525,-0.00321608525701,0.221889212728,-0.00133056053892,-0.00133056053892,-0.00210146442987,-0.0087045552209,-90.2273635864,-90.2273635864,-57.2688484192,94.5264282227,2012,2047,2126,2020,2020,2664,3313,3340,3135,3308,3017,2985,3063,3099,3178,2976,3406,3400,3247,3298,2964,3287,3315,3038,0.010008593,1.340011396,1.341151462,0.453785598278,4500.0,0.421937853098,-0.0032995424699,-0.0318477600813,143.314926147,0.0,6000.0,-0.00321188638918,-0.00218452094123,-0.00321188638918,19.9818725586,0.349065840244,0.0240919683129,-0.00152521359269,0.309529513121,0.0013102813391,0.0013102813391,0.000994209665805,-0.00548793422058,113.922027588,113.922027588,0.0243890844285,74.0844421387,2023,2025,2557,2025,2025,2942,3433,3434,3249,3388,3109,3064,3170,3158,3250,2869,3421,3429,3266,3380,3153,3361,3397,3201
1508404556085598896,135,1508404556085407476,plot_matl,0.25,-3000.0,0.221926540136,-0.00947052147239,-0.0280734598637,-86.531578064,0.349065840244,0.0728719979525,-0.00321608525701,0.221889212728,-0.00133056053892,-0.00133056053892,-0.00210146442987,-0.0087045552209,-90.2273635864,-90.2273635864,-57.2688484192,94.5264282227,2027,2066,2126,2020,2020,2664,3313,3340,3141,3292,3005,2974,3051,3090,3168,2968,3399,3392,3247,3298,2964,3287,3315,3038,0.009994712,1.350007392,1.34928612,0.453785598278,4500.0,0.421937853098,-0.0028142593801,-0.0318477600813,143.314926147,0.0,6000.0,-0.00321998191066,-0.00202124100178,-0.00321998191066,19.9408473969,0.349065840244,0.0240919683129,-0.00152521359269,0.309529513121,0.0013102813391,0.0013102813391,0.000994209665805,-0.00548793422058,113.922027588,113.922027588,0.0243890844285,74.0844421387,2030,2037,2557,2025,2025,2942,3433,3434,3253,3371,3097,3052,3157,3150,3241,2864,3414,3422,3266,3380,3153,3361,3397,3201
1508404556095872440,136,1508404556095419969,plot_matl,0.25,-3000.0,0.221997827291,0.0269363708794,-0.0280021745712,-78.0570526123,0.349065840244,0.0728719979525,-0.00321608525701,0.221889212728,-0.00133056053892,-0.00133056053892,-0.00210146442987,-0.0087045552209,-90.2273635864,-90.2273635864,-57.2688484192,94.5264282227,2017,2056,2125,2017,2017,2661,3313,3340,3141,3292,3005,2974,3051,3090,3168,2968,3399,3392,3239,3295,2958,3281,3310,3032,0.010013437,1.360020459,1.361827432,0.453785598278,4500.0,0.421937853098,-0.00280551658943,-0.0318477600813,143.314926147,0.0,6000.0,-0.00319991982542,-0.00239446642809,-0.00319991982542,19.898809433,0.349065840244,0.0240919683129,-0.00152521359269,0.309529513121,0.0013102813391,0.0013102813391,0.000994209665805,-0.00548793422058,113.922027588,113.922027588,0.0243890844285,74.0844421387,2020,2024,2556,2026,2026,2940,3433,3434,3253,3371,3097,3052,3157,3150,3241,2864,3414,3422,3258,3374,3148,3358,3391,3199
1508404556105748237,137,1508404556105474952,plot_matl,0.25,-3000.0,0.221997827291,0.0269363708794,-0.0280021745712,-78.0570526123,0.349065840244,0.0728719979525,-0.00321608525701,0.221889212728,-0.00133056053892,-0.00133056053892,-0.00210146442987,-0.0087045552209,-90.2273635864,-90.2273635864,-57.2688484192,94.5264282227,2013,2047,2125,2017,2017,2661,3310,3338,3137,3291,3002,2970,3051,3088,3166,2967,3399,3392,3239,3295,2958,3281,3310,3032,0.010054974,1.370076019,1.377531438,0.453785598278,4500.0,0.421937853098,-0.00230178516358,-0.0318477600813,143.314926147,0.0,6000.0,-0.00318665825762,-0.00267244479619,-0.00318665825762,19.8789844513,0.349065840244,0.0240919683129,-0.00152521359269,0.309529513121,0.0013102813391,0.0013102813391,0.000994209665805,-0.00548793422058,113.922027588,113.922027588,0.0243890844285,74.0844421387,2019,2021,2556,2026,2026,2940,3429,3430,3249,3369,3094,3049,3157,3147,3241,2862,3414,3422,3258,3374,3148,3358,3391,3199
1508404556115778566,138,1508404556115451025,plot_matl,0.25,-3000.0,0.222041457891,-0.0117991268635,-0.0279585383832,-86.4488601685,0.349065840244,0.0728719979525,-0.00319201732054,0.222013920546,-0.00110543123446,-0.00110543123446,-0.00256688054651,0.0266136098653,-90.2685928345,-90.2685928345,-57.3754730225,94.6265258789,2033,2066,2126,2017,2017,2661,3310,3338,3137,3291,3002,2970,3051,3088,3166,2967,3398,3393,3238,3291,2956,3279,3310,3033,0.009974413,1.380051093,1.376468994,0.453785598278,4500.0,0.421937853098,-0.00288955122232,-0.0318477600813,143.314926147,0.0,6000.0,-0.00320719508454,0.0111293876544,-0.00320719508454,16.2033996582,0.349065840244,0.0240919683129,-0.00145885732491,0.309592813253,0.00531261973083,0.00531261973083,-0.000739774666727,-0.00668377429247,113.917755127,113.917755127,0.10012396425,73.2684783936,2037,2031,2556,2022,2022,2940,3429,3430,3249,3369,3094,3049,3157,3147,3241,2862,3413,3422,3257,3372,3145,3355,3392,3196
1508404556125757723,139,1508404556125437946,plot_matl,0.25,-3000.0,0.222069635987,0.0255198609084,-0.0279303640127,-77.4233474731,0.349065840244,0.0728719979525,-0.00319201732054,0.222013920546,-0.00110543123446,-0.00110543123446,-0.00256688054651,0.0266136098653,-90.2685928345,-90.2685928345,-57.3754730225,94.6265258789,2017,2046,2126,2017,2017,2661,3309,3336,3137,3288,3002,2971,3049,3088,3166,2967,3398,3393,3238,3291,2956,3279,3310,3033,0.009986782,1.390038186,1.388162698,0.453785598278,4500.0,0.423287332058,0.0240378119051,-0.0304982792586,137.242263794,0.0,6000.0,-0.00320343580097,-0.00237770145759,-0.00320343580097,19.9732055664,0.349065840244,0.0240919683129,-0.00145885732491,0.309592813253,0.00531261973083,0.00531261973083,-0.000739774666727,-0.00668377429247,113.917755127,113.917755127,0.10012396425,73.2684783936,2028,2019,2556,2022,2022,2938,3429,3428,3249,3368,3096,3049,3157,3148,3241,2862,3413,3422,3257,3372,3145,3355,3392,3196
1508404556135766270,140,1508404556135424502,plot_matl,0.25,-3000.0,0.222069635987,0.0255198609084,-0.0279303640127,-77.4233474731,0.349065840244,0.0728719979525,-0.00319201732054,0.222013920546,-0.00110543123446,-0.00110543123446,-0.00256688054651,0.0266136098653,-90.2685928345,-90.2685928345,-57.3754730225,94.6265258789,2008,2039,2126,2017,2017,2661,3309,3336,3137,3288,3002,2971,3049,3088,3166,2965,3397,3392,3237,3293,2957,3278,3309,3032,0.009986508,1.400024759,1.39811112,0.453785598278,4500.0,0.423287332058,0.0240378119051,-0.0304982792586,137.242263794,0.0,6000.0,-0.00320343580097,-0.00237770145759,-0.00320343580097,19.9732055664,0.349065840244,0.0240919683129,-0.00145885732491,0.309592813253,0.00531261973083,0.00531261973083,-0.000739774666727,-0.00668377429247,113.917755127,113.917755127,0.10012396425,73.2684783936,2022,2018,2556,2022,2022,2938,3429,3428,3249,3368,3096,3049,3157,3148,3240,2860,3413,3419,3259,3373,3146,3357,3390,3196
1508404556145819464,141,1508404556145459393,plot_matl,0.25,-3000.0,0.222102671862,0.0248802378774,-0.027897330001,-77.0763092041,0.349065840244,0.0728719979525,-0.00319201732054,0.222013920546,-0.00110543123446,-0.00110543123446,-0.00256688054651,0.0266136098653,-90.2685928345,-90.2685928345,-57.3754730225,94.6265258789,2008,2039,2126,2017,2017,2661,3309,3336,3137,3288,3002,2971,3049,3088,3166,2965,3397,3392,3237,3293,2957,3278,3309,3032,0.010035078,1.410059908,1.414945998,0.453785598278,4500.0,0.421937853098,-0.00261899875477,-0.0318477600813,143.314926147,0.0,6000.0,-0.00319195119664,-0.00263908412308,-0.00319195119664,20.0322628021,0.349065840244,0.0240919683129,-0.00145885732491,0.309592813253,0.00531261973083,0.00531261973083,-0.000739774666727,-0.00668377429247,113.917755127,113.917755127,0.10012396425,73.2684783936,2022,2018,2556,2022,2022,2938,3429,3428,3249,3368,3096,3049,3157,3148,3240,2860,3413,3419,3259,3373,3146,3357,3390,3196
1508404556155885417,142,1508404556155447565,plot_matl,0.25,-3000.0,0.222054854035,-0.0120619786903,-0.0279451422393,-86.6890182495,0.349065840244,0.0728719979525,-0.00321569596417,0.222017750144,-0.00138681917451,-0.00138681917451,-0.00210045254789,-0.0113258110359,-90.4014968872,-90.4014968872,-57.2930374146,94.5851516724,2011,2052,2126,2017,2017,2660,3308,3335,3138,3287,3002,2970,3050,3086,3166,2966,3398,3390,3239,3294,2954,3280,3309,3032,0.009986904,1.420047825,1.418140368,0.453785598278,4500.0,0.421937853098,-0.00214597373269,-0.0318477600813,143.314926147,0.0,6000.0,-0.0031790996436,-0.00289717479609,-0.0031790996436,19.9197731018,0.349065840244,0.0240919683129,-0.00144281971734,0.309650152922,0.00522701814771,0.00522701814771,-0.0011158962734,-0.00779983354732,114.115814209,114.115814209,0.0650872066617,74.6733703613,2025,2027,2556,2023,2023,2939,3429,3430,3249,3369,3094,3049,3156,3147,3241,2860,3412,3420,3257,3374,3145,3357,3390,3196
1508404556165911872,143,1508404556165440673,plot_matl,0.25,-3000.0,0.222118154168,0.0245513431728,-0.0278818421066,-77.7903747559,0.349065840244,0.0728719979525,-0.00321569596417,0.222017750144,-0.00138681917451,-0.00138681917451,-0.00210045254789,-0.0113258110359,-90.4014968872,-90.4014968872,-57.2930374146,94.5851516724,2011,2052,2126,2017,2017,2660,3308,3335,3138,3287,3002,2970,3050,3086,3166,2966,3398,3390,3239,3294,2954,3280,3309,3032,0.009993935,1.430041599,1.429132705,0.453785598278,4500.0,0.420588374138,-0.0280451308936,-0.0331972427666,149.387588501,0.0,6000.0,-0.0031694129575,-0.00309445802122,-0.0031694129575,19.9422397614,0.349065840244,0.0240919683129,-0.00144281971734,0.309650152922,0.00522701814771,0.00522701814771,-0.0011158962734,-0.00779983354732,114.115814209,114.115814209,0.0650872066617,74.6733703613,2025,2027,2556,2023,2023,2939,3429,3430,3249,3369,3094,3049,3156,3147,3241,2860,3412,3420,3257,3374,3145,3357,3390,3196
1508404556175799761,144,1508404556175424811,plot_matl,0.25,-3000.0,0.222129493952,0.0242996383458,-0.0278705041856,-77.7819137573,0.349065840244,0.0728719979525,-0.00321569596417,0.222017750144,-0.00138681917451,-0.00138681917451,-0.00210045254789,-0.0113258110359,-90.4014968872,-90.4014968872,-57.2930374146,94.5851516724,2025,2067,2126,2021,2021,2661,3309,3334,3138,3289,3002,2971,3049,3087,3165,2968,3395,3391,3238,3292,2954,3280,3309,3033,0.009982544,1.440025061,1.437486336,0.453785598278,4500.0,0.421937853098,-0.000125308681163,-0.0318477600813,143.314926147,0.0,6000.0,-0.00319711910561,-0.0025337820407,-0.00319711910561,19.9445781708,0.349065840244,0.0240919683129,-0.00144281971734,0.309650152922,0.00522701814771,0.00522701814771,-0.0011158962734,-0.00779983354732,114.115814209,114.115814209,0.0650872066617,74.6733703613,2037,2032,2556,2024,2024,2939,3431,3430,3248,3368,3094,3050,3154,3147,3243,2860,3413,3421,3257,3372,3145,3357,3392,3197
1508404556185774292,145,1508404556185419545,plot_matl,0.25,-3000.0,0.222040116787,-0.0118181696162,-0.0279598813504,-86.9095458984,0.349065840244,0.0728719979525,-0.00321569596417,0.222017750144,-0.00138681917451,-0.00138681917451,-0.00210045254789,-0.0113258110359,-90.4014968872,-90.4014968872,-57.2930374146,94.5851516724,2016,2057,2125,2019,2019,2660,3308,3335,3138,3289,3002,2971,3049,3087,3165,2968,3395,3391,3238,3292,2955,3279,3309,3031,0.009994729,1.450020083,1.449235705,0.453785598278,4500.0,0.421937853098,-0.000560714805033,-0.0318477600813,143.314926147,0.0,6000.0,-0.00321994046681,-0.00207195500843,-0.00321994046681,19.9771823883,0.349065840244,0.0240919683129,-0.00144281971734,0.309650152922,0.00522701814771,0.00522701814771,-0.0011158962734,-0.00779983354732,114.115814209,114.115814209,0.0650872066617,74.6733703613,2024,2026,2556,2022,2022,2939,3428,3429,3248,3368,3094,3050,3154,3147,3243,2860,3413,3421,3257,3372,3145,3357,3391,3197
1508404556195813320,146,1508404556195424373,plot_matl,0.25,-3000.0,0.221968904138,-0.0103949112818,-0.028031097725,-86.6173706055,0.349065840244,0.0728719979525,-0.00317219947465,0.222031965852,-0.000776754168328,-0.000776754168328,-0.00303911417723,-0.0116050373763,-90.4588317871,-90.4588317871,-56.9160461426,94.7567977905,2007,2043,2125,2019,2019,2660,3308,3335,3137,3291,3003,2971,3049,3086,3167,2965,3396,3392,3238,3292,2955,3279,3309,3031,0.010004381,1.460024452,1.460639626,0.453785598278,4500.0,0.421937853098,6.91942259436e-05,-0.0318477600813,143.314926147,0.0,6000.0,-0.00320660346188,0.0111148450524,-0.00320660346188,15.8029155731,0.349065840244,0.0240919683129,-0.00144463463221,0.309556305408,0.00539454584941,0.00539454584941,-0.00132522266358,-0.00596439372748,114.099769592,114.099769592,-0.167178571224,74.7897186279,2009,2010,2556,2022,2022,2939,3428,3429,3249,3365,3094,3048,3156,3145,3240,2861,3411,3421,3257,3372,3145,3357,3391,3197
1508404556205761421,147,1508404556205422820,plot_matl,0.25,-3000.0,0.221835240722,0.0302408151329,-0.0281647611409,-77.2897720337,0.349065840244,0.0728719979525,-0.00317219947465,0.222031965852,-0.000776754168328,-0.000776754168328,-0.00303911417723,-0.0116050373763,-90.4588317871,-90.4588317871,-56.9160461426,94.7567977905,2022,2069,2126,2022,2022,2662,3308,3335,3137,3291,3003,2971,3049,3086,3167,2965,3396,3392,3240,3292,2955,3280,3310,3033,0.009998413,1.470023342,1.469766711,0.453785598278,4500.0,0.421937853098,-0.00199873512611,-0.0318477600813,143.314926147,0.0,6000.0,-0.0032014194876,-0.00240750191733,-0.0032014194876,19.9383907318,0.349065840244,0.0240919683129,-0.00144463463221,0.309556305408,0.00539454584941,0.00539454584941,-0.00132522266358,-0.00596439372748,114.099769592,114.099769592,-0.167178571224,74.7897186279,2026,2026,2556,2022,2022,2940,3428,3429,3249,3365,3094,3048,3156,3145,3240,2861,3411,3421,3257,3371,3144,3355,3392,3196
1508404556215880710,148,1508404556215422842,plot_matl,0.25,-3000.0,0.221835240722,0.0302408151329,-0.0281647611409,-77.2897720337,0.349065840244,0.0728719979525,-0.00317219947465,0.222031965852,-0.000776754168328,-0.000776754168328,-0.00303911417723,-0.0116050373763,-90.4588317871,-90.4588317871,-56.9160461426,94.7567977905,2011,2048,2126,2022,2022,2662,3307,3336,3138,3289,3002,2970,3049,3087,3167,2965,3396,3392,3240,3292,2955,3280,3310,3033,0.010000221,1.480023332,1.480032708,0.453785598278,4500.0,0.421937853098,-0.00259933387861,-0.0318477600813,143.314926147,0.0,6000.0,-0.00317637366243,-0.00294117233716,-0.00317637366243,19.9480400085,0.349065840244,0.0240919683129,-0.00144463463221,0.309556305408,0.00539454584941,0.00539454584941,-0.00132522266358,-0.00596439372748,114.099769592,114.099769592,-0.167178571224,74.7897186279,2018,2021,2556,2022,2022,2940,3430,3430,3250,3368,3095,3049,3157,3147,3239,2861,3411,3421,3257,3371,3144,3355,3392,3196
1508404556225752228,149,1508404556225416056,plot_matl,0.25,-3000.0,0.221697986126,-0.00491646118462,-0.0283020157367,-86.1136627197,0.349065840244,0.0728719979525,-0.00317219947465,0.222031965852,-0.000776754168328,-0.000776754168328,-0.00303911417723,-0.0116050373763,-90.4588317871,-90.4588317871,-56.9160461426,94.7567977905,2016,2046,2125,2020,2020,2662,3307,3336,3138,3289,3002,2970,3049,3087,3167,2965,3396,3391,3242,3291,2956,3280,3309,3033,0.009992181,1.49001632,1.488834969,0.453785598278,4500.0,0.421937853098,-0.00252304063179,-0.0318477600813,143.314926147,0.0,6000.0,-0.00317637366243,-0.00294117233716,-0.00317637366243,19.9480400085,0.349065840244,0.0240919683129,-0.00144463463221,0.309556305408,0.00539454584941,0.00539454584941,-0.00132522266358,-0.00596439372748,114.099769592,114.099769592,-0.167178571224,74.7897186279,2018,2020,2557,2024,2024,2940,3430,3430,3250,3368,3095,3049,3157,3147,3239,2861,3413,3420,3256,3374,3144,3356,3390,3197
1508404556235825653,150,1508404556235431089,plot_matl,0.25,-3000.0,0.221680939198,-0.00458589801565,-0.0283190570772,-86.0773620605,0.349065840244,0.0728719979525,-0.00321911228821,0.221948564053,3.32404779328e-05,3.32404779328e-05,-0.00209226738662,-0.0099873021245,-90.4067077637,-90.4067077637,-57.2338790894,94.9370880127,2019,2046,2125,2020,2020,2661,3307,3336,3136,3291,3003,2971,3050,3088,3167,2965,3396,3391,3242,3291,2956,3280,3309,3033,0.010013544,1.50003106,1.5020316,0.453785598278,4500.0,0.421937853098,-0.00352511345409,-0.0318477600813,143.314926147,0.0,6000.0,-0.00318084796891,-0.00288086640649,-0.00318084796891,19.9088039398,0.349065840244,0.0240919683129,-0.00140057050157,0.309082299471,0.00614252872765,0.00614252872765,0.0130501287058,-0.0582210533321,114.142730713,114.142730713,-0.233066499233,77.3589630127,2029,2026,2557,2024,2024,2940,3430,3429,3248,3369,3094,3048,3157,3146,3239,2861,3413,3420,3256,3374,3144,3356,3390,3197
1508404556245813929,151,1508404556245425240,plot_matl,0.25,-3000.0,0.221680939198,-0.00458589801565,-0.0283190570772,-86.0773620605,0.349065840244,0.0728719979525,-0.00321911228821,0.221948564053,3.32404779328e-05,3.32404779328e-05,-0.00209226738662,-0.0099873021245,-90.4067077637,-90.4067077637,-57.2338790894,94.9370880127,2014,2042,2125,2020,2020,2661,3307,3336,3136,3291,3003,2971,3050,3088,3167,2967,3395,3389,3237,3291,2956,3280,3310,3032,0.009995394,1.51002611,1.509304494,0.453785598278,4500.0,0.421937853098,-0.00352511345409,-0.0318477600813,143.314926147,0.0,6000.0,-0.00320640811697,-0.00236039841548,-0.00320640811697,19.9424362183,0.349065840244,0.0240919683129,-0.00140057050157,0.309082299471,0.00614252872765,0.00614252872765,0.0130501287058,-0.0582210533321,114.142730713,114.142730713,-0.233066499233,77.3589630127,2021,2021,2557,2024,2024,2940,3430,3429,3248,3369,3094,3048,3157,3146,3240,2860,3413,3421,3255,3374,3145,3356,3389,3197
1508404556255670830,152,1508404556255412504,plot_matl,0.25,-3000.0,0.221673712134,-0.00443393411115,-0.0283262934536,-86.0660018921,0.349065840244,0.0728719979525,-0.00321911228821,0.221948564053,3.32404779328e-05,3.32404779328e-05,-0.00209226738662,-0.0099873021245,-90.4067077637,-90.4067077637,-57.2338790894,94.9370880127,2014,2053,2125,2021,2021,2661,3307,3334,3138,3288,3002,2970,3050,3088,3167,2967,3395,3389,3237,3291,2956,3280,3310,3032,0.00998617,1.520012809,1.51789784,0.453785598278,4500.0,0.421937853098,-0.00340205174871,-0.0318477600813,143.314926147,0.0,6000.0,-0.00321620074101,-0.00215486413799,-0.00321620074101,19.9429607391,0.349065840244,0.0240919683129,-0.00140057050157,0.309082299471,0.00614252872765,0.00614252872765,0.0130501287058,-0.0582210533321,114.142730713,114.142730713,-0.233066499233,77.3589630127,2030,2028,2557,2026,2026,2939,3428,3430,3249,3366,3094,3048,3157,3146,3240,2860,3413,3421,3255,3374,3145,3356,3389,3197
1508404556265787155,153,1508404556265410844,plot_matl,0.25,-3000.0,0.221666157246,-0.00430245324969,-0.0283338353038,-86.0529251099,0.349065840244,0.0728719979525,-0.00321911228821,0.221948564053,3.32404779328e-05,3.32404779328e-05,-0.00209226738662,-0.0099873021245,-90.4067077637,-90.4067077637,-57.2338790894,94.9370880127,2021,2056,2125,2021,2021,2661,3307,3334,3138,3288,3002,2970,3048,3088,3165,2967,3397,3394,3239,3292,2955,3279,3310,3032,0.009998279,1.530011136,1.529736687,0.453785598278,4500.0,0.421937853098,-0.00332046928816,-0.0318477600813,143.314926147,0.0,6000.0,-0.00318699516356,-0.00275200721808,-0.00318699516356,19.94622612,0.349065840244,0.0240919683129,-0.00140057050157,0.309082299471,0.00614252872765,0.00614252872765,0.0130501287058,-0.0582210533321,114.142730713,114.142730713,-0.233066499233,77.3589630127,2030,2027,2557,2026,2026,2939,3428,3430,3249,3366,3094,3048,3158,3146,3239,2861,3411,3419,3257,3372,3144,3354,3389,3197
1508404556275918855,154,1508404556275485608,plot_matl,0.25,-3000.0,0.221684381366,-0.00469847489148,-0.0283156149089,-86.0698242188,0.349065840244,0.0742214769125,-0.00318630039692,0.221683055162,0.0121475821361,0.0121475821361,-0.00276984181255,-0.00459262821823,-90.2913665771,-90.2913665771,-56.7482223511,94.5891799927,2012,2051,2125,2020,2020,2661,3307,3334,3136,3290,3002,2970,3048,3088,3165,2967,3397,3394,3239,3292,2955,3279,3311,3033,0.010074924,1.540086378,1.551538296,0.453785598278,4500.0,0.423287332058,0.0209948588163,-0.0304982792586,137.242263794,0.0,6000.0,-0.00317571405321,-0.00298318173736,-0.00317571405321,19.9337692261,0.349065840244,0.0216827709228,-0.00140634586569,0.30885758996,-0.0195744261146,-0.0195744261146,0.0131020434201,0.00809915363789,114.173179626,114.173179626,-0.285865724087,75.1569595337,2024,2021,2556,2028,2028,2939,3429,3431,3249,3367,3094,3048,3158,3146,3239,2861,3411,3419,3257,3372,3144,3354,3393,3197
1508404556285850488,155,1508404556285424971,plot_matl,0.25,-3000.0,0.221684381366,-0.00469847489148,-0.0283156149089,-86.0698242188,0.349065840244,0.0742214769125,-0.00318630039692,0.221683055162,0.0121475821361,0.0121475821361,-0.00276984181255,-0.00459262821823,-90.2913665771,-90.2913665771,-56.7482223511,94.5891799927,2019,2064,2125,2020,2020,2661,3307,3334,3136,3290,3002,2971,3049,3088,3165,2966,3397,3390,3237,3294,2955,3279,3311,3033,0.009939159,1.550025945,1.540569645,0.453785598278,4500.0,0.423287332058,0.021117946133,-0.0304982792586,137.242263794,0.0,6000.0,-0.00317571405321,-0.00298318173736,-0.00317571405321,19.9337692261,0.349065840244,0.0216827709228,-0.00140634586569,0.30885758996,-0.0195744261146,-0.0195744261146,0.0131020434201,0.00809915363789,114.173179626,114.173179626,-0.285865724087,75.1569595337,2028,2028,2556,2028,2028,2939,3429,3431,3249,3367,3094,3049,3155,3147,3238,2860,3411,3422,3257,3372,3144,3354,3393,3197
1508404556295836954,156,1508404556295409263,plot_matl,0.25,-3000.0,0.221705585718,-0.00512719666585,-0.0282944217324,-86.1428146362,0.349065840244,0.0742214769125,-0.00318630039692,0.221683055162,0.0121475821361,0.0121475821361,-0.00276984181255,-0.00459262821823,-90.2913665771,-90.2913665771,-56.7482223511,94.5891799927,2028,2053,2126,2019,2019,2660,3307,3336,3136,3290,3002,2971,3049,3088,3165,2966,3397,3390,3237,3294,2955,3276,3313,3032,0.009984027,1.560009953,1.557508212,0.453785598278,4500.0,0.423287332058,0.0197791680694,-0.0304982792586,137.242263794,0.0,6000.0,-0.00316648394801,0.0102522335947,-0.00316648394801,15.8609933853,0.349065840244,0.0216827709228,-0.00140634586569,0.30885758996,-0.0195744261146,-0.0195744261146,0.0131020434201,0.00809915363789,114.173179626,114.173179626,-0.285865724087,75.1569595337,2031,2026,2556,2028,2028,2939,3430,3428,3249,3367,3094,3049,3155,3147,3238,2860,3411,3422,3257,3372,3146,3354,3392,3197
1508404556305590959,157,1508404556305414318,plot_matl,0.25,-3000.0,0.221690103412,0.0329755917192,-0.028309898451,-77.9462585449,0.349065840244,0.0742214769125,-0.00318630039692,0.221683055162,0.0121475821361,0.0121475821361,-0.00276984181255,-0.00459262821823,-90.2913665771,-90.2913665771,-56.7482223511,94.5891799927,2010,2044,2126,2019,2019,2660,3307,3336,3137,3288,3002,2969,3048,3088,3166,2967,3397,3392,3237,3294,2955,3276,3313,3032,0.010004309,1.570014753,1.570676513,0.453785598278,4500.0,0.420588374138,-0.032698392868,-0.0331972427666,149.387588501,0.0,6000.0,-0.00317122903652,-0.00307300616987,-0.00317122903652,19.8331184387,0.349065840244,0.0216827709228,-0.00140634586569,0.30885758996,-0.0195744261146,-0.0195744261146,0.0131020434201,0.00809915363789,114.173179626,114.173179626,-0.285865724087,75.1569595337,2022,2017,2556,2028,2028,2939,3430,3428,3249,3367,3095,3048,3156,3147,3241,2860,3411,3420,3257,3372,3146,3354,3392,3197
1508404556315808195,158,1508404556315462937,plot_matl,0.25,-3000.0,0.2217092067,-0.00531549705192,-0.0282907895744,-86.0700912476,0.349065840244,0.0728719979525,-0.00319136702456,0.221687972546,-0.00300856516697,-0.00300856516697,0.0107696522027,-0.00475665973499,-90.2031402588,-90.2031402588,-56.3322067261,94.7199859619,2008,2050,2125,2018,2018,2660,3307,3336,3137,3288,3002,2969,3048,3088,3166,2967,3397,3392,3239,3292,2955,3277,3310,3033,0.010048595,1.580063667,1.58767801,0.453785598278,4500.0,0.420588374138,-0.0297217816114,-0.0331972427666,149.387588501,0.0,6000.0,-0.00316580128856,0.0102411098778,-0.00316580128856,15.9256105423,0.349065840244,0.0240919683129,-0.00141943548806,0.308938771486,0.00323743885383,0.00323743885383,-0.00202188757248,0.0065049584955,114.187652588,114.187652588,-0.100356332958,75.6037139893,2020,2018,2556,2025,2025,2939,3430,3428,3249,3367,3095,3048,3156,3147,3241,2860,3411,3420,3257,3372,3144,3355,3392,3195
1508404556325715113,159,1508404556325424654,plot_matl,0.25,-3000.0,0.221728697419,-0.00567223038524,-0.0282713025808,-86.159286499,0.349065840244,0.0728719979525,-0.00319136702456,0.221687972546,-0.00300856516697,-0.00300856516697,0.0107696522027,-0.00475665973499,-90.2031402588,-90.2031402588,-56.3322067261,94.7199859619,2016,2053,2125,2018,2018,2660,3307,3335,3136,3289,3003,2971,3048,3088,3166,2965,3397,3392,3239,3292,2955,3277,3310,3033,0.009961858,1.590025716,1.583935422,0.453785598278,4500.0,0.420588374138,-0.0297217816114,-0.0331972427666,149.387588501,0.0,6000.0,-0.00316580128856,0.0102411098778,-0.00316580128856,15.9256105423,0.349065840244,0.0240919683129,-0.00141943548806,0.308938771486,0.00323743885383,0.00323743885383,-0.00202188757248,0.0065049584955,114.187652588,114.187652588,-0.100356332958,75.6037139893,2025,2026,2556,2025,2025,2939,3430,3427,3250,3367,3093,3049,3157,3147,3238,2861,3411,3420,3257,3372,3144,3355,3392,3195
1508404556335864059,160,1508404556335422789,plot_matl,0.25,-3000.0,0.221712678671,-0.00529300328344,-0.0282873250544,-86.2325668335,0.349065840244,0.0728719979525,-0.00319136702456,0.221687972546,-0.00300856516697,-0.00300856516697,0.0107696522027,-0.00475665973499,-90.2031402588,-90.2031402588,-56.3322067261,94.7199859619,2023,2051,2125,2016,2016,2660,3307,3335,3136,3289,3003,2971,3048,3088,3166,2965,3398,3392,3238,3293,2956,3281,3312,3031,0.009996847,1.600023048,1.59949552,0.453785598278,4500.0,0.421937853098,-0.00147466838825,-0.0318477600813,143.314926147,0.0,6000.0,-0.00316944508813,-0.0030784313567,-0.00316944508813,20.015253067,0.349065840244,0.0240919683129,-0.00141943548806,0.308938771486,0.00323743885383,0.00323743885383,-0.00202188757248,0.0065049584955,114.187652588,114.187652588,-0.100356332958,75.6037139893,2018,2024,2556,2022,2022,2939,3430,3427,3250,3367,3093,3049,3157,3147,3238,2861,3411,3421,3256,3372,3147,3354,3391,3196
1508404556345779125,161,1508404556345413827,plot_matl,0.25,-3000.0,0.221665307879,-0.00433726655319,-0.0283346883953,-86.0839614868,0.349065840244,0.0728719979525,-0.00319136702456,0.221687972546,-0.00300856516697,-0.00300856516697,0.0107696522027,-0.00475665973499,-90.2031402588,-90.2031402588,-56.3322067261,94.7199859619,2023,2051,2125,2016,2016,2660,3307,3335,3136,3289,3003,2971,3048,3088,3166,2965,3398,3392,3238,3293,2956,3281,3312,3031,0.009990207,1.610013921,1.608423327,0.453785598278,4500.0,0.421937853098,-0.000687239167746,-0.0318477600813,143.314926147,0.0,6000.0,-0.00319705042057,-0.00252257124521,-0.00319705042057,19.9690914154,0.349065840244,0.0240919683129,-0.00141943548806,0.308938771486,0.00323743885383,0.00323743885383,-0.00202188757248,0.0065049584955,114.187652588,114.187652588,-0.100356332958,75.6037139893,2018,2024,2556,2022,2022,2939,3430,3427,3250,3367,3093,3049,3157,3147,3238,2861,3411,3421,3256,3372,3147,3354,3391,3196
1508404556355729472,162,1508404556355414764,plot_matl,0.25,-3000.0,0.221663668752,0.0336071737111,-0.028336327523,-76.9370880127,0.349065840244,0.0728719979525,-0.00318231224082,0.221737965941,-0.00235187495127,-0.00235187495127,-0.00285700382665,0.0320368520916,-89.9904022217,-89.9904022217,-56.9549407959,94.8957519531,2026,2044,2125,2016,2016,2659,3307,3335,3136,3291,3003,2968,3050,3088,3164,2967,3396,3389,3240,3293,2956,3281,3309,3033,0.010000129,1.620014818,1.620020898,0.453785598278,4500.0,0.421937853098,0.000506514101289,-0.0318477600813,143.314926147,0.0,6000.0,-0.00320663978346,-0.00232308078557,-0.00320663978346,19.941576004,0.349065840244,0.0240919683129,-0.00146473501809,0.308987617493,0.00656934641302,0.00656934641302,-0.00110239582136,0.00527474097908,113.964309692,113.964309692,0.310530364513,75.0585632324,2026,2021,2556,2022,2022,2939,3430,3429,3249,3368,3094,3050,3155,3146,3240,2859,3413,3422,3257,3375,3144,3356,3390,3197
1508404556365802897,163,1508404556365438658,plot_matl,0.25,-3000.0,0.221662148833,0.0336140729487,-0.0283378493041,-76.9478759766,0.349065840244,0.0728719979525,-0.00318231224082,0.221737965941,-0.00235187495127,-0.00235187495127,-0.00285700382665,0.0320368520916,-89.9904022217,-89.9904022217,-56.9549407959,94.8957519531,2024,2048,2127,2016,2016,2661,3309,3335,3138,3287,3004,2971,3050,3088,3164,2967,3396,3389,3240,3293,2956,3281,3309,3033,0.010022283,1.630038083,1.633632129,0.453785598278,4500.0,0.423287332058,0.0271364543587,-0.0304982792586,137.242263794,0.0,6000.0,-0.00319089484401,0.0107757933438,-0.00319089484401,15.9175443649,0.349065840244,0.0240919683129,-0.00146473501809,0.308987617493,0.00656934641302,0.00656934641302,-0.00110239582136,0.00527474097908,113.964309692,113.964309692,0.310530364513,75.0585632324,2022,2021,2556,2028,2028,2938,3428,3430,3249,3366,3093,3050,3155,3146,3240,2859,3413,3422,3257,3375,3144,3356,3390,3197
1508404556375643605,164,1508404556375416560,plot_matl,0.25,-3000.0,0.221628963947,-0.00364220701158,-0.0283710379153,-85.980758667,0.349065840244,0.0728719979525,-0.00318231224082,0.221737965941,-0.00235187495127,-0.00235187495127,-0.00285700382665,0.0320368520916,-89.9904022217,-89.9904022217,-56.9549407959,94.8957519531,2013,2048,2127,2016,2016,2661,3309,3335,3138,3287,3004,2971,3049,3085,3165,2967,3397,3392,3237,3293,2954,3279,3309,3033,0.009979755,1.64001705,1.63667982,0.453785598278,4500.0,0.421937853098,-0.000108212319901,-0.0318477600813,143.314926147,0.0,6000.0,-0.0031764570158,0.0104835666716,-0.0031764570158,15.9092645645,0.349065840244,0.0240919683129,-0.00146473501809,0.308987617493,0.00656934641302,0.00656934641302,-0.00110239582136,0.00527474097908,113.964309692,113.964309692,0.310530364513,75.0585632324,2022,2025,2556,2028,2028,2938,3428,3430,3249,3366,3093,3050,3155,3145,3239,2861,3413,3421,3257,3373,3145,3357,3390,3197
1508404556385626808,165,1508404556385407358,plot_matl,0.25,-3000.0,0.221669599414,-0.00449404027313,-0.0283304080367,-86.0754699707,0.349065840244,0.0728719979525,-0.00318231224082,0.221737965941,-0.00235187495127,-0.00235187495127,-0.00285700382665,0.0320368520916,-89.9904022217,-89.9904022217,-56.9549407959,94.8957519531,2012,2056,2125,2019,2019,2660,3309,3335,3138,3289,3004,2971,3049,3085,3165,2967,3397,3392,3237,3293,2954,3279,3312,3032,0.009989766,1.650007683,1.64831139,0.453785598278,4500.0,0.421937853098,-0.00055988272652,-0.0318477600813,143.314926147,0.0,6000.0,-0.00317852967419,-0.0028962653596,-0.00317852967419,19.9442634583,0.349065840244,0.0240919683129,-0.00146473501809,0.308987617493,0.00656934641302,0.00656934641302,-0.00110239582136,0.00527474097908,113.964309692,113.964309692,0.310530364513,75.0585632324,2024,2032,2556,2028,2028,2938,3430,3430,3248,3367,3093,3050,3155,3145,3239,2861,3413,3421,3257,3373,3145,3357,3392,3197
1508404556395746591,166,1508404556395458919,plot_matl,0.25,-3000.0,0.221696704626,-0.00495506543666,-0.0283032972366,-86.0606536865,0.349065840244,0.0728719979525,-0.0031984730158,0.221655115485,0.000243102418608,0.000243102418608,0.0109309060499,-0.00415875483304,-90.035987854,-90.035987854,-57.4008369446,94.9690475464,2017,2060,2125,2019,2019,2660,3309,3335,3138,3289,3003,2968,3048,3086,3167,2966,3399,3391,3239,3292,2954,3279,3312,3032,0.010052824,1.66005998,1.668768784,0.453785598278,4500.0,0.421937853098,-0.0014874774497,-0.0318477600813,143.314926147,0.0,6000.0,-0.00314296013676,0.00981408823282,-0.00314296013676,15.8586044312,0.349065840244,0.0240919683129,-0.00147740240209,0.308878660202,0.00717995222658,0.00717995222658,-0.000845014757942,0.00743437185884,113.868888855,113.868888855,0.133360669017,73.959526062,2025,2025,2556,2028,2028,2938,3430,3430,3248,3367,3094,3048,3156,3145,3240,2861,3414,3422,3258,3373,3145,3357,3392,3197
1508404556405777285,167,1508404556405419584,plot_matl,0.25,-3000.0,0.221696704626,-0.00495506543666,-0.0283032972366,-86.0606536865,0.349065840244,0.0728719979525,-0.0031984730158,0.221655115485,0.000243102418608,0.000243102418608,0.0109309060499,-0.00415875483304,-90.035987854,-90.035987854,-57.4008369446,94.9690475464,2022,2050,2125,2019,2019,2660,3306,3336,3138,3289,3003,2968,3048,3086,3167,2966,3399,3391,3239,3292,2958,3280,3310,3031,0.009960168,1.670020395,1.663348056,0.453785598278,4500.0,0.421937853098,-0.00222842837684,-0.0318477600813,143.314926147,0.0,6000.0,-0.00315112667158,0.00996421370655,-0.00315112667158,16.0262565613,0.349065840244,0.0240919683129,-0.00147740240209,0.308878660202,0.00717995222658,0.00717995222658,-0.000845014757942,0.00743437185884,113.868888855,113.868888855,0.133360669017,73.959526062,2030,2028,2556,2025,2025,2939,3428,3428,3248,3367,3094,3048,3156,3145,3240,2861,3414,3422,3258,3373,3146,3356,3394,3197
1508404556415768235,168,1508404556415417260,plot_matl,0.25,-3000.0,0.221652165055,-0.00412040948868,-0.02834783867,-86.0948410034,0.349065840244,0.0728719979525,-0.0031984730158,0.221655115485,0.000243102418608,0.000243102418608,0.0109309060499,-0.00415875483304,-90.035987854,-90.035987854,-57.4008369446,94.9690475464,2022,2051,2125,2019,2019,2660,3306,3336,3136,3289,3003,2968,3049,3087,3166,2967,3399,3391,3239,3292,2958,3280,3310,3031,0.00999642,1.680018061,1.67939856,0.453785598278,4500.0,0.421937853098,-0.00325894635171,-0.0318477600813,143.314926147,0.0,6000.0,-0.00315541704185,0.0100778099149,-0.00315541704185,15.6920700073,0.349065840244,0.0240919683129,-0.00147740240209,0.308878660202,0.00717995222658,0.00717995222658,-0.000845014757942,0.00743437185884,113.868888855,113.868888855,0.133360669017,73.959526062,2027,2020,2556,2025,2025,2939,3428,3428,3249,3366,3094,3051,3157,3147,3240,2861,3412,3419,3258,3373,3146,3356,3394,3197
1508404556425698118,169,1508404556425412205,plot_matl,0.25,-3000.0,0.2217438519,-0.0059783863835,-0.0282561462373,-86.2474136353,0.349065840244,0.0728719979525,-0.0031984730158,0.221655115485,0.000243102418608,0.000243102418608,0.0109309060499,-0.00415875483304,-90.035987854,-90.035987854,-57.4008369446,94.9690475464,2026,2048,2125,2020,2020,2661,3306,3336,3136,3289,3003,2968,3049,3087,3166,2967,3399,3391,3238,3294,2955,3279,3310,3033,0.009994279,1.690012374,1.689033151,0.453785598278,4500.0,0.421937853098,-0.00363448774442,-0.0318477600813,143.314926147,0.0,6000.0,-0.0031462663319,-0.00354866636917,-0.0031462663319,19.9866752625,0.349065840244,0.0240919683129,-0.00147740240209,0.308878660202,0.00717995222658,0.00717995222658,-0.000845014757942,0.00743437185884,113.868888855,113.868888855,0.133360669017,73.959526062,2029,2025,2557,2026,2026,2938,3428,3428,3249,3366,3094,3051,3157,3147,3240,2861,3412,3419,3256,3373,3145,3356,3389,3196
1508404556436054911,170,1508404556435493564,plot_matl,0.25,-3000.0,0.2217438519,-0.0059783863835,-0.0282561462373,-86.2474136353,0.349065840244,0.0728719979525,-0.00314993108623,0.221697881818,-0.000269061682047,-0.000269061682047,-0.00347006134689,-0.00504881469533,-89.9986114502,-89.9986114502,-57.640247345,94.9015731812,2018,2054,2125,2020,2020,2661,3307,3335,3136,3287,3001,2970,3047,3089,3166,2967,3399,3391,3238,3294,2955,3279,3310,3033,0.010081657,1.700093765,1.71388169,0.453785598278,4500.0,0.421937853098,-0.00363448774442,-0.0318477600813,143.314926147,0.0,6000.0,-0.0031462663319,-0.00354866636917,-0.0031462663319,19.9866752625,0.349065840244,0.0216827709228,-0.00146915274672,0.309036433697,-0.0177671592683,-0.0177671592683,-0.000998055329546,0.0044248602353,113.456039429,113.456039429,-0.118005372584,75.6332702637,2027,2026,2557,2026,2026,2938,3428,3427,3248,3367,3093,3050,3156,3146,3240,2859,3412,3419,3256,3373,3145,3356,3389,3196
1508404556445829935,171,1508404556445412318,plot_matl,0.25,-3000.0,0.221752181649,-0.0061451215297,-0.0282478146255,-86.2792205811,0.349065840244,0.0728719979525,-0.00314993108623,0.221697881818,-0.000269061682047,-0.000269061682047,-0.00347006134689,-0.00504881469533,-89.9986114502,-89.9986114502,-57.640247345,94.9015731812,2021,2061,2125,2019,2019,2661,3307,3335,3136,3287,3001,2970,3047,3089,3166,2967,3397,3390,3237,3292,2954,3278,3308,3032,0.009917621,1.710012292,1.695913191,0.453785598278,4500.0,0.421937853098,-0.00396210560575,-0.0318477600813,143.314926147,0.0,6000.0,-0.00315393321216,-0.00340124825016,-0.00315393321216,19.9947109222,0.349065840244,0.0216827709228,-0.00146915274672,0.309036433697,-0.0177671592683,-0.0177671592683,-0.000998055329546,0.0044248602353,113.456039429,113.456039429,-0.118005372584,75.6332702637,2023,2023,2557,2021,2021,2938,3428,3427,3248,3367,3093,3050,3156,3146,3240,2859,3413,3421,3257,3370,3146,3357,3394,3197
1508404556455600327,172,1508404556455401287,plot_matl,0.25,-3000.0,0.221699148417,-0.00508159957826,-0.0283008459955,-86.0731735229,0.349065840244,0.0728719979525,-0.00314993108623,0.221697881818,-0.000269061682047,-0.000269061682047,-0.00347006134689,-0.00504881469533,-89.9986114502,-89.9986114502,-57.640247345,94.9015731812,2011,2053,2125,2019,2019,2661,3307,3336,3138,3290,3002,2968,3050,3087,3166,2967,3397,3390,3237,3292,2954,3278,3308,3032,0.009987463,1.720001021,1.717843636,0.453785598278,4500.0,0.420588374138,-0.0305107142776,-0.0331972427666,149.387588501,0.0,6000.0,-0.00318446569145,-0.00278454762883,-0.00318446569145,19.9176902771,0.349065840244,0.0216827709228,-0.00146915274672,0.309036433697,-0.0177671592683,-0.0177671592683,-0.000998055329546,0.0044248602353,113.456039429,113.456039429,-0.118005372584,75.6332702637,2023,2024,2557,2021,2021,2940,3428,3429,3249,3368,3096,3049,3157,3145,3240,2859,3413,3421,3257,3370,3146,3357,3394,3197
1508404556465627215,173,1508404556465458932,plot_matl,0.25,-3000.0,0.221618309617,-0.00343259423971,-0.0283816866577,-85.9592056274,0.349065840244,0.0728719979525,-0.00314993108623,0.221697881818,-0.000269061682047,-0.000269061682047,-0.00347006134689,-0.00504881469533,-89.9986114502,-89.9986114502,-57.640247345,94.9015731812,2025,2048,2125,2019,2019,2661,3307,3336,3138,3290,3002,2968,3050,3087,3164,2966,3397,3392,3238,3292,2956,3281,3310,3033,0.01005956,1.730059627,1.74030388,0.453785598278,4500.0,0.421937853098,-0.00356925115921,-0.0318477600813,143.314926147,0.0,6000.0,-0.00318524218164,-0.00276816636324,-0.00318524218164,19.9421825409,0.349065840244,0.0216827709228,-0.00146915274672,0.309036433697,-0.0177671592683,-0.0177671592683,-0.000998055329546,0.0044248602353,113.456039429,113.456039429,-0.118005372584,75.6332702637,2030,2024,2557,2021,2021,2940,3428,3429,3249,3368,3096,3049,3157,3145,3240,2860,3411,3421,3257,3374,3144,3355,3391,3195
