%time,field.header.seq,field.header.stamp,field.header.frame_id,field.FFJ4_set_point,field.FFJ4_position_gain,field.FFJ4_process_value,field.FFJ4_process_value_dot,field.FFJ4_error,field.FFJ4_command,field.FFJ1,field.FFJ2,field.FFJ3,field.FFJ4,field.FFJ1_dot,field.FFJ2_dot,field.FFJ3_dot,field.FFJ4_dot,field.FFJ1_tao,field.FFJ2_tao,field.FFJ3_tao,field.FFJ4_tao,field.pac0,field.pac1,field.pdc0,field.tac0,field.tdc0,field.el0,field.el1,field.el2,field.el3,field.el4,field.el5,field.el6,field.el7,field.el8,field.el9,field.el10,field.el11,field.el12,field.el13,field.el14,field.el15,field.el16,field.el17,field.el18,field.dt,field.time,field.test_time2,field.FFJ0_set_point,field.FFJ0_position_gain,field.FFJ0_process_value,field.FFJ0_process_value_dot,field.FFJ0_error,field.FFJ0_command,field.FFJ3_set_point,field.FFJ3_position_gain,field.FFJ3_process_value,field.FFJ3_process_value_dot,field.FFJ3_error,field.FFJ3_command,field.MFJ1,field.MFJ2,field.MFJ3,field.MFJ4,field.MFJ1_dot,field.MFJ2_dot,field.MFJ3_dot,field.MFJ4_dot,field.MFJ1_tao,field.MFJ2_tao,field.MFJ3_tao,field.MFJ4_tao,field.Mpac0,field.Mpac1,field.Mpdc0,field.Mtac0,field.Mtdc0,field.Mel0,field.Mel1,field.Mel2,field.Mel3,field.Mel4,field.Mel5,field.Mel6,field.Mel7,field.Mel8,field.Mel9,field.Mel10,field.Mel11,field.Mel12,field.Mel13,field.Mel14,field.Mel15,field.Mel16,field.Mel17,field.Mel18
1508404824165432827,96,1508404824165012675,plot_matl,0.25,-7000.0,0.25250133872,0.0172555111349,0.0,0.0,0.349065840244,0.0715225115418,-0.00292600342073,0.252532422543,0.00973180308938,0.00973180308938,-0.00800459645689,0.0166380219162,-107.406448364,-107.406448364,-52.7110748291,89.5121383667,2034,2048,2130,2022,2022,2685,3307,3331,3134,3282,2995,2967,3046,3079,3159,2946,3385,3380,3221,3281,2936,3272,3301,3021,0.009966227,0.960014091,0.956757792,0.453785598278,4500.0,0.419238895178,-0.00811625365168,-0.0345467217267,155.460250854,0.0,6000.0,-0.00295078055933,-0.00749852415174,0.0,0.0,0.349065840244,0.0216827709228,-0.000957380223554,0.305771589279,-0.00122988654766,-0.00122988654766,-0.011356648989,0.00881117302924,121.245941162,121.245941162,-8.04469299316,-0.855381727219,2038,2029,2560,2044,2044,2939,3423,3421,3242,3356,3085,3037,3146,3136,3232,2837,3403,3408,3245,3362,3131,3347,3379,3185
1508404824175161061,97,1508404824174992052,plot_matl,0.25,-7000.0,0.252652108669,0.0141436839476,0.0,0.0,0.349065840244,0.0701730325818,-0.00293575460091,0.25257769227,-0.00390465930104,-0.00390465930104,-0.00780652137473,0.0156430788338,-107.52230835,-107.52230835,-52.8779907227,89.2694396973,2040,2054,2130,2022,2022,2685,3307,3331,3134,3282,2998,2968,3047,3080,3160,2947,3382,3380,3221,3279,2936,3272,3301,3021,0.009978741,0.96999305,0.967937877,0.453785598278,4500.0,0.419238895178,-0.00811669044197,-0.0345467217267,155.460250854,0.0,6000.0,-0.00293537555262,0.00559382839128,0.0,0.0,0.349065840244,0.0216827709228,-0.000977099291049,0.305683106184,-0.00100654293783,-0.00100654293783,-0.0109392432496,0.0105251958594,121.177368164,121.177368164,-7.99806022644,-0.895137786865,2034,2031,2560,2044,2044,2939,3423,3421,3242,3356,3085,3039,3147,3134,3231,2837,3402,3410,3245,3360,3131,3347,3379,3185
1508404824185242276,98,1508404824185021814,plot_matl,0.25,-7000.0,0.252640098333,0.0143511751667,0.0,0.0,0.349065840244,0.0701730325818,-0.00293422164395,0.252645879984,-0.00420387694612,-0.00420387694612,-0.00784065015614,0.0142588047311,-107.506690979,-107.506690979,-52.8638648987,89.2956542969,2008,2043,2129,2025,2025,2688,3307,3331,3134,3282,2998,2968,3047,3080,3160,2947,3382,3380,3221,3279,2935,3274,3300,3021,0.010029482,0.980022704,0.982889236,0.453785598278,4500.0,0.419238895178,-0.00813164748251,-0.0345467217267,155.460250854,0.0,6000.0,-0.0029340449255,0.00556295411661,0.0,0.0,0.349065840244,0.0240919683129,-0.000995520851575,0.305776059628,0.0230401400477,0.0230401400477,0.00473018642515,0.0086250314489,121.143486023,121.143486023,-7.93309879303,-0.839358448982,2026,2026,2558,2040,2040,2937,3421,3421,3242,3356,3085,3039,3147,3134,3231,2837,3402,3410,3245,3360,3130,3345,3381,3184
1508404824195194166,99,1508404824194990557,plot_matl,0.25,-7000.0,0.25265699625,-0.0238947663456,0.0,0.0,0.349065840244,0.0701730325818,-0.0029330290854,0.252742499113,-0.00420419732109,-0.00420419732109,0.00555033748969,0.0501750223339,-107.414604187,-107.414604187,-52.8278961182,89.3428192139,2018,2061,2129,2025,2025,2688,3307,3331,3137,3282,2995,2966,3045,3078,3159,2945,3387,3378,3221,3279,2935,3274,3300,3021,0.009968373,0.989991474,0.986868927,0.453785598278,4500.0,0.419238895178,-0.00811901129782,-0.0345467217267,155.460250854,0.0,6000.0,-0.00293297902681,0.0055422205478,0.0,0.0,0.349065840244,0.0216827709228,-0.000993675086647,0.305672675371,-0.00240498338826,-0.00240498338826,0.00471276883036,0.0105050709099,121.235046387,121.235046387,-7.88639068604,-0.72666567564,2027,2031,2558,2040,2040,2937,3421,3421,3244,3357,3086,3040,3147,3134,3231,2839,3402,3411,3245,3360,3130,3345,3381,3184
1508404824205169238,100,1508404824204988246,plot_matl,0.25,-7000.0,0.252573728561,-0.0221930164844,0.0,0.0,0.349065840244,0.0701730325818,-0.00291916704737,0.252649515867,-0.00367304403335,-0.00367304403335,0.0052639497444,-0.023727376014,-107.411582947,-107.411582947,-52.749912262,89.5017623901,2020,2061,2129,2025,2025,2686,3307,3331,3137,3282,2995,2966,3045,3078,3159,2945,3387,3378,3223,3281,2933,3269,3301,3020,0.009997623,0.999989206,0.9997623,0.453785598278,4500.0,0.419238895178,-0.00717749353498,-0.0345467217267,155.460250854,0.0,6000.0,-0.00291928602383,0.00526263192296,0.0,0.0,0.349065840244,0.0192735753953,-0.000979425385594,0.305605858564,-0.0262490473688,-0.0262490473688,0.00442789820954,-0.0499333851039,121.251716614,121.251716614,-7.85265874863,-0.593532085419,2032,2038,2558,2038,2038,2937,3421,3421,3244,3357,3086,3040,3147,3134,3231,2839,3402,3411,3245,3361,3129,3347,3381,3185
1508404824215203871,101,1508404824214992398,plot_matl,0.25,-7000.0,0.252574980259,-0.0223271474242,0.0,0.0,0.349065840244,0.0701730325818,-0.00293339067139,0.252575159073,-0.00377732608467,-0.00377732608467,0.00554761849344,-0.022264290601,-107.336540222,-107.336540222,-52.5541877747,89.6069793701,2014,2045,2129,2025,2025,2686,3306,3331,3137,3283,2995,2966,3047,3079,3158,2945,3387,3378,3223,3281,2933,3269,3301,3020,0.01000481,1.009993624,1.01048581,0.453785598278,4500.0,0.419238895178,-0.00736932922155,-0.0345467217267,155.460250854,0.0,6000.0,-0.002931678202,0.00551144685596,0.0,0.0,0.349065840244,0.0216827709228,-0.000953416863922,0.305596977472,-0.00238910899498,-0.00238910899498,0.00392233440652,-0.0497746989131,121.338851929,121.338851929,-8.03535556793,-0.762180149555,2024,2023,2558,2038,2038,2937,3422,3422,3242,3358,3085,3039,3147,3137,3231,2838,3402,3411,3245,3361,3129,3347,3381,3185
1508404824225208206,102,1508404824225001486,plot_matl,0.25,-7000.0,0.252622425556,-0.0232281666249,0.0,0.0,0.349065840244,0.0715225115418,-0.00293046655133,0.252584248781,0.0100301774219,0.0100301774219,-0.00792140420526,0.0154224513099,-107.503349304,-107.503349304,-52.5231552124,89.913520813,2028,2057,2129,2025,2025,2686,3306,3331,3137,3283,2995,2966,3047,3079,3158,2945,3385,3378,3223,3280,2935,3273,3299,3020,0.010008668,1.020002518,1.020884136,0.453785598278,4500.0,0.419238895178,-0.00755550898612,-0.0345467217267,155.460250854,0.0,6000.0,-0.00294244266115,-0.0076694698073,0.0,0.0,0.349065840244,0.0216827709228,-0.000930976588279,0.305646508932,-0.00198853434995,-0.00198853434995,0.00346961058676,0.0110097099096,121.262985229,121.262985229,-8.10558986664,-0.744920372963,2038,2034,2559,2040,2040,2937,3422,3422,3242,3358,3085,3039,3147,3137,3231,2838,3404,3411,3244,3362,3130,3345,3380,3186
1508404824235210301,103,1508404824234994735,plot_matl,0.25,-7000.0,0.252481579781,-0.0203168429434,0.0,0.0,0.349065840244,0.0701730325818,-0.0029543407727,0.252586394548,-0.00368194049224,-0.00368194049224,-0.00744499871507,0.0154419811442,-107.523956299,-107.523956299,-52.4918899536,90.3975296021,2043,2072,2129,2025,2025,2688,3307,3332,3133,3281,2996,2967,3045,3078,3158,2945,3385,3378,3223,3280,2935,3273,3299,3020,0.009993208,1.029995894,1.029300424,0.453785598278,4500.0,0.419238895178,-0.00771751021966,-0.0345467217267,155.460250854,0.0,6000.0,-0.00295196962543,0.00591962225735,0.0,0.0,0.349065840244,0.0240919683129,-0.000925361644477,0.305695265532,0.0213761907071,0.0213761907071,0.00338012701832,0.0100744273514,121.209777832,121.209777832,-8.33831977844,-0.939898192883,2038,2036,2559,2040,2040,2938,3423,3422,3243,3360,3085,3037,3147,3135,3231,2838,3404,3411,3244,3362,3130,3345,3380,3186
1508404824245222320,104,1508404824244996787,plot_matl,0.25,-7000.0,0.252472817898,-0.0201674215496,0.0,0.0,0.349065840244,0.0701730325818,-0.00293768849224,0.252419948578,-0.00399943999946,-0.00399943999946,0.00561878317967,-0.0191088896245,-107.553985596,-107.553985596,-52.3637695312,90.2881698608,2022,2053,2129,2025,2025,2688,3307,3332,3133,3281,2996,2967,3045,3078,3158,2944,3386,3381,3221,3280,2934,3273,3301,3022,0.010001724,1.039997691,1.040179296,0.453785598278,4500.0,0.419238895178,-0.00824370142072,-0.0345467217267,155.460250854,0.0,6000.0,-0.00292326975614,0.00534194055945,0.0,0.0,0.349065840244,0.0216827709228,-0.000906881003175,0.305466353893,-0.00287523609586,-0.00287523609586,0.00302166561596,0.0147545067593,121.231513977,121.231513977,-8.57696056366,-1.11382269859,2029,2030,2559,2040,2040,2938,3423,3422,3243,3360,3085,3037,3147,3135,3229,2839,3403,3409,3244,3360,3131,3347,3381,3185
1508404824255200979,105,1508404824254996878,plot_matl,0.25,-7000.0,0.252430677414,-0.0193256400526,0.0,0.0,0.349065840244,0.0701730325818,-0.00292533240281,0.252411872149,-0.00500981509686,-0.00500981509686,-0.00804652553052,0.0189248751849,-107.40776825,-107.40776825,-52.4373779297,90.5665206909,2032,2067,2130,2024,2024,2686,3307,3332,3134,3284,2996,2965,3045,3078,3158,2944,3386,3381,3221,3280,2934,3273,3301,3022,0.010000404,1.049997963,1.05004242,0.453785598278,4500.0,0.419238895178,-0.00958043616265,-0.0345467217267,155.460250854,0.0,6000.0,-0.0029250967782,0.0053745219484,0.0,0.0,0.349065840244,0.0216827709228,-0.000923662853893,0.305485248566,-0.00284982379526,-0.00284982379526,0.00335663510486,0.0143960025162,121.355682373,121.355682373,-8.73760986328,-1.18485450745,2032,2041,2558,2040,2040,2939,3424,3420,3244,3358,3085,3040,3147,3135,3229,2839,3403,3409,3244,3360,3131,3347,3381,3185
1508404824265222329,106,1508404824264995697,plot_matl,0.25,-7000.0,0.252425968647,0.0186764001846,0.0,0.0,0.349065840244,0.0701730325818,-0.00292401085608,0.252447277308,-0.0046085966751,-0.0046085966751,0.0053583891131,0.0182707943022,-107.334487915,-107.334487915,-52.3166503906,90.7559280396,2046,2073,2130,2024,2024,2686,3307,3332,3134,3284,2996,2965,3046,3079,3159,2945,3385,3380,3223,3278,2935,3273,3301,3022,0.009998413,1.059996701,1.059831778,0.453785598278,4500.0,0.419238895178,-0.00937193259597,-0.0345467217267,155.460250854,0.0,6000.0,-0.00294999103062,-0.00754581904039,0.0,0.0,0.349065840244,0.0216827709228,-0.000952032802161,0.305443942547,-0.00279032625258,-0.00279032625258,0.00388771574944,0.0151234045625,121.444488525,121.444488525,-8.76498985291,-1.31677162647,2040,2039,2558,2040,2040,2939,3424,3420,3244,3358,3085,3040,3149,3137,3232,2838,3404,3411,3243,3360,3132,3347,3381,3185
1508404824275186534,107,1508404824275019116,plot_matl,0.25,-7000.0,0.252422958612,-0.0191239900887,0.0,0.0,0.349065840244,0.0701730325818,-0.00294703152031,0.252446144819,-0.00424079643562,-0.00424079643562,0.00581543426961,-0.0196015574038,-107.273628235,-107.273628235,-52.6578178406,90.9257507324,2031,2059,2129,2025,2025,2685,3306,3332,3136,3281,2996,2965,3046,3079,3159,2945,3385,3380,3223,3278,2935,3273,3303,3021,0.01002329,1.070020038,1.07249203,0.453785598278,4500.0,0.419238895178,-0.0076721762307,-0.0345467217267,155.460250854,0.0,6000.0,-0.00293180998415,0.00550852995366,0.0,0.0,0.349065840244,0.0240919683129,-0.000946871936321,0.305585741997,0.0206880364567,0.0206880364567,-0.0115604372695,0.0122774643824,121.417449951,121.417449951,-8.90018558502,-1.25490045547,2032,2026,2559,2038,2038,2939,3421,3421,3244,3359,3085,3040,3149,3137,3232,2838,3404,3411,3243,3360,3132,3347,3380,3186
1508404824285259174,108,1508404824285003330,plot_matl,0.25,-7000.0,0.252422511578,0.0188688747585,0.0,0.0,0.349065840244,0.0701730325818,-0.0029179584235,0.252444595098,-0.00424133241177,-0.00424133241177,0.00522805424407,0.0184250939637,-107.343528748,-107.343528748,-52.4289665222,90.8720932007,2039,2059,2129,2025,2025,2685,3306,3332,3136,3281,2995,2966,3045,3079,3158,2946,3386,3380,3222,3279,2935,3273,3303,3021,0.009987456,1.080005833,1.078645248,0.453785598278,4500.0,0.420588374138,0.0170421134681,-0.0331972427666,149.387588501,0.0,6000.0,-0.00289329164661,0.00473224278539,0.0,0.0,0.349065840244,0.0216827709228,-0.000941697100643,0.305604577065,-0.00384896830656,-0.00384896830656,-0.0116765182465,0.073929913342,121.351997375,121.351997375,-8.70093631744,-1.2719322443,2041,2033,2559,2038,2038,2939,3421,3421,3244,3359,3083,3039,3147,3135,3230,2837,3402,3411,3243,3361,3132,3347,3380,3186
1508404824295291541,109,1508404824294992275,plot_matl,0.25,-7000.0,0.252463340759,0.018028287217,0.0,0.0,0.349065840244,0.0701730325818,-0.00288231950253,0.252369135618,-0.00487911142409,-0.00487911142409,0.0045252405107,-0.0179747957736,-107.310935974,-107.310935974,-52.1562728882,90.984375,2031,2050,2129,2021,2021,2686,3306,3333,3136,3281,2995,2966,3045,3079,3158,2946,3386,3380,3222,3279,2935,3271,3302,3021,0.009986356,1.089993748,1.088512804,0.453785598278,4500.0,0.419238895178,-0.0088251652196,-0.0345467217267,155.460250854,0.0,6000.0,-0.00286085740663,0.00409254804254,0.0,0.0,0.349065840244,0.0240919683129,-0.000924274791032,0.305537730455,0.0211702845991,0.0211702845991,-0.0120304506272,-0.0485248789191,121.453788757,121.453788757,-8.78554725647,-1.35741353035,2031,2022,2558,2041,2041,2939,3421,3422,3244,3359,3083,3039,3147,3135,3230,2837,3402,3411,3243,3361,3130,3344,3381,3187
1508404824305262961,110,1508404824305000315,plot_matl,0.25,-7000.0,0.252450615168,0.0182829108089,0.0,0.0,0.349065840244,0.0715225115418,-0.00284160580486,0.252476781607,0.00911052897573,0.00911052897573,0.00370442448184,0.0177663210779,-107.199653625,-107.199653625,-52.1615638733,90.7888259888,2014,2036,2129,2021,2021,2686,3306,3333,3134,3283,2994,2969,3046,3078,3158,2944,3386,3379,3222,3279,2935,3271,3302,3021,0.010008332,1.1000018,1.10091652,0.453785598278,4500.0,0.419238895178,-0.00920460280031,-0.0345467217267,155.460250854,0.0,6000.0,-0.00283669983037,-0.00981204677373,0.0,0.0,0.349065840244,0.0216827709228,-0.000908218906261,0.305598169565,-0.00258887605742,-0.00258887605742,0.00298889400437,0.012112586759,121.506462097,121.506462097,-8.63541126251,-1.40452647209,2024,2020,2558,2041,2041,2939,3421,3422,3242,3359,3085,3039,3148,3137,3231,2839,3402,3413,3243,3361,3130,3344,3381,3187
1508404824315157541,111,1508404824314997220,plot_matl,0.25,-7000.0,0.252474933863,-0.0201391298324,0.0,0.0,0.349065840244,0.0701730325818,-0.00284525356255,0.252462208271,-0.00468409527093,-0.00468409527093,-0.00964151881635,-0.0198719203472,-107.327980042,-107.327980042,-52.1991233826,90.839515686,2009,2055,2129,2021,2021,2686,3306,3333,3134,3283,2994,2969,3046,3078,3158,2944,3386,3379,3222,3281,2934,3273,3299,3021,0.009995844,1.109998444,1.109538684,0.453785598278,4500.0,0.419238895178,-0.00953461229801,-0.0345467217267,155.460250854,0.0,6000.0,-0.00283899414353,0.00365934474394,0.0,0.0,0.349065840244,0.0216827709228,-0.000908919784706,0.305491358042,-0.00170890090521,-0.00170890090521,0.00300528085791,-0.0474971272051,121.423202515,121.423202515,-8.67015361786,-1.38731026649,2020,2024,2559,2039,2039,2938,3421,3422,3242,3359,3085,3039,3148,3137,3231,2839,3402,3413,3243,3362,3130,3347,3380,3185
1508404824325141390,112,1508404824324996423,plot_matl,0.25,-7000.0,0.252499639988,-0.0205958262086,0.0,0.0,0.349065840244,0.0701730325818,-0.00285951723345,0.252486109734,-0.00481740105897,-0.00481740105897,-0.00932564027607,-0.02036347799,-107.247947693,-107.247947693,-52.3390693665,90.6852645874,1999,2054,2129,2021,2021,2686,3308,3332,3136,3281,2995,2967,3043,3078,3160,2946,3386,3379,3222,3281,2934,3273,3299,3021,0.009998929,1.119997464,1.119880048,0.453785598278,4500.0,0.419238895178,-0.00873205438256,-0.0345467217267,155.460250854,0.0,6000.0,-0.00285178050399,0.00395063962787,0.0,0.0,0.349065840244,0.0216827709228,-0.000924831081647,0.305510163307,-0.0014456815552,-0.0014456815552,0.00329862721264,0.0140027906746,121.618614197,121.618614197,-8.75311374664,-1.2754560709,2018,2026,2559,2039,2039,2938,3421,3422,3242,3359,3083,3039,3148,3136,3230,2837,3402,3413,3243,3362,3130,3347,3380,3185
1508404824335457288,113,1508404824335091541,plot_matl,0.25,-7000.0,0.252517223358,-0.0209519453347,0.0,0.0,0.349065840244,0.0701730325818,-0.00288367946632,0.252508401871,-0.00472721271217,-0.00472721271217,0.00458938069642,-0.0207672715187,-107.168113708,-107.168113708,-52.3897094727,90.8839874268,2002,2064,2129,2024,2024,2686,3308,3332,3136,3281,2995,2967,3043,3078,3160,2946,3386,3379,3221,3278,2935,3272,3300,3020,0.010097329,1.130093407,1.140998177,0.453785598278,4500.0,0.419238895178,-0.00806488096714,-0.0345467217267,155.460250854,0.0,6000.0,-0.00291257654317,-0.00825327914208,0.0,0.0,0.349065840244,0.0216827709228,-0.000938350975048,0.305580884218,-0.00292500457726,-0.00292500457726,-0.0117602013052,0.0125837912783,121.593795776,121.593795776,-8.69134426117,-1.41607677937,2015,2024,2558,2040,2040,2938,3421,3422,3242,3359,3083,3039,3148,3136,3230,2837,3403,3411,3245,3362,3129,3346,3381,3186
1508404824345277095,114,1508404824345013189,plot_matl,0.25,-7000.0,0.252569675446,0.015892861411,0.0,0.0,0.349065840244,0.0715225115418,-0.00293914112262,0.252526909113,0.00919519457966,0.00919519457966,0.00569713907316,0.016766326502,-107.235694885,-107.235694885,-52.4979782104,90.9785385132,2014,2065,2129,2024,2024,2686,3307,3333,3134,3284,2993,2969,3046,3078,3160,2946,3386,3379,3221,3278,2935,3272,3300,3020,0.009919701,1.140014524,1.130845914,0.453785598278,4500.0,0.419238895178,-0.00854048412293,-0.0345467217267,155.460250854,0.0,6000.0,-0.00293678836897,0.00565663864836,0.0,0.0,0.349065840244,0.0216827709228,-0.000920153746847,0.305692851543,-0.00239411811344,-0.00239411811344,-0.0121173700318,0.0103229125962,121.551109314,121.551109314,-8.58182048798,-1.49041140079,2031,2034,2558,2040,2040,2937,3421,3420,3241,3359,3085,3041,3148,3136,3230,2837,3403,3411,3245,3362,3129,3346,3381,3186
1508404824355139120,115,1508404824354988703,plot_matl,0.25,-7000.0,0.252470940351,-0.020002797246,0.0,0.0,0.349065840244,0.0701730325818,-0.00294927344657,0.25257602334,-0.00413709878922,-0.00413709878922,0.0059034829028,-0.0221187919378,-107.360153198,-107.360153198,-52.4789466858,90.5547637939,2019,2055,2129,2024,2024,2686,3307,3333,3134,3284,2993,2969,3046,3078,3159,2945,3387,3378,3222,3279,2934,3272,3301,3022,0.009974371,1.149989508,1.147052665,0.453785598278,4500.0,0.419238895178,-0.00803637877107,-0.0345467217267,155.460250854,0.0,6000.0,-0.00293490570039,0.00561137590557,0.0,0.0,0.349065840244,0.0216827709228,-0.000931077694986,0.305784642696,-0.00281188567169,-0.00281188567169,-0.0118857547641,0.00844745710492,121.386070251,121.386070251,-8.90015125275,-1.46422684193,2026,2024,2558,2040,2040,2937,3421,3420,3241,3359,3085,3041,3148,3136,3229,2837,3403,3411,3245,3360,3131,3347,3381,3186
1508404824365371017,116,1508404824365050567,plot_matl,0.25,-7000.0,0.252455711365,-0.0197369549423,0.0,0.0,0.349065840244,0.0701730325818,-0.00293389684521,0.252479612827,-0.00440770434216,-0.00440770434216,-0.00782213546336,-0.0202312562615,-107.329833984,-107.329833984,-52.5624046326,90.289390564,2015,2057,2129,2023,2023,2687,3308,3335,3134,3282,2994,2967,3046,3078,3159,2945,3387,3378,3222,3279,2934,3272,3301,3022,0.010063369,1.160052552,1.167350804,0.453785598278,4500.0,0.420588374138,0.0187393575907,-0.0331972427666,149.387588501,0.0,6000.0,-0.00293339951895,0.00558484811336,0.0,0.0,0.349065840244,0.0216827709228,-0.000912439951207,0.305529862642,-0.00187382951844,-0.00187382951844,0.00307978643104,-0.0483179762959,121.251464844,121.251464844,-8.85273647308,-1.52926564217,2022,2026,2558,2041,2041,2938,3423,3420,3242,3359,3084,3040,3148,3136,3229,2837,3403,3411,3245,3360,3131,3347,3381,3186
1508404824375188683,117,1508404824375000891,plot_matl,0.25,-7000.0,0.252348482609,-0.0175759028643,0.0,0.0,0.349065840244,0.0701730325818,-0.00291996984743,0.252363085747,-0.00461863121018,-0.00461863121018,-0.00810628384352,-0.0178679786623,-107.25604248,-107.25604248,-52.6290435791,90.347869873,2027,2059,2129,2023,2023,2687,3308,3335,3134,3282,2994,2967,3046,3077,3157,2946,3386,3379,3220,3278,2936,3271,3301,3022,0.009949093,1.170002261,1.164043881,0.453785598278,4500.0,0.420588374138,0.0178475938737,-0.0331972427666,149.387588501,0.0,6000.0,-0.00292106438428,0.00532003864646,0.0,0.0,0.349065840244,0.0216827709228,-0.000884975364897,0.305479675531,-0.00153717165813,-0.00153717165813,0.00252646277659,-0.0473225414753,121.25705719,121.25705719,-8.85878944397,-1.42456805706,2033,2030,2558,2041,2041,2938,3423,3420,3242,3359,3084,3040,3147,3137,3231,2838,3402,3411,3243,3361,3130,3348,3381,3186
1508404824385206503,118,1508404824385017126,plot_matl,0.25,-7000.0,0.252222776413,-0.0529462955892,0.0,0.0,0.349065840244,0.0701730325818,-0.00293405912817,0.252301841974,-0.00425958540291,-0.00425958540291,-0.00784315913916,-0.0166304055601,-107.284133911,-107.284133911,-52.585647583,90.3277130127,2016,2057,2128,2022,2022,2685,3306,3332,3137,3283,2994,2967,3046,3077,3157,2946,3386,3379,3220,3278,2936,3271,3301,3020,0.010017123,1.180019233,1.182020514,0.453785598278,4500.0,0.420588374138,0.018505146727,-0.0331972427666,149.387588501,0.0,6000.0,-0.00293358578347,-0.00785263068974,0.0,0.0,0.349065840244,0.0216827709228,-0.000876024365425,0.305435568094,-0.000826634815894,-0.000826634815894,0.00233414582908,-0.0463325455785,121.337882996,121.337882996,-8.63835144043,-1.19860649109,2024,2024,2558,2037,2037,2937,3422,3421,3243,3359,3084,3040,3147,3137,3231,2838,3402,3411,3243,3361,3130,3348,3380,3186
1508404824395198152,119,1508404824395039086,plot_matl,0.25,-7000.0,0.252361267805,0.0201278496534,0.0,0.0,0.349065840244,0.0701730325818,-0.00293405912817,0.252301841974,-0.00425958540291,-0.00425958540291,-0.00784315913916,-0.0166304055601,-107.284133911,-107.284133911,-52.585647583,90.3277130127,2017,2053,2128,2022,2022,2685,3306,3332,3137,3283,2994,2966,3045,3078,3159,2946,3385,3382,3223,3277,2936,3271,3301,3020,0.010019628,1.190040207,1.192335732,0.453785598278,4500.0,0.420588374138,0.0171466767788,-0.0331972427666,149.387588501,0.0,6000.0,-0.00294332043268,0.00578407617286,0.0,0.0,0.349065840244,0.0216827709228,-0.000876024365425,0.305435568094,-0.000826634815894,-0.000826634815894,0.00233414582908,-0.0463325455785,121.337882996,121.337882996,-8.63835144043,-1.19860649109,2025,2023,2558,2037,2037,2937,3422,3421,3243,3359,3083,3038,3148,3136,3230,2838,3401,3411,3245,3363,3130,3348,3380,3186
1508404824405384693,120,1508404824405033867,plot_matl,0.25,-7000.0,0.252301812172,-0.0165960360318,0.0,0.0,0.349065840244,0.0701730325818,-0.00293405912817,0.252301841974,-0.00425958540291,-0.00425958540291,-0.00784315913916,-0.0166304055601,-107.284133911,-107.284133911,-52.585647583,90.3277130127,2020,2051,2129,2023,2023,2685,3305,3331,3137,3283,2994,2966,3045,3078,3159,2946,3385,3382,3223,3277,2933,3272,3300,3020,0.009994563,1.200034789,1.19934756,0.453785598278,4500.0,0.420588374138,0.0169931948185,-0.0331972427666,149.387588501,0.0,6000.0,-0.00295018148609,0.0059117116034,0.0,0.0,0.349065840244,0.0216827709228,-0.000876024365425,0.305435568094,-0.000826634815894,-0.000826634815894,0.00233414582908,-0.0463325455785,121.337882996,121.337882996,-8.63835144043,-1.19860649109,2030,2022,2558,2034,2034,2937,3420,3421,3243,3359,3083,3038,3148,3136,3230,2838,3401,3411,3245,3363,3131,3346,3380,3184
1508404824415403825,121,1508404824415049827,plot_matl,0.25,-7000.0,0.252329349518,0.0207935590297,0.0,0.0,0.349065840244,0.0701730325818,-0.00293405912817,0.252301841974,-0.00425958540291,-0.00425958540291,-0.00784315913916,-0.0166304055601,-107.284133911,-107.284133911,-52.585647583,90.3277130127,2011,2043,2129,2023,2023,2685,3305,3331,3136,3284,2995,2967,3046,3079,3159,2946,3385,3380,3223,3277,2933,3272,3300,3020,0.010016248,1.210051159,1.211966008,0.453785598278,4500.0,0.420588374138,0.0163380857557,-0.0331972427666,149.387588501,0.0,6000.0,-0.00296792481095,0.00627027684823,0.0,0.0,0.349065840244,0.0216827709228,-0.000876024365425,0.305435568094,-0.000826634815894,-0.000826634815894,0.00233414582908,-0.0463325455785,121.337882996,121.337882996,-8.63835144043,-1.19860649109,2027,2021,2558,2034,2034,2937,3420,3421,3241,3359,3085,3038,3149,3135,3232,2838,3403,3412,3245,3363,3131,3346,3380,3184
1508404824425494933,122,1508404824425033076,plot_matl,0.25,-7000.0,0.252267867327,-0.0158971901983,0.0,0.0,0.349065840244,0.0715225115418,-0.00295959878713,0.252296775579,0.00845557264984,0.00845557264984,0.00610454240814,0.0214161649346,-107.089607239,-107.089607239,-52.9650039673,90.2130508423,2009,2038,2129,2022,2022,2687,3305,3331,3136,3284,2995,2967,3046,3079,3159,2946,3385,3380,3220,3280,2933,3271,3300,3019,0.0099843,1.220035078,1.2180846,0.453785598278,4500.0,0.420588374138,0.0173130799085,-0.0331972427666,149.387588501,0.0,6000.0,-0.00294942036271,-0.00752800796181,0.0,0.0,0.349065840244,0.0216827709228,-0.000903222011402,0.30538725853,-0.00102648127358,-0.00102648127358,-0.0124596497044,0.0165222790092,121.128166199,121.128166199,-8.44999408722,-1.19630503654,2025,2020,2559,2039,2039,2937,3420,3421,3241,3359,3085,3038,3149,3135,3232,2838,3403,3412,3244,3361,3131,3346,3381,3185
1508404824435462230,123,1508404824435014220,plot_matl,0.25,-7000.0,0.252331972122,0.0207243822515,0.0,0.0,0.349065840244,0.0715225115418,-0.00295959878713,0.252296775579,0.00845557264984,0.00845557264984,0.00610454240814,0.0214161649346,-107.089607239,-107.089607239,-52.9650039673,90.2130508423,2012,2052,2129,2022,2022,2687,3306,3332,3133,3283,2995,2968,3047,3079,3158,2945,3385,3380,3220,3280,2933,3271,3300,3019,0.009981133,1.230016752,1.227679359,0.453785598278,4500.0,0.419238895178,-0.0111141428351,-0.0345467217267,155.460250854,0.0,6000.0,-0.00296845543198,0.00626787170768,0.0,0.0,0.349065840244,0.0216827709228,-0.000903222011402,0.30538725853,-0.00102648127358,-0.00102648127358,-0.0124596497044,0.0165222790092,121.128166199,121.128166199,-8.44999408722,-1.19630503654,2029,2026,2559,2039,2039,2937,3422,3424,3243,3357,3084,3040,3147,3136,3230,2837,3403,3412,3244,3361,3131,3346,3381,3185
1508404824445362495,124,1508404824445004363,plot_matl,0.25,-7000.0,0.252382129431,-0.0181794706732,0.0,0.0,0.349065840244,0.0715225115418,-0.00295959878713,0.252296775579,0.00845557264984,0.00845557264984,0.00610454240814,0.0214161649346,-107.089607239,-107.089607239,-52.9650039673,90.2130508423,2013,2053,2129,2022,2022,2687,3306,3332,3133,3283,2995,2968,3047,3079,3158,2945,3385,3378,3224,3278,2936,3269,3301,3019,0.009988894,1.240005967,1.238622856,0.453785598278,4500.0,0.419238895178,-0.0106644704938,-0.0345467217267,155.460250854,0.0,6000.0,-0.00297065172344,0.00631668418646,0.0,0.0,0.349065840244,0.0216827709228,-0.000903222011402,0.30538725853,-0.00102648127358,-0.00102648127358,-0.0124596497044,0.0165222790092,121.128166199,121.128166199,-8.44999408722,-1.19630503654,2019,2026,2558,2035,2035,2937,3422,3424,3243,3357,3084,3040,3147,3136,3230,2837,3403,3412,3244,3361,3130,3346,3380,3185
1508404824455475448,125,1508404824455006249,plot_matl,0.25,-7000.0,0.252491295338,0.017481347546,0.0,0.0,0.349065840244,0.0715225115418,-0.00295959878713,0.252296775579,0.00845557264984,0.00845557264984,0.00610454240814,0.0214161649346,-107.089607239,-107.089607239,-52.9650039673,90.2130508423,2009,2047,2129,2022,2022,2686,3307,3332,3135,3281,2995,2967,3046,3078,3158,2945,3385,3378,3224,3278,2936,3269,3301,3019,0.010001114,1.250007684,1.25013925,0.453785598278,4500.0,0.420588374138,0.0179829150438,-0.0331972427666,149.387588501,0.0,6000.0,-0.00298598851077,0.00660984311253,0.0,0.0,0.349065840244,0.0216827709228,-0.000903222011402,0.30538725853,-0.00102648127358,-0.00102648127358,-0.0124596497044,0.0165222790092,121.128166199,121.128166199,-8.44999408722,-1.19630503654,2019,2021,2558,2035,2035,2938,3421,3422,3244,3357,3085,3038,3148,3136,3230,2837,3403,3412,3244,3361,3130,3346,3380,3185
1508404824465230656,126,1508404824465007085,plot_matl,0.25,-7000.0,0.252584040165,0.0156169971451,0.0,0.0,0.349065840244,0.0701730325818,-0.0029918840155,0.252442896366,-0.00481920735911,-0.00481920735911,-0.00666703516617,0.0185019820929,-106.965919495,-106.965919495,-52.9366226196,90.1585998535,2019,2047,2129,2022,2022,2686,3307,3332,3135,3281,2995,2967,3046,3078,3161,2946,3385,3379,3221,3279,2935,3272,3301,3021,0.01000053,1.260008395,1.26006678,0.453785598278,4500.0,0.419238895178,-0.00900886021554,-0.0345467217267,155.460250854,0.0,6000.0,-0.00299679883756,0.00684982957318,0.0,0.0,0.349065840244,0.0216827709228,-0.000925239233766,0.305498868227,-0.00221698544919,-0.00221698544919,0.00334993144497,0.0142082236707,121.24533844,121.24533844,-8.684009552,-0.821069121361,2025,2028,2558,2035,2035,2938,3421,3422,3244,3357,3085,3038,3148,3136,3231,2839,3402,3409,3245,3359,3129,3346,3383,3186
1508404824475410999,127,1508404824475025776,plot_matl,0.25,-7000.0,0.25259077549,0.0154673680663,0.0,0.0,0.349065840244,0.0701730325818,-0.0029918840155,0.252442896366,-0.00481920735911,-0.00481920735911,-0.00666703516617,0.0185019820929,-106.965919495,-106.965919495,-52.9366226196,90.1585998535,2013,2044,2129,2024,2024,2685,3307,3331,3134,3282,2994,2967,3046,3078,3161,2946,3385,3379,3221,3279,2935,3272,3301,3021,0.010019293,1.270027753,1.272450211,0.453785598278,4500.0,0.419238895178,-0.00785202626139,-0.0345467217267,155.460250854,0.0,6000.0,-0.00297055998817,-0.00709672970697,0.0,0.0,0.349065840244,0.0216827709228,-0.000925239233766,0.305498868227,-0.00221698544919,-0.00221698544919,0.00334993144497,0.0142082236707,121.24533844,121.24533844,-8.684009552,-0.821069121361,2026,2021,2559,2037,2037,2937,3423,3421,3241,3358,3085,3039,3148,3136,3231,2839,3402,3409,3245,3359,3129,3346,3383,3186
1508404824485192326,128,1508404824485013885,plot_matl,0.25,-7000.0,0.25259026885,-0.022438922897,0.0,0.0,0.349065840244,0.0701730325818,-0.0029918840155,0.252442896366,-0.00481920735911,-0.00481920735911,-0.00666703516617,0.0185019820929,-106.965919495,-106.965919495,-52.9366226196,90.1585998535,2019,2047,2129,2024,2024,2685,3307,3331,3134,3282,2994,2967,3046,3078,3158,2946,3387,3378,3221,3279,2935,3272,3301,3021,0.009986157,1.28001518,1.278228096,0.453785598278,4500.0,0.420588374138,0.018329937011,-0.0331972427666,149.387588501,0.0,6000.0,-0.00299680582248,-0.00656447559595,0.0,0.0,0.349065840244,0.0216827709228,-0.000925239233766,0.305498868227,-0.00221698544919,-0.00221698544919,0.00334993144497,0.0142082236707,121.24533844,121.24533844,-8.684009552,-0.821069121361,2022,2014,2559,2037,2037,2937,3423,3421,3241,3358,3085,3039,3148,3137,3231,2839,3403,3411,3244,3362,3132,3347,3383,3186
1508404824495407479,129,1508404824495028981,plot_matl,0.25,-7000.0,0.252668827772,0.0139351272956,0.0,0.0,0.349065840244,0.0715225115418,-0.00300072040409,0.252596765757,0.00908049102873,0.00908049102873,0.00695120636374,0.0154000716284,-107.209609985,-107.209609985,-53.0172538757,89.5714797974,2023,2060,2129,2024,2024,2687,3305,3333,3136,3281,2994,2967,3046,3078,3158,2946,3387,3378,3221,3279,2935,3272,3300,3018,0.010015861,1.290030772,1.292046069,0.453785598278,4500.0,0.419238895178,-0.00926617439836,-0.0345467217267,155.460250854,0.0,6000.0,-0.00300473743118,0.00703258533031,0.0,0.0,0.349065840244,0.0216827709228,-0.000905799563043,0.305676072836,-0.00223558954895,-0.00223558954895,0.00294309551828,0.0106223300099,121.206192017,121.206192017,-8.73608970642,-1.07072722912,2027,2024,2560,2036,2036,2938,3422,3421,3243,3359,3085,3039,3148,3137,3231,2839,3403,3411,3244,3362,3132,3347,3380,3186
1508404824505240068,130,1508404824505007411,plot_matl,0.25,-7000.0,0.252685219049,-0.0243459008634,0.0,0.0,0.349065840244,0.0715225115418,-0.00300072040409,0.252596765757,0.00908049102873,0.00908049102873,0.00695120636374,0.0154000716284,-107.209609985,-107.209609985,-53.0172538757,89.5714797974,2024,2050,2129,2024,2024,2687,3305,3333,3136,3281,2997,2968,3045,3077,3157,2945,3385,3378,3223,3278,2935,3272,3300,3018,0.009977974,1.300008891,1.29713662,0.453785598278,4500.0,0.420588374138,0.0186516232789,-0.0331972427666,149.387588501,0.0,6000.0,-0.00300023867749,0.00693666981533,0.0,0.0,0.349065840244,0.0216827709228,-0.000905799563043,0.305676072836,-0.00223558954895,-0.00223558954895,0.00294309551828,0.0106223300099,121.206192017,121.206192017,-8.73608970642,-1.07072722912,2025,2020,2560,2036,2036,2938,3422,3421,3243,3359,3085,3038,3149,3136,3229,2838,3403,3410,3245,3361,3132,3347,3380,3186
1508404824515151276,131,1508404824514990498,plot_matl,0.25,-7000.0,0.252669125795,0.0138132795691,0.0,0.0,0.349065840244,0.0715225115418,-0.00300072040409,0.252596765757,0.00908049102873,0.00908049102873,0.00695120636374,0.0154000716284,-107.209609985,-107.209609985,-53.0172538757,89.5714797974,2010,2039,2130,2024,2024,2686,3308,3333,3136,3281,2997,2968,3045,3077,3157,2945,3385,3378,3223,3278,2934,3270,3301,3021,0.009982143,1.309991333,1.307660733,0.453785598278,4500.0,0.420588374138,0.0187088157982,-0.0331972427666,149.387588501,0.0,6000.0,-0.00300047500059,0.00692090997472,0.0,0.0,0.349065840244,0.0216827709228,-0.000905799563043,0.305676072836,-0.00223558954895,-0.00223558954895,0.00294309551828,0.0106223300099,121.206192017,121.206192017,-8.73608970642,-1.07072722912,2017,2010,2560,2039,2039,2937,3422,3419,3243,3359,3085,3038,3149,3136,3229,2838,3403,3410,3245,3361,3130,3347,3382,3186
1508404824525120867,132,1508404824524989563,plot_matl,0.25,-7000.0,0.252669125795,0.0138132795691,0.0,0.0,0.349065840244,0.0715225115418,-0.00300072040409,0.252596765757,0.00908049102873,0.00908049102873,0.00695120636374,0.0154000716284,-107.209609985,-107.209609985,-53.0172538757,89.5714797974,2017,2044,2130,2024,2024,2686,3308,3333,3135,3284,2995,2967,3044,3081,3159,2944,3387,3382,3223,3278,2934,3270,3301,3021,0.009998534,1.319990629,1.319806488,0.453785598278,4500.0,0.420588374138,0.0187088157982,-0.0331972427666,149.387588501,0.0,6000.0,-0.00300047500059,0.00692090997472,0.0,0.0,0.349065840244,0.0216827709228,-0.000905799563043,0.305676072836,-0.00223558954895,-0.00223558954895,0.00294309551828,0.0106223300099,121.206192017,121.206192017,-8.73608970642,-1.07072722912,2025,2019,2560,2039,2039,2937,3422,3419,3242,3358,3086,3039,3148,3137,3229,2839,3402,3411,3245,3361,3130,3347,3382,3186
1508404824535265148,133,1508404824535008035,plot_matl,0.25,-7000.0,0.252587974072,0.0139568317682,0.0,0.0,0.349065840244,0.0701730325818,-0.00300463358872,0.252587974072,-0.00470594642684,-0.00470594642684,0.00645986245945,0.0139568317682,-106.995864868,-106.995864868,-52.6646232605,89.1493530273,2013,2062,2130,2022,2022,2695,3308,3333,3135,3284,2995,2967,3044,3081,3159,2944,3387,3382,3221,3279,2935,3272,3315,3036,0.010019475,1.33000964,1.332590175,0.453785598278,4500.0,0.419238895178,-0.00941189285368,-0.0345467217267,155.460250854,0.0,6000.0,-0.00300463358872,0.00645986245945,0.0,0.0,0.349065840244,0.0192735753953,-0.000937037111726,0.305733770132,-0.0242053028196,-0.0242053028196,-0.011138102971,0.0093470774591,121.436935425,121.436935425,-8.56462669373,-0.891110122204,2019,2025,2560,2034,2034,2945,3422,3419,3242,3358,3086,3039,3148,3137,3229,2839,3402,3411,3244,3360,3131,3347,3394,3203
1508404824545392071,134,1508404824545017825,plot_matl,0.25,-7000.0,0.252615898848,0.0135952429846,0.0,0.0,0.349065840244,0.0701730325818,-0.00300463358872,0.252587974072,-0.00470594642684,-0.00470594642684,0.00645986245945,0.0139568317682,-106.995864868,-106.995864868,-52.6646232605,89.1493530273,2013,2052,2130,2022,2022,2695,3313,3339,3141,3289,3000,2971,3049,3082,3161,2949,3387,3382,3221,3279,2935,3272,3315,3036,0.010009521,1.340019305,1.341275814,0.453785598278,4500.0,0.419238895178,-0.00916492659599,-0.0345467217267,155.460250854,0.0,6000.0,-0.00299123628065,-0.00714296195656,0.0,0.0,0.349065840244,0.0192735753953,-0.000937037111726,0.305733770132,-0.0242053028196,-0.0242053028196,-0.011138102971,0.0093470774591,121.436935425,121.436935425,-8.56462669373,-0.891110122204,2016,2026,2560,2034,2034,2945,3428,3426,3248,3363,3090,3044,3151,3138,3233,2841,3402,3411,3244,3360,3131,3347,3394,3203
1508404824555181031,135,1508404824554991268,plot_matl,0.25,-7000.0,0.252781569958,0.0104571515694,0.0,0.0,0.349065840244,0.0701730325818,-0.00300463358872,0.252587974072,-0.00470594642684,-0.00470594642684,0.00645986245945,0.0139568317682,-106.995864868,-106.995864868,-52.6646232605,89.1493530273,2012,2054,2130,2022,2022,2695,3313,3339,3141,3289,3000,2971,3049,3082,3161,2949,3390,3382,3224,3281,2937,3271,3305,3023,0.009973447,1.349992367,1.346415345,0.453785598278,4500.0,0.420588374138,0.0177712682635,-0.0331972427666,149.387588501,0.0,6000.0,-0.00296643027104,-0.00756775354967,0.0,0.0,0.349065840244,0.0192735753953,-0.000937037111726,0.305733770132,-0.0242053028196,-0.0242053028196,-0.011138102971,0.0093470774591,121.436935425,121.436935425,-8.56462669373,-0.891110122204,2011,2018,2560,2039,2039,2945,3428,3426,3248,3363,3090,3044,3151,3138,3233,2841,3406,3414,3247,3363,3134,3350,3384,3187
1508404824565282234,136,1508404824564995552,plot_matl,0.25,-7000.0,0.252819865942,0.00989144388586,0.0,0.0,0.349065840244,0.0701730325818,-0.00300463358872,0.252587974072,-0.00470594642684,-0.00470594642684,0.00645986245945,0.0139568317682,-106.995864868,-106.995864868,-52.6646232605,89.1493530273,2020,2040,2130,2022,2022,2688,3310,3334,3137,3283,2998,2967,3047,3080,3161,2949,3390,3382,3224,3281,2937,3271,3305,3023,0.010003099,1.359996584,1.360421464,0.453785598278,4500.0,0.419238895178,-0.00879070349038,-0.0345467217267,155.460250854,0.0,6000.0,-0.00297063915059,0.00600284058601,0.0,0.0,0.349065840244,0.0192735753953,-0.000937037111726,0.305733770132,-0.0242053028196,-0.0242053028196,-0.011138102971,0.0093470774591,121.436935425,121.436935425,-8.56462669373,-0.891110122204,2012,2011,2560,2039,2039,2940,3425,3425,3244,3359,3086,3039,3149,3138,3233,2841,3406,3414,3247,3363,3134,3350,3384,3187
1508404824575355479,137,1508404824575052003,plot_matl,0.25,-7000.0,0.252780348063,0.0108652282506,0.0,0.0,0.349065840244,0.0701730325818,-0.00300463358872,0.252587974072,-0.00470594642684,-0.00470594642684,0.00645986245945,0.0139568317682,-106.995864868,-106.995864868,-52.6646232605,89.1493530273,2020,2034,2130,2022,2022,2688,3310,3334,3137,3283,2998,2967,3047,3080,3161,2948,3387,3382,3224,3280,2937,3273,3301,3021,0.010056271,1.370053246,1.377709127,0.453785598278,4500.0,0.419238895178,-0.00715674413368,-0.0345467217267,155.460250854,0.0,6000.0,-0.00297156861052,0.00608843937516,0.0,0.0,0.349065840244,0.0192735753953,-0.000937037111726,0.305733770132,-0.0242053028196,-0.0242053028196,-0.011138102971,0.0093470774591,121.436935425,121.436935425,-8.56462669373,-0.891110122204,2017,2009,2560,2039,2039,2940,3425,3425,3244,3359,3086,3039,3149,3138,3232,2841,3403,3413,3244,3363,3133,3345,3382,3187
1508404824585401340,138,1508404824585020943,plot_matl,0.25,-7000.0,0.252780556679,0.0110292071477,0.0,0.0,0.349065840244,0.0701730325818,-0.00297156861052,0.252780348063,-0.00357837206684,-0.00357837206684,0.00608843937516,0.0108652282506,-107.131500244,-107.131500244,-52.1259040833,89.5904922485,2009,2034,2131,2019,2019,2688,3307,3333,3135,3282,2995,2967,3047,3080,3161,2948,3387,3382,3224,3280,2937,3273,3301,3021,0.00997018,1.380022584,1.37588484,0.453785598278,4500.0,0.419238895178,-0.00485588656738,-0.0345467217267,155.460250854,0.0,6000.0,-0.00297458772548,0.00619769841433,0.0,0.0,0.349065840244,0.0216827709228,-0.000975187227596,0.305768489838,-0.00213929032907,-0.00213929032907,-0.0107483910397,0.00863626971841,121.472213745,121.472213745,-8.00126647949,-1.05072331429,2015,2013,2560,2035,2035,2939,3422,3420,3243,3358,3084,3038,3149,3138,3232,2841,3403,3413,3244,3363,3133,3345,3382,3187
1508404824595282222,139,1508404824595005617,plot_matl,0.25,-7000.0,0.252750813961,-0.0261555574834,0.0,0.0,0.349065840244,0.0701730325818,-0.00297156861052,0.252780348063,-0.00357837206684,-0.00357837206684,0.00608843937516,0.0108652282506,-107.131500244,-107.131500244,-52.1259040833,89.5904922485,2005,2038,2131,2019,2019,2688,3307,3333,3135,3282,2995,2967,3047,3077,3159,2948,3383,3381,3224,3280,2938,3272,3301,3021,0.009983677,1.39000713,1.387731103,0.453785598278,4500.0,0.420588374138,0.0217439960688,-0.0331972427666,149.387588501,0.0,6000.0,-0.00295367580839,-0.00760853523389,0.0,0.0,0.349065840244,0.0216827709228,-0.000975187227596,0.305768489838,-0.00213929032907,-0.00213929032907,-0.0107483910397,0.00863626971841,121.472213745,121.472213745,-8.00126647949,-1.05072331429,2017,2015,2560,2035,2035,2939,3422,3420,3243,3358,3084,3038,3149,3137,3231,2838,3403,3411,3245,3360,3132,3347,3382,3187
1508404824605241320,140,1508404824605014894,plot_matl,0.25,-7000.0,0.252727746964,0.012334221974,0.0,0.0,0.349065840244,0.0701730325818,-0.00297156861052,0.252780348063,-0.00357837206684,-0.00357837206684,0.00608843937516,0.0108652282506,-107.131500244,-107.131500244,-52.1259040833,89.5904922485,2003,2041,2131,2022,2022,2687,3308,3332,3134,3282,2995,2967,3047,3077,3159,2948,3383,3381,3224,3280,2938,3272,3301,3021,0.010008841,1.400016382,1.40123774,0.453785598278,4500.0,0.419238895178,-0.00454125739634,-0.0345467217267,155.460250854,0.0,6000.0,-0.00293693481945,0.00547229871154,0.0,0.0,0.349065840244,0.0216827709228,-0.000975187227596,0.305768489838,-0.00213929032907,-0.00213929032907,-0.0107483910397,0.00863626971841,121.472213745,121.472213745,-8.00126647949,-1.05072331429,2009,2012,2561,2040,2040,2938,3421,3424,3243,3360,3084,3038,3149,3137,3231,2838,3403,3411,3245,3360,3132,3347,3382,3187
1508404824615300931,141,1508404824614994539,plot_matl,0.25,-7000.0,0.252672731876,-0.0244185999036,0.0,0.0,0.349065840244,0.0701730325818,-0.00297458772548,0.252780556679,-0.00242794328369,-0.00242794328369,0.00619769841433,0.0110292071477,-107.107841492,-107.107841492,-52.1049575806,89.1404190063,1993,2043,2131,2022,2022,2687,3308,3332,3134,3282,2995,2968,3046,3080,3159,2949,3385,3381,3221,3279,2938,3272,3301,3021,0.009978948,1.409995776,1.407031668,0.453785598278,4500.0,0.419238895178,-0.00475077051669,-0.0345467217267,155.460250854,0.0,6000.0,-0.00297124753706,-0.007231998723,0.0,0.0,0.349065840244,0.0216827709228,-0.000951519992668,0.305780977011,-0.00217480631545,-0.00217480631545,0.00405085785314,0.00836477987468,121.562278748,121.562278748,-7.93064641953,-0.964186549187,2009,2013,2561,2040,2040,2938,3421,3424,3243,3360,3085,3038,3147,3137,3233,2840,3404,3411,3246,3362,3132,3347,3382,3187
1508404824625582107,142,1508404824625077647,plot_matl,0.25,-7000.0,0.252761989832,0.0117147797719,0.0,0.0,0.349065840244,0.0701730325818,-0.00297124753706,0.252672731876,-0.00237538525835,-0.00237538525835,-0.007231998723,-0.0244185999036,-107.163734436,-107.163734436,-52.1765480042,89.6598510742,2014,2055,2131,2019,2019,2688,3309,3331,3134,3282,2995,2968,3046,3080,3159,2949,3385,3381,3221,3279,2937,3271,3300,3022,0.01008524,1.420079503,1.43210408,0.453785598278,4500.0,0.417889386415,-0.0330840498209,-0.035896204412,161.532928467,0.0,6000.0,-0.00296359998174,0.00606660405174,0.0,0.0,0.349065840244,0.0216827709228,-0.000978128868155,0.305837064981,-0.00231507746503,-0.00231507746503,0.00449547590688,0.0072595900856,121.562980652,121.562980652,-7.52035570145,-0.685835719109,2021,2026,2561,2038,2038,2940,3423,3424,3243,3360,3085,3038,3147,3137,3233,2840,3404,3411,3246,3362,3130,3347,3381,3184
1508404824635480920,143,1508404824635032564,plot_matl,0.25,-7000.0,0.252736121416,0.0123179629445,0.0,0.0,0.349065840244,0.0701730325818,-0.00297124753706,0.252672731876,-0.00237538525835,-0.00237538525835,-0.007231998723,-0.0244185999036,-107.163734436,-107.163734436,-52.1765480042,89.6598510742,2012,2055,2131,2019,2019,2688,3309,3331,3137,3284,2995,2968,3047,3078,3160,2948,3384,3380,3221,3279,2937,3271,3300,3022,0.009954245,1.430034871,1.423457035,0.453785598278,4500.0,0.420588374138,0.0189377591014,-0.0331972427666,149.387588501,0.0,6000.0,-0.00296539789997,0.00613419525325,0.0,0.0,0.349065840244,0.0216827709228,-0.000978128868155,0.305837064981,-0.00231507746503,-0.00231507746503,0.00449547590688,0.0072595900856,121.562980652,121.562980652,-7.52035570145,-0.685835719109,2019,2023,2561,2038,2038,2940,3423,3424,3243,3361,3086,3039,3149,3136,3230,2841,3404,3412,3246,3362,3130,3347,3381,3184
1508404824645130049,144,1508404824644993019,plot_matl,0.25,-7000.0,0.252716869116,0.0127678290009,0.0,0.0,0.349065840244,0.0701730325818,-0.00297124753706,0.252672731876,-0.00237538525835,-0.00237538525835,-0.007231998723,-0.0244185999036,-107.163734436,-107.163734436,-52.1765480042,89.6598510742,2009,2043,2132,2020,2020,2687,3309,3331,3137,3284,2995,2968,3047,3078,3160,2948,3384,3380,3222,3279,2936,3270,3300,3022,0.009957383,1.439993962,1.433863152,0.453785598278,4500.0,0.419238895178,-0.00726927211508,-0.0345467217267,155.460250854,0.0,6000.0,-0.00295554078184,0.00597117142752,0.0,0.0,0.349065840244,0.0216827709228,-0.000978128868155,0.305837064981,-0.00231507746503,-0.00231507746503,0.00449547590688,0.0072595900856,121.562980652,121.562980652,-7.52035570145,-0.685835719109,2013,2016,2561,2037,2037,2939,3423,3424,3243,3361,3086,3039,3149,3136,3230,2841,3404,3412,3244,3361,3130,3346,3382,3187
1508404824655405713,145,1508404824655002884,plot_matl,0.25,-7000.0,0.252726346254,0.012578163296,0.0,0.0,0.349065840244,0.0701730325818,-0.00293981377035,0.252726346254,-0.00345733202994,-0.00345733202994,0.00563611043617,0.012578163296,-107.103103638,-107.103103638,-51.9310951233,89.4648742676,2011,2058,2132,2020,2020,2687,3309,3334,3136,3282,2995,2967,3046,3079,3160,2948,3384,3380,3222,3279,2936,3270,3300,3022,0.010010592,1.450004189,1.45153584,0.453785598278,4500.0,0.419238895178,-0.00691466405988,-0.0345467217267,155.460250854,0.0,6000.0,-0.00293981377035,0.00563611043617,0.0,0.0,0.349065840244,0.0216827709228,-0.000959376979154,0.305846303701,-0.00338392029516,-0.00338392029516,-0.0112515771762,0.00699977902696,121.276924133,121.276924133,-7.74914932251,-0.873258471489,2018,2024,2561,2037,2037,2939,3421,3424,3245,3359,3084,3038,3147,3136,3231,2839,3404,3412,3244,3361,3130,3346,3382,3187
1508404824665434462,146,1508404824665007002,plot_matl,0.25,-7000.0,0.252771675587,0.0117118954659,0.0,0.0,0.349065840244,0.0701730325818,-0.00293981377035,0.252726346254,-0.00345733202994,-0.00345733202994,0.00563611043617,0.012578163296,-107.103103638,-107.103103638,-51.9310951233,89.4648742676,2030,2071,2131,2019,2019,2687,3309,3334,3136,3282,2995,2967,3046,3079,3160,2948,3385,3381,3223,3282,2935,3274,3303,3020,0.010003843,1.460008543,1.460561078,0.453785598278,4500.0,0.420588374138,0.0200828816742,-0.0331972427666,149.387588501,0.0,6000.0,-0.00293647916988,-0.00785236340016,0.0,0.0,0.349065840244,0.0216827709228,-0.000959376979154,0.305846303701,-0.00338392029516,-0.00338392029516,-0.0112515771762,0.00699977902696,121.276924133,121.276924133,-7.74914932251,-0.873258471489,2031,2037,2560,2037,2037,2939,3421,3424,3245,3359,3084,3038,3147,3136,3231,2839,3403,3411,3244,3361,3132,3347,3381,3186
1508404824675535144,147,1508404824675009928,plot_matl,0.25,-7000.0,0.252840429544,-0.0275719780475,0.0,0.0,0.349065840244,0.0701730325818,-0.00293981377035,0.252726346254,-0.00345733202994,-0.00345733202994,0.00563611043617,0.012578163296,-107.103103638,-107.103103638,-51.9310951233,89.4648742676,2029,2056,2131,2019,2019,2687,3309,3331,3137,3282,2996,2967,3045,3079,3160,2948,3385,3381,3223,3282,2935,3274,3303,3020,0.010004624,1.47001224,1.470679728,0.453785598278,4500.0,0.419238895178,-0.00586508400738,-0.0345467217267,155.460250854,0.0,6000.0,-0.00299280858599,-0.00669598439708,0.0,0.0,0.349065840244,0.0216827709228,-0.000959376979154,0.305846303701,-0.00338392029516,-0.00338392029516,-0.0112515771762,0.00699977902696,121.276924133,121.276924133,-7.74914932251,-0.873258471489,2027,2024,2560,2037,2037,2941,3424,3420,3243,3359,3086,3037,3148,3138,3231,2839,3403,3411,3244,3361,3132,3347,3381,3186
1508404824685245725,148,1508404824684998799,plot_matl,0.25,-7000.0,0.252798259258,-0.0266827829182,0.0,0.0,0.349065840244,0.0701730325818,-0.00293981377035,0.252726346254,-0.00345733202994,-0.00345733202994,0.00563611043617,0.012578163296,-107.103103638,-107.103103638,-51.9310951233,89.4648742676,2047,2067,2131,2019,2019,2687,3309,3331,3137,3282,2996,2967,3045,3079,3160,2949,3385,3379,3222,3281,2937,3270,3299,3020,0.009985803,1.479999931,1.477898844,0.453785598278,4500.0,0.419238895178,-0.00524176377803,-0.0345467217267,155.460250854,0.0,6000.0,-0.00299348914996,-0.00667187012732,0.0,0.0,0.349065840244,0.0216827709228,-0.000959376979154,0.305846303701,-0.00338392029516,-0.00338392029516,-0.0112515771762,0.00699977902696,121.276924133,121.276924133,-7.74914932251,-0.873258471489,2039,2037,2560,2037,2037,2941,3424,3420,3243,3359,3086,3037,3148,3138,3229,2841,3404,3411,3245,3362,3131,3344,3380,3188
1508404824695314907,149,1508404824695010317,plot_matl,0.25,-7000.0,0.252828121185,-0.0272858627141,0.0,0.0,0.349065840244,0.0701730325818,-0.00293981377035,0.252726346254,-0.00345733202994,-0.00345733202994,0.00563611043617,0.012578163296,-107.103103638,-107.103103638,-51.9310951233,89.4648742676,2047,2067,2131,2019,2019,2687,3309,3331,3137,3282,2996,2967,3045,3079,3160,2949,3385,3379,3222,3281,2937,3270,3299,3020,0.010012607,1.490012007,1.491878443,0.453785598278,4500.0,0.419238895178,-0.00476490659639,-0.0345467217267,155.460250854,0.0,6000.0,-0.00300623802468,-0.00642338488251,0.0,0.0,0.349065840244,0.0216827709228,-0.000959376979154,0.305846303701,-0.00338392029516,-0.00338392029516,-0.0112515771762,0.00699977902696,121.276924133,121.276924133,-7.74914932251,-0.873258471489,2039,2037,2560,2037,2037,2941,3424,3420,3243,3359,3086,3037,3148,3138,3229,2841,3404,3411,3245,3362,3131,3344,3380,3188
1508404824705396281,150,1508404824705012275,plot_matl,0.25,-7000.0,0.252705872059,0.013312343508,0.0,0.0,0.349065840244,0.0701730325818,-0.00299348914996,0.252798259258,-0.00262088188902,-0.00262088188902,-0.00667187012732,-0.0266827829182,-107.166282654,-107.166282654,-51.9403877258,88.6127471924,2044,2074,2131,2017,2017,2686,3307,3330,3137,3283,2996,2980,3045,3079,3160,2949,3385,3379,3222,3281,2937,3270,3299,3020,0.010002224,1.500014422,1.5003336,0.453785598278,4500.0,0.419238895178,-0.00431903172284,-0.0345467217267,155.460250854,0.0,6000.0,-0.00305184605531,-0.00543174194172,0.0,0.0,0.349065840244,0.0216827709228,-0.00100556737743,0.305833816528,-0.00156488805078,-0.00156488805078,0.00502576259896,-0.0545424334705,121.136665344,121.136665344,-7.8599357605,-1.16863489151,2050,2043,2561,2038,2038,2937,3423,3421,3242,3358,3086,3052,3148,3138,3229,2841,3404,3411,3245,3362,3131,3344,3380,3188
1508404824715296235,151,1508404824715064576,plot_matl,0.25,-7000.0,0.252759069204,0.0122000714764,0.0,0.0,0.349065840244,0.0701730325818,-0.00299348914996,0.252798259258,-0.00262088188902,-0.00262088188902,-0.00667187012732,-0.0266827829182,-107.166282654,-107.166282654,-51.9403877258,88.6127471924,2041,2089,2131,2017,2017,2686,3307,3330,3137,3283,2996,2980,3058,3091,3170,2957,3397,3388,3230,3287,2942,3277,3299,3020,0.01004958,1.510065833,1.51748658,0.453785598278,4500.0,0.419238895178,-0.00502556422725,-0.0345467217267,155.460250854,0.0,6000.0,-0.00306600704789,-0.00516640301794,0.0,0.0,0.349065840244,0.0216827709228,-0.00100556737743,0.305833816528,-0.00156488805078,-0.00156488805078,0.00502576259896,-0.0545424334705,121.136665344,121.136665344,-7.8599357605,-1.16863489151,2041,2046,2561,2038,2038,2937,3423,3421,3242,3358,3086,3052,3161,3147,3241,2849,3413,3420,3252,3368,3137,3350,3380,3188
1508404824725522194,152,1508404824725016463,plot_matl,0.25,-7000.0,0.252759069204,0.0122000714764,0.0,0.0,0.349065840244,0.0701730325818,-0.00299348914996,0.252798259258,-0.00262088188902,-0.00262088188902,-0.00667187012732,-0.0266827829182,-107.166282654,-107.166282654,-51.9403877258,88.6127471924,2020,2072,2132,2018,2018,2689,3311,3333,3139,3285,2996,2980,3058,3091,3170,2957,3397,3388,3230,3287,2942,3277,3306,3027,0.009954698,1.520018915,1.513114096,0.453785598278,4500.0,0.419238895178,-0.00502556422725,-0.0345467217267,155.460250854,0.0,6000.0,-0.00306600704789,-0.00516640301794,0.0,0.0,0.349065840244,0.0216827709228,-0.00100556737743,0.305833816528,-0.00156488805078,-0.00156488805078,0.00502576259896,-0.0545424334705,121.136665344,121.136665344,-7.8599357605,-1.16863489151,2024,2035,2560,2037,2037,2941,3427,3426,3244,3362,3086,3052,3161,3147,3241,2849,3413,3420,3252,3368,3137,3350,3385,3190
1508404824735443314,153,1508404824735013715,plot_matl,0.25,-7000.0,0.252560019493,-0.0241248663515,0.0,0.0,0.349065840244,0.0701730325818,-0.00300623802468,0.252828121185,-0.0023824532982,-0.0023824532982,-0.00642338488251,-0.0272858627141,-107.17881012,-107.17881012,-52.1344795227,88.8475265503,2020,2072,2132,2018,2018,2689,3311,3333,3139,3285,2996,2980,3058,3091,3170,2957,3397,3388,3230,3287,2942,3277,3306,3027,0.009995699,1.530015551,1.529341947,0.453785598278,4500.0,0.419238895178,-0.00410714186728,-0.0345467217267,155.460250854,0.0,6000.0,-0.00301304436289,-0.00630862917751,0.0,0.0,0.349065840244,0.0216827709228,-0.00100145151373,0.305786699057,7.44994831621e-05,7.44994831621e-05,0.0049185748212,0.00824446044862,121.292030334,121.292030334,-7.85152387619,-1.12064182758,2024,2035,2560,2037,2037,2941,3427,3426,3244,3362,3086,3052,3161,3147,3241,2849,3413,3420,3252,3368,3137,3350,3385,3190
1508404824745685717,154,1508404824745083061,plot_matl,0.25,-7000.0,0.252566993237,0.0140174981207,0.0,0.0,0.349065840244,0.0701730325818,-0.00300623802468,0.252828121185,-0.0023824532982,-0.0023824532982,-0.00642338488251,-0.0272858627141,-107.17881012,-107.17881012,-52.1344795227,88.8475265503,2037,2075,2132,2018,2018,2689,3311,3333,3139,3285,2997,2969,3065,3093,3173,2960,3400,3392,3234,3289,2942,3277,3306,3027,0.010070123,1.540085063,1.550798942,0.453785598278,4500.0,0.419238895178,-0.0023540572729,-0.0345467217267,155.460250854,0.0,6000.0,-0.00304650142789,-0.00563028920442,0.0,0.0,0.349065840244,0.0216827709228,-0.00100145151373,0.305786699057,7.44994831621e-05,7.44994831621e-05,0.0049185748212,0.00824446044862,121.292030334,121.292030334,-7.85152387619,-1.12064182758,2036,2039,2560,2037,2037,2941,3427,3426,3244,3362,3086,3040,3168,3153,3247,2852,3417,3422,3255,3369,3137,3350,3385,3190
1508404824755453294,155,1508404824755002077,plot_matl,0.25,-7000.0,0.252537310123,0.0149256177247,0.0,0.0,0.349065840244,0.0701730325818,-0.00300623802468,0.252828121185,-0.0023824532982,-0.0023824532982,-0.00642338488251,-0.0272858627141,-107.17881012,-107.17881012,-52.1344795227,88.8475265503,2023,2050,2132,2021,2021,2691,3314,3338,3139,3285,2997,2969,3065,3093,3173,2960,3400,3392,3234,3289,2945,3279,3309,3028,0.009916355,1.550003246,1.537035025,0.453785598278,4500.0,0.419238895178,-0.00143268273678,-0.0345467217267,155.460250854,0.0,6000.0,-0.00304860831238,-0.00558052770793,0.0,0.0,0.349065840244,0.0216827709228,-0.00100145151373,0.305786699057,7.44994831621e-05,7.44994831621e-05,0.0049185748212,0.00824446044862,121.292030334,121.292030334,-7.85152387619,-1.12064182758,2028,2023,2560,2039,2039,2944,3426,3425,3244,3362,3086,3040,3168,3153,3247,2852,3417,3422,3255,3369,3140,3354,3391,3190
1508404824765169090,156,1508404824764997303,plot_matl,0.25,-7000.0,0.252449810505,-0.0209191087633,0.0,0.0,0.349065840244,0.0701730325818,-0.00300623802468,0.252828121185,-0.0023824532982,-0.0023824532982,-0.00642338488251,-0.0272858627141,-107.17881012,-107.17881012,-52.1344795227,88.8475265503,2018,2048,2132,2021,2021,2691,3314,3338,3141,3288,2998,2968,3049,3081,3161,2948,3388,3381,3234,3289,2945,3279,3309,3028,0.009994598,1.559998407,1.559157288,0.453785598278,4500.0,0.419238895178,-0.00166219868697,-0.0345467217267,155.460250854,0.0,6000.0,-0.00305059598759,-0.00552560621873,0.0,0.0,0.349065840244,0.0216827709228,-0.00100145151373,0.305786699057,7.44994831621e-05,7.44994831621e-05,0.0049185748212,0.00824446044862,121.292030334,121.292030334,-7.85152387619,-1.12064182758,2024,2028,2560,2039,2039,2944,3426,3425,3247,3362,3087,3043,3151,3137,3234,2842,3405,3413,3255,3369,3140,3354,3391,3190
1508404824775170944,157,1508404824774992188,plot_matl,0.25,-7000.0,0.252381443977,0.0186296049505,0.0,0.0,0.349065840244,0.0715225115418,-0.00300060282461,0.252566426992,0.0114917373285,0.0114917373285,-0.00656240759417,0.0135637186468,-106.835624695,-106.835624695,-51.5559806824,88.664642334,2026,2060,2131,2023,2023,2687,3314,3338,3141,3288,2998,2968,3049,3081,3161,2948,3388,3381,3225,3280,2937,3272,3304,3020,0.009994218,1.569993066,1.569092226,0.453785598278,4500.0,0.419238895178,-0.00182191771455,-0.0345467217267,155.460250854,0.0,6000.0,-0.0030255834572,0.00739870918915,0.0,0.0,0.349065840244,0.0216827709228,-0.000910118687898,0.305944085121,0.00222885468975,0.00222885468975,0.00454379618168,0.00536702107638,120.803504944,120.803504944,-7.8191409111,-1.96117579937,2030,2028,2560,2037,2037,2938,3426,3425,3247,3362,3087,3043,3151,3137,3234,2842,3405,3413,3247,3366,3133,3347,3382,3187
1508404824785402869,158,1508404824785036642,plot_matl,0.25,-7000.0,0.252457529306,0.0173226073384,0.0,0.0,0.349065840244,0.0715225115418,-0.00300060282461,0.252566426992,0.0114917373285,0.0114917373285,-0.00656240759417,0.0135637186468,-106.835624695,-106.835624695,-51.5559806824,88.664642334,2002,2038,2131,2023,2023,2687,3309,3335,3136,3284,2995,2969,3046,3080,3160,2947,3388,3381,3225,3280,2937,3272,3304,3020,0.010046052,1.580038247,1.587276216,0.453785598278,4500.0,0.420588374138,0.0247371960431,-0.0331972427666,149.387588501,0.0,6000.0,-0.00301978131756,-0.00613389909267,0.0,0.0,0.349065840244,0.0216827709228,-0.000910118687898,0.305944085121,0.00222885468975,0.00222885468975,0.00454379618168,0.00536702107638,120.803504944,120.803504944,-7.8191409111,-1.96117579937,2013,2012,2560,2037,2037,2938,3424,3424,3243,3360,3085,3040,3150,3137,3231,2841,3405,3413,3247,3366,3133,3347,3382,3187
1508404824795309036,159,1508404824795017051,plot_matl,0.25,-7000.0,0.252550184727,0.0155729912221,0.0,0.0,0.349065840244,0.0715225115418,-0.00300060282461,0.252566426992,0.0114917373285,0.0114917373285,-0.00656240759417,0.0135637186468,-106.835624695,-106.835624695,-51.5559806824,88.664642334,2013,2058,2131,2022,2022,2687,3309,3335,3136,3284,2995,2969,3046,3080,3160,2947,3387,3382,3225,3280,2937,3272,3303,3020,0.009979627,1.590018812,1.586760693,0.453785598278,4500.0,0.419238895178,-0.00256908126175,-0.0345467217267,155.460250854,0.0,6000.0,-0.00298927840777,-0.006744006183,0.0,0.0,0.349065840244,0.0216827709228,-0.000910118687898,0.305944085121,0.00222885468975,0.00222885468975,0.00454379618168,0.00536702107638,120.803504944,120.803504944,-7.8191409111,-1.96117579937,2019,2023,2560,2041,2041,2938,3424,3424,3243,3360,3085,3040,3150,3137,3231,2841,3404,3410,3245,3363,3132,3350,3383,3186
