%time,field.header.seq,field.header.stamp,field.header.frame_id,field.FFJ4_set_point,field.FFJ4_position_gain,field.FFJ4_process_value,field.FFJ4_process_value_dot,field.FFJ4_error,field.FFJ4_command,field.FFJ1,field.FFJ2,field.FFJ3,field.FFJ4,field.FFJ1_dot,field.FFJ2_dot,field.FFJ3_dot,field.FFJ4_dot,field.FFJ1_tao,field.FFJ2_tao,field.FFJ3_tao,field.FFJ4_tao,field.pac0,field.pac1,field.pdc0,field.tac0,field.tdc0,field.el0,field.el1,field.el2,field.el3,field.el4,field.el5,field.el6,field.el7,field.el8,field.el9,field.el10,field.el11,field.el12,field.el13,field.el14,field.el15,field.el16,field.el17,field.el18,field.dt,field.time,field.test_time2,field.FFJ0_set_point,field.FFJ0_position_gain,field.FFJ0_process_value,field.FFJ0_process_value_dot,field.FFJ0_error,field.FFJ0_command,field.FFJ3_set_point,field.FFJ3_position_gain,field.FFJ3_process_value,field.FFJ3_process_value_dot,field.FFJ3_error,field.FFJ3_command,field.MFJ1,field.MFJ2,field.MFJ3,field.MFJ4,field.MFJ1_dot,field.MFJ2_dot,field.MFJ3_dot,field.MFJ4_dot,field.MFJ1_tao,field.MFJ2_tao,field.MFJ3_tao,field.MFJ4_tao,field.Mpac0,field.Mpac1,field.Mpdc0,field.Mtac0,field.Mtdc0,field.Mel0,field.Mel1,field.Mel2,field.Mel3,field.Mel4,field.Mel5,field.Mel6,field.Mel7,field.Mel8,field.Mel9,field.Mel10,field.Mel11,field.Mel12,field.Mel13,field.Mel14,field.Mel15,field.Mel16,field.Mel17,field.Mel18
1508403300833665457,103,1508403300833123895,plot_matl,0.25,-1000.0,0.197138592601,0.0362085662782,-0.0528613999486,-44.0616950989,0.349065840244,0.0242906641215,-0.0115901790559,0.197133690119,-0.00701049901545,-0.00701049901545,0.005946574267,-0.00156637898181,-78.5568771362,-78.5568771362,0.681536912918,109.683761597,2009,2061,2143,2026,2026,2611,3288,3319,3119,3275,2981,2954,3028,3080,3154,2995,3396,3387,3242,3287,2952,3269,3300,3020,0.00999494,1.030065265,1.02947882,0.401425719261,4500.0,0.37470600009,0.0134563501924,-0.02671973221,120.238792419,0.0,6000.0,-0.0115944817662,-0.00738499080762,-0.0115944817662,71.813583374,0.349065840244,0.0240919683129,-0.0282759126276,0.307389289141,-0.0044565028511,-0.0044565028511,0.00350894569419,-0.0242006666958,154.239471436,154.239471436,-230.451202393,-67.2516784668,2009,2022,2635,2032,2032,3068,3444,3443,3297,3380,3127,3009,3149,3094,3221,2695,3375,3395,3221,3354,3120,3344,3386,3193
1508403300843333480,104,1508403300843089783,plot_matl,0.25,-1000.0,0.197123274207,-0.00136367522646,-0.0528767183423,-53.216381073,0.349065840244,0.0256401468068,-0.0116236777976,0.197050228715,0.00593847129494,0.00593847129494,-0.00682552577928,-0.0377103500068,-78.6165084839,-78.6165084839,0.725762665272,109.569320679,2037,2083,2143,2026,2026,2611,3288,3319,3119,3275,2982,2952,3030,3082,3154,2993,3396,3390,3245,3286,2952,3269,3300,3020,0.009963376,1.040030366,1.036191104,0.401425719261,4500.0,0.37470600009,0.0120515814051,-0.02671973221,120.238792419,0.0,6000.0,-0.0116025861353,-0.00725309271365,-0.0116025861353,71.7863311768,0.349065840244,0.0265011657029,-0.0282896645367,0.307455092669,0.0188913550228,0.0188913550228,-0.0116070769727,-0.025367256254,154.353897095,154.353897095,-230.523452759,-67.2786712646,2038,2047,2635,2032,2032,3068,3444,3443,3297,3380,3127,3008,3148,3093,3222,2695,3376,3396,3220,3354,3120,3344,3386,3193
1508403300853434021,105,1508403300853085085,plot_matl,0.25,-1000.0,0.197050631046,0.000159219765919,-0.0529493652284,-52.9358978271,0.349065840244,0.0269896276295,-0.0115865161642,0.197050794959,0.0191798657179,0.0191798657179,0.00584679236636,0.000149828119902,-78.6189041138,-78.6189041138,0.706168174744,109.53780365,2012,2038,2143,2029,2029,2608,3287,3319,3119,3275,2982,2952,3030,3082,3154,2993,3396,3390,3245,3286,2954,3268,3300,3021,0.0099961,1.050026325,1.0495905,0.401425719261,4500.0,0.37605547905,0.0385318547487,-0.0253702495247,114.166122437,0.0,6000.0,-0.0116047319025,0.00621328642592,-0.0116047319025,67.6789550781,0.349065840244,0.0240919683129,-0.0283237025142,0.307352632284,-0.0067051788792,-0.0067051788792,0.00446426030248,0.0386702530086,154.382003784,154.382003784,-230.628753662,-67.238319397,2024,2015,2635,2032,2032,3068,3444,3443,3297,3380,3127,3008,3148,3093,3222,2695,3376,3396,3220,3354,3119,3345,3385,3194
1508403300863409889,106,1508403300863056288,plot_matl,0.25,-1000.0,0.197054848075,0.0379761494696,-0.0529451556504,-43.8062858582,0.349065840244,0.0256401468068,-0.0115799522027,0.197054758668,0.00577756110579,0.00577756110579,0.0057494645007,5.13037666678e-05,-78.5569992065,-78.5569992065,0.655681669712,109.591026306,1939,1963,2143,2029,2029,2608,3287,3319,3117,3275,2982,2954,3029,3082,3155,2998,3397,3390,3245,3286,2954,3268,3300,3021,0.009970257,1.059997148,1.056847242,0.401425719261,4500.0,0.37470600009,0.011715057306,-0.02671973221,120.238792419,0.0,6000.0,-0.0115975029767,-0.00732185086235,-0.0115975029767,71.7956771851,0.349065840244,0.0240919683129,-0.028337650001,0.307585179806,-0.0071848584339,-0.0071848584339,-0.0105704991147,0.0339658483863,154.382980347,154.382980347,-230.547454834,-67.0562438965,1968,1964,2635,2032,2032,3068,3444,3443,3298,3380,3126,3008,3149,3093,3222,2700,3374,3396,3220,3354,3119,3345,3385,3194
1508403300873376502,107,1508403300873062722,plot_matl,0.25,-1000.0,0.197054564953,4.45442055934e-05,-0.0529454387724,-52.9513473511,0.349065840244,0.0242906641215,-0.0115890428424,0.197054490447,-0.00767400162295,-0.00767400162295,0.00592852476984,4.19997741119e-05,-78.5472869873,-78.5472869873,0.712134063244,109.611618042,1959,1978,2144,2030,2030,2605,3287,3319,3117,3275,2982,2954,3029,3082,3155,2998,3397,3390,3247,3288,2956,3268,3299,3021,0.010005983,1.070003531,1.070640181,0.401425719261,4500.0,0.37335652113,-0.0151862902567,-0.0280692130327,126.311454773,0.0,6000.0,-0.0115805985406,-0.0076657216996,-0.0115805985406,71.7107925415,0.349065840244,0.0240919683129,-0.0283221211284,0.307503372431,-0.0067516262643,-0.0067516262643,0.00445538619533,0.0355843640864,154.330047607,154.330047607,-230.857666016,-67.1831359863,1977,1977,2637,2036,2036,3067,3444,3443,3298,3380,3126,3008,3149,3093,3222,2700,3374,3396,3222,3356,3121,3344,3387,3195
1508403300883253095,108,1508403300883041554,plot_matl,0.25,-1000.0,0.196980774403,-0.0364340059459,-0.0530192218721,-62.0671195984,0.349065840244,0.0256401468068,-0.0115712592378,0.196984961629,0.00609532883391,0.00609532883391,0.00556467287242,0.00139689364005,-78.5571975708,-78.5571975708,0.759128928185,109.357673645,1992,2033,2144,2030,2030,2605,3287,3320,3115,3274,2982,2953,3029,3081,3153,2999,3397,3390,3247,3288,2956,3268,3299,3021,0.009977522,1.07998167,1.077572376,0.401425719261,4500.0,0.37470600009,0.0123868677765,-0.02671973221,120.238792419,0.0,6000.0,-0.0115881161764,0.00590533902869,-0.0115881161764,67.6969528198,0.349065840244,0.0240919683129,-0.0283254832029,0.307495564222,-0.00599209498614,-0.00599209498614,-0.0108300689608,0.0356938205659,154.305053711,154.305053711,-231.140411377,-67.3648452759,2005,2005,2637,2036,2036,3067,3444,3442,3298,3379,3128,3008,3148,3093,3224,2702,3374,3396,3222,3356,3121,3344,3387,3195
1508403300893242722,109,1508403300893037590,plot_matl,0.25,-1000.0,0.196993604302,0.00118749402463,-0.0530063956976,-52.7178192139,0.349065840244,0.0256401468068,-0.0115580726415,0.197033405304,0.00644682114944,0.00644682114944,0.00527915824205,0.0382880717516,-78.5977478027,-78.5977478027,0.62201744318,109.334495544,2004,2055,2144,2030,2030,2605,3287,3320,3115,3274,2982,2953,3029,3081,3153,2999,3399,3389,3245,3288,2957,3266,3300,3022,0.009995764,1.089977907,1.089538276,0.401425719261,4500.0,0.37335652113,-0.0141213024035,-0.0280692130327,126.311454773,0.0,6000.0,-0.0115601727739,0.0053266743198,-0.0115601727739,67.7642593384,0.349065840244,0.0265011657029,-0.0282855145633,0.307483762503,0.0176769606769,0.0176769606769,0.00370198441669,0.0359629094601,154.265563965,154.265563965,-230.867034912,-67.1335067749,2011,2018,2637,2035,2035,3067,3444,3442,3298,3379,3128,3008,3148,3093,3224,2702,3376,3396,3224,3357,3121,3344,3387,3195
1508403300903557951,110,1508403300903132501,plot_matl,0.25,-1000.0,0.197036013007,0.000327448913595,-0.0529639907181,-52.8801460266,0.349065840244,0.0269896276295,-0.0115481372923,0.197037011385,0.0201092045754,0.0201092045754,-0.00833695195615,0.000308341433993,-78.5756072998,-78.5756072998,0.580507397652,109.207191467,2009,2050,2144,2030,2030,2606,3287,3320,3117,3275,2983,2954,3029,3081,3153,2999,3399,3389,3245,3288,2957,3266,3300,3022,0.010097724,1.100073657,1.11074964,0.401425719261,4500.0,0.37335652113,-0.0134865986183,-0.0280692130327,126.311454773,0.0,6000.0,-0.0115363691002,0.00484481547028,-0.0115363691002,67.7610549927,0.349065840244,0.0265011657029,-0.028281679377,0.307410776615,0.0179659128189,0.0179659128189,-0.0117282299325,-0.0244479626417,154.312011719,154.312011719,-230.714508057,-67.0709228516,2021,2025,2637,2035,2035,3066,3445,3442,3297,3381,3128,3006,3148,3093,3224,2702,3376,3396,3224,3357,3121,3344,3387,3195
1508403300913495268,111,1508403300913083459,plot_matl,0.25,-1000.0,0.197074383497,0.037448450923,-0.0529256090522,-44.4017181396,0.349065840244,0.0256401468068,-0.0115399574861,0.197073161602,0.00532139185816,0.00532139185816,-0.00849921535701,-0.000437747279648,-78.5593414307,-78.5593414307,0.509028434753,109.252326965,1993,2021,2144,2030,2030,2606,3287,3320,3117,3275,2983,2954,3029,3081,3156,2995,3399,3390,3247,3289,2957,3267,3300,3023,0.009948827,1.110024304,1.104319797,0.401425719261,4500.0,0.37605547905,0.0385648831725,-0.0253702495247,114.166122437,0.0,6000.0,-0.0115273743868,0.00466917688027,-0.0115273743868,67.8351974487,0.349065840244,0.0240919683129,-0.0282892454416,0.307364284992,-0.0065942145884,-0.0065942145884,0.00377974612638,0.0383112505078,154.32963562,154.32963562,-230.262359619,-66.9962768555,2010,2006,2637,2035,2035,3066,3445,3442,3297,3381,3128,3006,3148,3093,3222,2700,3375,3397,3224,3355,3122,3345,3385,3194
1508403300923244087,112,1508403300923057570,plot_matl,0.25,-1000.0,0.19707429409,-0.00046945901704,-0.0529256984591,-53.0337715149,0.349065840244,0.0242906641215,-0.0115077514201,0.197073116899,-0.00828799419105,-0.00828799419105,0.00427249073982,-0.000442864489742,-78.5669403076,-78.5669403076,0.235983207822,109.351509094,2018,2060,2145,2030,2030,2608,3287,3321,3117,3273,2983,2954,3029,3081,3156,2995,3399,3390,3247,3289,2957,3267,3300,3023,0.00997238,1.119997775,1.11690656,0.401425719261,4500.0,0.37470600009,0.0102277956903,-0.02671973221,120.238792419,0.0,6000.0,-0.0115204732865,0.0045290584676,-0.0115204732865,67.678062439,0.349065840244,0.0240919683129,-0.0283108241856,0.30726146698,-0.00623587472364,-0.00623587472364,0.00417554192245,-0.0215340852737,154.270004272,154.270004272,-230.013748169,-66.7837295532,2020,2026,2638,2038,2038,3066,3444,3444,3298,3379,3127,3007,3148,3093,3222,2700,3375,3397,3224,3355,3122,3345,3385,3194
1508403300933316780,113,1508403300933082274,plot_matl,0.25,-1000.0,0.197140038013,-0.00176559668034,-0.0528599582613,-53.2609367371,0.349065840244,0.0242906641215,-0.0115410219878,0.197135001421,-0.00772225484252,-0.00772225484252,-0.00847262796015,-0.00166290253401,-78.4979171753,-78.4979171753,-0.022409023717,109.565391541,2049,2088,2145,2030,2030,2608,3287,3321,3117,3273,2983,2954,3029,3081,3152,2997,3396,3389,3245,3289,2957,3267,3300,3023,0.010026691,1.130023344,1.133016083,0.401425719261,4500.0,0.37335652113,-0.0158477444202,-0.0280692130327,126.311454773,0.0,6000.0,-0.0115288468078,-0.00872477795929,-0.0115288468078,71.6666488647,0.349065840244,0.0240919683129,-0.0283005852252,0.307283997536,-0.00559477554634,-0.00559477554634,0.00397688848898,-0.0219574626535,154.216400146,154.216400146,-229.637802124,-66.5664520264,2044,2039,2638,2038,2038,3066,3444,3444,3298,3379,3127,3007,3146,3093,3222,2698,3377,3395,3223,3356,3120,3344,3385,3194
1508403300943415119,114,1508403300943087470,plot_matl,0.25,-1000.0,0.197161823511,0.0357128046453,-0.0528381764889,-44.1690750122,0.349065840244,0.0256401468068,-0.0115345856175,0.197193861008,0.00607840111479,0.00607840111479,0.00483119860291,-0.00279306061566,-78.5720825195,-78.5720825195,-0.0188296250999,109.458831787,2046,2062,2144,2033,2033,2612,3286,3320,3118,3276,2983,2954,3029,3081,3152,2997,3396,3389,3245,3289,2957,3267,3303,3022,0.010005917,1.140028745,1.140674538,0.401425719261,4500.0,0.37335652113,-0.0149059901014,-0.0280692130327,126.311454773,0.0,6000.0,-0.0115218805149,0.00457702111453,-0.0115218805149,67.7464294434,0.349065840244,0.0240919683129,-0.0282944981009,0.307369023561,-0.00634801853448,-0.00634801853448,0.00381623907015,-0.0234552547336,154.214599609,154.214599609,-229.932373047,-66.6417160034,2033,2033,2637,2039,2039,3069,3445,3444,3297,3380,3127,3007,3146,3093,3222,2698,3377,3395,3223,3356,3120,3344,3386,3197
1508403300953129725,115,1508403300953034226,plot_matl,0.25,-1000.0,0.197175264359,-0.0024235562887,-0.0528247319162,-53.4526290894,0.349065840244,0.0242906641215,-0.0115411411971,0.197205662727,-0.00670163985342,-0.00670163985342,-0.00845959316939,0.0348733849823,-78.6379165649,-78.6379165649,-0.0234664585441,109.635345459,2054,2080,2144,2033,2033,2612,3286,3320,3118,3276,2984,2953,3030,3080,3156,2993,3396,3388,3244,3288,2957,3267,3303,3022,0.009942545,1.149973941,1.143392675,0.401425719261,4500.0,0.37335652113,-0.0131200905889,-0.0280692130327,126.311454773,0.0,6000.0,-0.0115296291187,-0.00869111064821,-0.0115296291187,71.9497528076,0.349065840244,0.0240919683129,-0.0282868184149,0.307321816683,-0.00604832731187,-0.00604832731187,0.00369007652625,0.0392913781106,154.248901367,154.248901367,-230.168762207,-66.851852417,2062,2069,2637,2039,2039,3069,3445,3444,3297,3380,3131,3007,3149,3091,3223,2693,3374,3397,3222,3354,3120,3344,3386,3197
1508403300963509795,116,1508403300963087232,plot_matl,0.25,-1000.0,0.197185769677,-0.00264851655811,-0.0528142303228,-53.4480743408,0.349065840244,0.0242906641215,-0.0115574439988,0.197213977575,-0.00715572899207,-0.00715572899207,-0.00812517292798,-0.00322273653001,-78.5555496216,-78.5555496216,0.031047064811,109.751800537,2058,2107,2144,2034,2034,2612,3288,3318,3118,3276,2984,2953,3030,3080,3156,2993,3396,3388,3244,3288,2955,3268,3300,3020,0.01005573,1.160028533,1.16646468,0.401425719261,4500.0,0.37470600009,0.0120531087741,-0.02671973221,120.238792419,0.0,6000.0,-0.0115460613742,0.00507060904056,-0.0115460613742,67.7801895142,0.349065840244,0.0265011657029,-0.0282817352563,0.307337611914,0.0180530119687,0.0180530119687,0.00358961801976,-0.0229240898043,154.2371521,154.2371521,-229.619567871,-66.8058395386,2052,2053,2636,2035,2035,3069,3446,3442,3297,3380,3131,3007,3149,3091,3223,2693,3374,3397,3222,3354,3120,3344,3386,3195
1508403300973176062,117,1508403300973044340,plot_matl,0.25,-1000.0,0.197259739041,-0.00413150526583,-0.052740264684,-53.7989196777,0.349065840244,0.0256401468068,-0.0115473400801,0.197247922421,0.00679865851998,0.00679865851998,-0.00833310186863,-0.00389504316263,-78.4554672241,-78.4554672241,0.210304483771,109.68572998,2057,2095,2144,2034,2034,2612,3288,3318,3119,3275,2981,2954,3030,3082,3154,2993,3399,3390,3244,3288,2955,3268,3300,3020,0.009954474,1.169984235,1.164673458,0.401425719261,4500.0,0.37335652113,-0.0139226596802,-0.0280692130327,126.311454773,0.0,6000.0,-0.0115487314761,-0.00830126181245,-0.0115487314761,71.9312133789,0.349065840244,0.0240919683129,-0.0282373707741,0.307520478964,-0.00590083701536,-0.00590083701536,0.00268280133605,0.0352415665984,154.177474976,154.177474976,-229.646850586,-66.9431533813,2041,2044,2636,2035,2035,3069,3446,3442,3299,3379,3127,3009,3149,3092,3222,2694,3375,3396,3222,3354,3120,3344,3386,3195
1508403300983627109,118,1508403300983124665,plot_matl,0.25,-1000.0,0.197290614247,-0.00475187413394,-0.0527093820274,-53.9075469971,0.349065840244,0.0256401468068,-0.0115272877738,0.197277024388,0.00655033485964,0.00655033485964,-0.00873497873545,-0.0044797132723,-78.4070510864,-78.4070510864,0.217518240213,109.625366211,2042,2082,2143,2032,2032,2609,3288,3318,3119,3275,2981,2954,3030,3082,3154,2993,3399,3390,3245,3288,2956,3266,3300,3022,0.010083346,1.180065875,1.189834828,0.401425719261,4500.0,0.37335652113,-0.0139120593667,-0.0280692130327,126.311454773,0.0,6000.0,-0.0115278735757,-0.00872546993196,-0.0115278735757,71.896812439,0.349065840244,0.0240919683129,-0.0282131861895,0.307493180037,-0.00525282276794,-0.00525282276794,0.00219561276026,-0.0261595044285,154.21987915,154.21987915,-229.374710083,-67.316619873,2048,2059,2636,2036,2036,3067,3446,3442,3299,3379,3127,3009,3149,3092,3222,2694,3375,3396,3223,3354,3121,3344,3386,3193
1508403300993545292,119,1508403300993100749,plot_matl,0.25,-1000.0,0.197250768542,0.0339486673474,-0.052749235183,-44.6416854858,0.349065840244,0.0242906641215,-0.0115107847378,0.197239220142,-0.0072998018004,-0.0072998018004,-0.00906885415316,-0.00373296043836,-78.3701629639,-78.3701629639,0.096065081656,109.911575317,2071,2110,2143,2032,2032,2609,3290,3319,3117,3274,2981,2954,3029,3080,3154,2994,3399,3390,3245,3288,2956,3266,3300,3022,0.009975758,1.190041849,1.187115202,0.401425719261,4500.0,0.37470600009,0.0128843747079,-0.02671973221,120.238792419,0.0,6000.0,-0.0115100368857,0.00434109335765,-0.0115100368857,67.7679519653,0.349065840244,0.0240919683129,-0.028193436563,0.30759125948,-0.00646829046309,-0.00646829046309,0.00179779599421,0.0337130315602,154.300796509,154.300796509,-229.908172607,-67.2975082397,2081,2086,2636,2036,2036,3067,3444,3444,3298,3380,3127,3008,3148,3093,3222,2697,3375,3396,3223,3354,3121,3344,3386,3193
1508403301003339961,120,1508403301003054568,plot_matl,0.25,-1000.0,0.197284623981,-0.00466330209747,-0.0527153760195,-53.8357276917,0.349065840244,0.0242906641215,-0.0114831998944,0.197271153331,-0.00743566360325,-0.00743566360325,0.00380495446734,-0.00439181458205,-78.478805542,-78.478805542,0.00416045868769,109.927101135,2060,2101,2142,2031,2031,2609,3290,3319,3117,3274,2981,2954,3029,3080,3154,2994,3397,3388,3246,3288,2953,3266,3297,3020,0.009951185,1.199995074,1.1941422,0.401425719261,4500.0,0.37470600009,0.012032260187,-0.02671973221,120.238792419,0.0,6000.0,-0.0114947771654,0.00404016440734,-0.0114947771654,67.7647171021,0.349065840244,0.0240919683129,-0.0281908269972,0.307506620884,-0.00707054231316,-0.00707054231316,0.00174681912176,-0.0264783538878,154.246276855,154.246276855,-229.667816162,-66.9967498779,2055,2060,2634,2037,2037,3067,3444,3444,3298,3380,3127,3008,3148,3093,3222,2697,3373,3396,3223,3353,3118,3344,3384,3193
1508403301013537613,121,1508403301013062450,plot_matl,0.25,-1000.0,0.197313696146,-0.0052649048157,-0.0526862964034,-53.8763885498,0.349065840244,0.0256401468068,-0.0115102371201,0.19733402133,0.00654838373885,0.00654838373885,-0.00906769931316,-0.00567063270137,-78.5763320923,-78.5763320923,0.189776450396,109.827865601,2015,2062,2142,2031,2031,2607,3284,3319,3116,3273,2979,2956,3028,3081,3154,2994,3397,3388,3246,3288,2953,3266,3297,3020,0.01000957,1.210003971,1.21115797,0.401425719261,4500.0,0.37335652113,-0.0139015549794,-0.0280692130327,126.311454773,0.0,6000.0,-0.0114959739149,0.00406567426398,-0.0114959739149,67.8329315186,0.349065840244,0.0240919683129,-0.0281751453876,0.307539790869,-0.00666240835562,-0.00666240835562,0.00143063860014,-0.0271925274283,154.201690674,154.201690674,-229.862991333,-67.0381011963,2028,2034,2634,2037,2037,3066,3444,3444,3297,3379,3127,3009,3148,3093,3222,2697,3373,3396,3223,3353,3118,3344,3384,3193
1508403301023537060,122,1508403301023083502,plot_matl,0.25,-1000.0,0.197402730584,-0.00701047573239,-0.0525972731411,-54.2794380188,0.349065840244,0.0242906641215,-0.0115445489064,0.197382569313,-0.00700751692057,-0.00700751692057,-0.00837530195713,-0.0444989837706,-78.5421447754,-78.5421447754,0.0882945284247,109.675117493,1977,2022,2142,2031,2031,2607,3284,3319,3116,3273,2979,2956,3028,3081,3155,2998,3397,3390,3245,3288,2955,3267,3300,3021,0.010019443,1.220024362,1.222372046,0.401425719261,4500.0,0.37335652113,-0.0143275260925,-0.0280692130327,126.311454773,0.0,6000.0,-0.0115325152874,-0.00862037763,-0.0115325152874,71.7698135376,0.349065840244,0.0265011657029,-0.0281622800976,0.30763053894,0.0170785076916,0.0170785076916,0.00117123546079,-0.0289367176592,154.253112793,154.253112793,-229.818740845,-66.7316436768,2000,2003,2634,2037,2037,3066,3444,3444,3297,3379,3127,3009,3148,3093,3222,2701,3375,3395,3224,3354,3120,3344,3386,3197
1508403301033657499,123,1508403301033102153,plot_matl,0.25,-1000.0,0.197378352284,-0.00646393513307,-0.0526216439903,-54.2009048462,0.349065840244,0.0256401468068,-0.0115726562217,0.197431996465,0.0068899798207,0.0068899798207,-0.00778368487954,0.0303579065949,-78.4853897095,-78.4853897095,0.116374745965,109.778648376,2015,2059,2144,2030,2030,2602,3286,3317,3117,3273,2982,2954,3028,3081,3155,2998,3397,3390,3245,3288,2955,3267,3300,3021,0.010019779,1.230043193,1.232432817,0.401425719261,4500.0,0.37470600009,0.0135228671134,-0.02671973221,120.238792419,0.0,6000.0,-0.0115488795564,0.00515185203403,-0.0115488795564,67.7569885254,0.349065840244,0.0240919683129,-0.028179384768,0.307601034641,-0.00681635411456,-0.00681635411456,0.00153335707728,0.0336091853678,154.376449585,154.376449585,-230.145294189,-66.3827819824,2017,2027,2636,2039,2039,3066,3443,3443,3295,3381,3126,3009,3148,3093,3222,2701,3375,3395,3224,3354,3120,3344,3386,3197
1508403301043452787,124,1508403301043066607,plot_matl,0.25,-1000.0,0.197452679276,-0.00803287699819,-0.0525473169982,-54.3194999695,0.349065840244,0.0256401468068,-0.0115726562217,0.197431996465,0.0068899798207,0.0068899798207,-0.00778368487954,0.0303579065949,-78.4853897095,-78.4853897095,0.116374745965,109.778648376,2073,2083,2144,2030,2030,2602,3286,3317,3117,3273,2982,2954,3029,3082,3152,2998,3398,3390,3245,3287,2955,3268,3300,3021,0.009963095,1.240007872,1.23542378,0.401425719261,4500.0,0.37470600009,0.011462284252,-0.02671973221,120.238792419,0.0,6000.0,-0.0115482835099,0.0051497654058,-0.0115482835099,67.8898849487,0.349065840244,0.0240919683129,-0.028179384768,0.307601034641,-0.00681635411456,-0.00681635411456,0.00153335707728,0.0336091853678,154.376449585,154.376449585,-230.145294189,-66.3827819824,2064,2061,2636,2039,2039,3066,3443,3443,3295,3381,3126,3009,3148,3094,3223,2701,3375,3396,3222,3354,3120,3342,3386,3197
1508403301053600842,125,1508403301053085849,plot_matl,0.25,-1000.0,0.197476640344,-0.00854737404734,-0.0525233633816,-54.6814994812,0.349065840244,0.0256401468068,-0.0115726562217,0.197431996465,0.0068899798207,0.0068899798207,-0.00778368487954,0.0303579065949,-78.4853897095,-78.4853897095,0.116374745965,109.778648376,1991,2008,2143,2032,2032,2607,3286,3316,3116,3274,2982,2954,3029,3082,3152,2998,3398,3390,3245,3287,2955,3268,3300,3021,0.010019138,1.250026949,1.25239225,0.401425719261,4500.0,0.37335652113,-0.0148557014763,-0.0280692130327,126.311454773,0.0,6000.0,-0.0115512590855,-0.00822290964425,-0.0115512590855,71.9146347046,0.349065840244,0.0240919683129,-0.028179384768,0.307601034641,-0.00681635411456,-0.00681635411456,0.00153335707728,0.0336091853678,154.376449585,154.376449585,-230.145294189,-66.3827819824,2007,1998,2635,2039,2039,3066,3446,3444,3298,3379,3126,3009,3148,3094,3223,2701,3375,3396,3222,3354,3120,3342,3384,3193
1508403301063589480,126,1508403301063098998,plot_matl,0.25,-1000.0,0.197399899364,-0.00699813244864,-0.0526000931859,-54.2994384766,0.349065840244,0.0256401468068,-0.0115726562217,0.197431996465,0.0068899798207,0.0068899798207,-0.00778368487954,0.0303579065949,-78.4853897095,-78.4853897095,0.116374745965,109.778648376,1902,1937,2143,2032,2032,2607,3286,3316,3116,3274,2982,2956,3029,3080,3156,2997,3398,3389,3244,3288,2955,3268,3300,3021,0.010013419,1.260040203,1.261690794,0.401425719261,4500.0,0.37335652113,-0.0140880951658,-0.0280692130327,126.311454773,0.0,6000.0,-0.0115666920319,-0.00793533585966,-0.0115666920319,71.8128814697,0.349065840244,0.0240919683129,-0.028179384768,0.307601034641,-0.00681635411456,-0.00681635411456,0.00153335707728,0.0336091853678,154.376449585,154.376449585,-230.145294189,-66.3827819824,1928,1925,2635,2039,2039,3066,3446,3444,3298,3379,3126,3008,3148,3093,3222,2701,3377,3396,3222,3355,3120,3342,3384,3193
1508403301073425993,127,1508403301073064865,plot_matl,0.25,-1000.0,0.197404563427,-0.00709010707214,-0.0525954291224,-54.3020515442,0.349065840244,0.0256401468068,-0.0115856165066,0.197383835912,0.00668774731457,0.00668774731457,-0.00755125051364,-0.00667160702869,-78.80884552,-78.80884552,0.327543765306,109.68611908,1963,2012,2145,2030,2030,2607,3287,3320,3116,3274,2982,2956,3029,3080,3156,2997,3398,3389,3244,3288,2956,3269,3298,3021,0.009964012,1.270005709,1.265429524,0.401425719261,4500.0,0.37335652113,-0.0130500542,-0.0280692130327,126.311454773,0.0,6000.0,-0.011575691402,0.00567246507853,-0.011575691402,67.755027771,0.349065840244,0.0240919683129,-0.0281683411449,0.307923018932,-0.00750535912812,-0.00750535912812,0.00132167630363,0.0271122790873,154.227401733,154.227401733,-230.80116272,-66.2989883423,1977,1991,2638,2038,2038,3068,3445,3443,3298,3379,3126,3008,3148,3093,3222,2701,3377,3396,3222,3355,3121,3344,3388,3197
1508403301083524726,128,1508403301083070556,plot_matl,0.25,-1000.0,0.19744835794,0.0299373995513,-0.0525516420603,-45.1800842285,0.349065840244,0.0256401468068,-0.0115856165066,0.197383835912,0.00668774731457,0.00668774731457,-0.00755125051364,-0.00667160702869,-78.80884552,-78.80884552,0.327543765306,109.68611908,2090,2135,2145,2030,2030,2607,3287,3320,3117,3275,2982,2954,3029,3082,3156,2995,3397,3389,3244,3288,2956,3269,3298,3021,0.010006383,1.280011851,1.280817024,0.401425719261,4500.0,0.37470600009,0.0130872540176,-0.02671973221,120.238792419,0.0,6000.0,-0.011575691402,0.00567246507853,-0.011575691402,67.755027771,0.349065840244,0.0240919683129,-0.0281683411449,0.307923018932,-0.00750535912812,-0.00750535912812,0.00132167630363,0.0271122790873,154.227401733,154.227401733,-230.80116272,-66.2989883423,2072,2077,2638,2038,2038,3068,3445,3443,3298,3380,3127,3006,3147,3093,3222,2695,3374,3396,3222,3355,3121,3344,3388,3197
1508403301093432319,129,1508403301093100694,plot_matl,0.25,-1000.0,0.197376996279,-0.00651795696467,-0.0526230074465,-54.2289123535,0.349065840244,0.0256401468068,-0.0115856165066,0.197383835912,0.00668774731457,0.00668774731457,-0.00755125051364,-0.00667160702869,-78.80884552,-78.80884552,0.327543765306,109.68611908,2063,2097,2143,2030,2030,2615,3287,3320,3117,3275,2982,2954,3029,3082,3156,2995,3397,3389,3244,3287,2954,3268,3299,3021,0.010030788,1.290042104,1.293971652,0.401425719261,4500.0,0.37470600009,0.0107250101864,-0.02671973221,120.238792419,0.0,6000.0,-0.0116360085085,-0.00655134860426,-0.0116360085085,71.8276443481,0.349065840244,0.0240919683129,-0.0281683411449,0.307923018932,-0.00750535912812,-0.00750535912812,0.00132167630363,0.0271122790873,154.227401733,154.227401733,-230.80116272,-66.2989883423,2049,2050,2635,2039,2039,3068,3445,3443,3298,3380,3127,3006,3147,3093,3222,2695,3374,3396,3221,3355,3119,3342,3385,3193
1508403301103313965,130,1508403301103052738,plot_matl,0.25,-1000.0,0.197316035628,-0.00529007613659,-0.052683968097,-53.9503059387,0.349065840244,0.0256401468068,-0.0115856165066,0.197383835912,0.00668774731457,0.00668774731457,-0.00755125051364,-0.00667160702869,-78.80884552,-78.80884552,0.327543765306,109.68611908,1906,1947,2143,2030,2030,2615,3288,3320,3117,3273,2981,2956,3029,3081,3156,2996,3397,3389,3244,3287,2954,3268,3299,3021,0.009948788,1.299992895,1.29334244,0.401425719261,4500.0,0.37470600009,0.0112910596654,-0.02671973221,120.238792419,0.0,6000.0,-0.0116466796026,0.0070736608468,-0.0116466796026,67.7667312622,0.349065840244,0.0240919683129,-0.0281683411449,0.307923018932,-0.00750535912812,-0.00750535912812,0.00132167630363,0.0271122790873,154.227401733,154.227401733,-230.80116272,-66.2989883423,1939,1943,2635,2039,2039,3068,3443,3445,3298,3379,3128,3008,3148,3091,3221,2697,3374,3396,3221,3355,3119,3342,3385,3193
1508403301113682078,131,1508403301113243154,plot_matl,0.25,-1000.0,0.197338610888,0.0321496874094,-0.0526613928378,-45.211971283,0.349065840244,0.0256401468068,-0.0116833122447,0.197358772159,0.0048862984404,0.0048862984404,0.00781528931111,-0.00615845853463,-78.6756668091,-78.6756668091,0.358488708735,109.984329224,1924,1972,2146,2028,2028,2615,3288,3320,3117,3273,2981,2956,3029,3081,3156,2996,3398,3388,3248,3288,2958,3268,3302,3023,0.010191428,1.310184239,1.335077068,0.401425719261,4500.0,0.37470600009,0.00981546193361,-0.02671973221,120.238792419,0.0,6000.0,-0.0116799613461,-0.00567332888022,-0.0116799613461,71.7205810547,0.349065840244,0.0240919683129,-0.0282099246979,0.30790579319,-0.00574710126966,-0.00574710126966,0.00213938066736,-0.0344152636826,154.336273193,154.336273193,-230.501708984,-66.4782943726,1945,1962,2638,2038,2038,3068,3443,3445,3298,3379,3128,3008,3148,3091,3221,2697,3374,3397,3224,3356,3122,3344,3386,3195
1508403301123420450,132,1508403301123059131,plot_matl,0.25,-1000.0,0.197357714176,0.0317829996347,-0.0526422783732,-44.9336357117,0.349065840244,0.0256401468068,-0.0116477655247,0.197377324104,0.00474569853395,0.00474569853395,0.00709286285564,0.031380802393,-78.5929107666,-78.5929107666,0.250915944576,110.024864197,2098,2148,2146,2028,2028,2608,3288,3321,3119,3273,2982,2955,3028,3080,3156,2996,3398,3388,3248,3288,2958,3268,3302,3023,0.009815481,1.320000171,1.295643492,0.401425719261,4500.0,0.37335652113,-0.0177444294095,-0.0280692130327,126.311454773,0.0,6000.0,-0.011669492349,0.00753085361794,-0.011669492349,67.7274475098,0.349065840244,0.0240919683129,-0.0281907524914,0.30787974596,-0.00554815772921,-0.00554815772921,0.00175146851689,0.0279527045786,154.468826294,154.468826294,-230.403762817,-66.3953399658,2078,2090,2638,2038,2038,3068,3446,3444,3298,3383,3127,3006,3148,3091,3221,2697,3374,3397,3224,3356,3122,3344,3386,3195
1508403301133461564,133,1508403301133093036,plot_matl,0.25,-1000.0,0.197335004807,-0.00567693309858,-0.0526650026441,-53.9520950317,0.349065840244,0.0256401468068,-0.0116477655247,0.197377324104,0.00474569853395,0.00474569853395,0.00709286285564,0.031380802393,-78.5929107666,-78.5929107666,0.250915944576,110.024864197,2135,2176,2146,2028,2028,2608,3288,3321,3119,3273,2982,2955,3028,3080,3155,2994,3395,3388,3243,3289,2953,3269,3299,3019,0.010034597,1.330034282,1.334601401,0.401425719261,4500.0,0.37335652113,-0.0179806798697,-0.0280692130327,126.311454773,0.0,6000.0,-0.0116516603157,-0.00625904975459,-0.0116516603157,71.6731567383,0.349065840244,0.0240919683129,-0.0281907524914,0.30787974596,-0.00554815772921,-0.00554815772921,0.00175146851689,0.0279527045786,154.468826294,154.468826294,-230.403762817,-66.3953399658,2101,2111,2638,2038,2038,3068,3446,3444,3298,3383,3127,3006,3148,3091,3222,2697,3374,3395,3221,3354,3119,3344,3386,3195
1508403301143259259,134,1508403301143063844,plot_matl,0.25,-1000.0,0.197320014238,-0.0053455424495,-0.0526799820364,-54.0200500488,0.349065840244,0.0256401468068,-0.0116477655247,0.197377324104,0.00474569853395,0.00474569853395,0.00709286285564,0.031380802393,-78.5929107666,-78.5929107666,0.250915944576,110.024864197,2015,2045,2142,2032,2032,2611,3288,3319,3118,3274,2981,2955,3028,3080,3155,2994,3395,3388,3243,3289,2953,3269,3299,3019,0.009968898,1.340004378,1.335832332,0.401425719261,4500.0,0.37335652113,-0.0171953961253,-0.0280692130327,126.311454773,0.0,6000.0,-0.0116357086226,0.00684314407408,-0.0116357086226,67.68019104,0.349065840244,0.0240919683129,-0.0281907524914,0.30787974596,-0.00554815772921,-0.00554815772921,0.00175146851689,0.0279527045786,154.468826294,154.468826294,-230.403762817,-66.3953399658,2018,2019,2636,2041,2041,3069,3445,3444,3296,3380,3126,3007,3148,3091,3222,2697,3374,3395,3221,3354,3119,3344,3386,3195
1508403301153204135,135,1508403301153065579,plot_matl,0.25,-1000.0,0.197339043021,-0.00576286809519,-0.0526609644294,-54.0321846008,0.349065840244,0.0256401468068,-0.0116477655247,0.197377324104,0.00474569853395,0.00474569853395,0.00709286285564,0.031380802393,-78.5929107666,-78.5929107666,0.250915944576,110.024864197,1966,2001,2142,2032,2032,2611,3288,3319,3118,3274,2981,2955,3029,3083,3155,2996,3397,3389,3247,3286,2956,3267,3299,3019,0.009999658,1.350005529,1.34995383,0.401425719261,4500.0,0.37605547905,0.0363987237215,-0.0253702495247,114.166122437,0.0,6000.0,-0.0116714416072,-0.00587271666154,-0.0116714416072,71.7618865967,0.349065840244,0.0240919683129,-0.0281907524914,0.30787974596,-0.00554815772921,-0.00554815772921,0.00175146851689,0.0279527045786,154.468826294,154.468826294,-230.403762817,-66.3953399658,1992,1994,2636,2041,2041,3069,3445,3444,3296,3380,3126,3007,3148,3093,3222,2699,3376,3397,3222,3356,3122,3345,3386,3195
1508403301163403617,136,1508403301163070512,plot_matl,0.25,-1000.0,0.197392076254,-0.00684961723164,-0.0526079274714,-54.2985458374,0.349065840244,0.0242906641215,-0.0116883004084,0.197322368622,-0.00879935082048,-0.00879935082048,-0.005530054681,-0.00542661547661,-78.7162780762,-78.7162780762,0.442297101021,110.133010864,2045,2089,2144,2035,2035,2602,3287,3318,3116,3274,2981,2955,3029,3083,3155,2996,3397,3389,3247,3286,2956,3267,3300,3020,0.010007288,1.360011697,1.360991168,0.401425719261,4500.0,0.37335652113,-0.0178517326713,-0.0280692130327,126.311454773,0.0,6000.0,-0.0117103643715,-0.00506429607049,-0.0117103643715,71.8217849731,0.349065840244,0.0240919683129,-0.0282387789339,0.307942479849,-0.00798462424427,-0.00798462424427,-0.0125846965238,0.0266826860607,154.268692017,154.268692017,-230.642929077,-66.5253219604,2051,2054,2637,2037,2037,3065,3446,3441,3297,3379,3126,3007,3148,3093,3222,2699,3376,3397,3222,3356,3122,3345,3386,3197
1508403301173312567,137,1508403301173080543,plot_matl,0.25,-1000.0,0.197330921888,-0.00561326369643,-0.0526690743864,-54.0123901367,0.349065840244,0.0242906641215,-0.0116883004084,0.197322368622,-0.00879935082048,-0.00879935082048,-0.005530054681,-0.00542661547661,-78.7162780762,-78.7162780762,0.442297101021,110.133010864,2149,2171,2144,2035,2035,2602,3287,3318,3116,3274,2982,2954,3029,3082,3153,2999,3396,3391,3244,3288,2956,3267,3300,3020,0.010008187,1.37002105,1.371121619,0.401425719261,4500.0,0.37335652113,-0.016548268497,-0.0280692130327,126.311454773,0.0,6000.0,-0.0116691552103,0.00753863714635,-0.0116691552103,67.7574539185,0.349065840244,0.0240919683129,-0.0282387789339,0.307942479849,-0.00798462424427,-0.00798462424427,-0.0125846965238,0.0266826860607,154.268692017,154.268692017,-230.642929077,-66.5253219604,2113,2113,2637,2037,2037,3065,3446,3441,3297,3379,3126,3007,3147,3093,3222,2703,3376,3396,3222,3356,3122,3345,3386,3197
1508403301183410493,138,1508403301183054689,plot_matl,0.25,-1000.0,0.197382926941,-0.00660183606669,-0.0526170693338,-54.1620025635,0.349065840244,0.0242906641215,-0.0116883004084,0.197322368622,-0.00879935082048,-0.00879935082048,-0.005530054681,-0.00542661547661,-78.7162780762,-78.7162780762,0.442297101021,110.133010864,2069,2104,2142,2033,2033,2605,3286,3319,3116,3274,2982,2954,3029,3082,3153,2999,3396,3391,3244,3288,2954,3269,3299,3019,0.009974627,1.379995614,1.376498526,0.401425719261,4500.0,0.37335652113,-0.0149766933173,-0.0280692130327,126.311454773,0.0,6000.0,-0.0116385770962,-0.00650674151257,-0.0116385770962,71.7167739868,0.349065840244,0.0240919683129,-0.0282387789339,0.307942479849,-0.00798462424427,-0.00798462424427,-0.0125846965238,0.0266826860607,154.268692017,154.268692017,-230.642929077,-66.5253219604,2062,2065,2634,2035,2035,3066,3446,3443,3297,3379,3126,3007,3147,3093,3222,2703,3376,3396,3222,3356,3121,3344,3386,3194
1508403301193551996,139,1508403301193141434,plot_matl,0.25,-1000.0,0.197423040867,-0.00738965952769,-0.0525769591331,-54.3094558716,0.349065840244,0.0242906641215,-0.0116883004084,0.197322368622,-0.00879935082048,-0.00879935082048,-0.005530054681,-0.00542661547661,-78.7162780762,-78.7162780762,0.442297101021,110.133010864,1926,1965,2142,2033,2033,2605,3286,3319,3116,3274,2980,2957,3029,3084,3154,2997,3397,3387,3244,3288,2954,3269,3299,3019,0.010087367,1.390082305,1.402144013,0.401425719261,4500.0,0.37335652113,-0.0136829856783,-0.0280692130327,126.311454773,0.0,6000.0,-0.011661298573,-0.0060717491433,-0.011661298573,71.7195510864,0.349065840244,0.0240919683129,-0.0282387789339,0.307942479849,-0.00798462424427,-0.00798462424427,-0.0125846965238,0.0266826860607,154.268692017,154.268692017,-230.642929077,-66.5253219604,1964,1964,2634,2035,2035,3066,3446,3443,3298,3381,3125,3008,3150,3095,3222,2701,3375,3395,3222,3356,3121,3344,3386,3194
1508403301203739169,140,1508403301203090523,plot_matl,0.25,-1000.0,0.197427734733,-0.00749261816964,-0.0525722578168,-54.3713531494,0.349065840244,0.0256401468068,-0.0116659617051,0.197401463985,0.0063944417052,0.0063944417052,-0.00597335491329,-0.00695832073689,-78.7280044556,-78.7280044556,-0.050541896373,110.605636597,2010,2045,2144,2031,2031,2602,3286,3319,3116,3274,2980,2957,3029,3084,3154,2997,3397,3387,3245,3287,2954,3268,3299,3022,0.009949202,1.400031989,1.39288828,0.401425719261,4500.0,0.37335652113,-0.013563124463,-0.0280692130327,126.311454773,0.0,6000.0,-0.0116430874914,-0.00643147621304,-0.0116430874914,71.7641601562,0.349065840244,0.0240919683129,-0.0283025261015,0.307964265347,-0.00825660675764,-0.00825660675764,0.00405898317695,-0.0356217697263,154.361968994,154.361968994,-231.488693237,-66.2250366211,2022,2026,2636,2040,2040,3065,3446,3443,3298,3381,3125,3008,3150,3095,3222,2701,3375,3395,3221,3354,3121,3345,3386,3196
1508403301213388216,141,1508403301213080615,plot_matl,0.25,-1000.0,0.197393149137,-0.0446999557316,-0.0526068471372,-63.1585388184,0.349065840244,0.0256401468068,-0.0116659617051,0.197401463985,0.0063944417052,0.0063944417052,-0.00597335491329,-0.00695832073689,-78.7280044556,-78.7280044556,-0.050541896373,110.605636597,2103,2142,2144,2031,2031,2602,3285,3319,3116,3273,2982,2953,3030,3082,3153,2996,3397,3387,3245,3287,2954,3268,3299,3022,0.009989119,1.410022106,1.408465779,0.401425719261,4500.0,0.37335652113,-0.0136115727946,-0.0280692130327,126.311454773,0.0,6000.0,-0.0116045093164,0.00621774699539,-0.0116045093164,67.7907409668,0.349065840244,0.0240919683129,-0.0283025261015,0.307964265347,-0.00825660675764,-0.00825660675764,0.00405898317695,-0.0356217697263,154.361968994,154.361968994,-231.488693237,-66.2250366211,2088,2088,2636,2040,2040,3065,3445,3443,3297,3381,3126,3007,3150,3093,3222,2700,3375,3395,3221,3354,3121,3345,3386,3196
1508403301223585363,142,1508403301223116394,plot_matl,0.25,-1000.0,0.197365611792,-0.00622528139502,-0.0526343807578,-54.1120223999,0.349065840244,0.0256401468068,-0.0116659617051,0.197401463985,0.0063944417052,0.0063944417052,-0.00597335491329,-0.00695832073689,-78.7280044556,-78.7280044556,-0.050541896373,110.605636597,2069,2108,2141,2033,2033,2602,3285,3319,3116,3273,2982,2953,3030,3082,3153,2996,3395,3389,3245,3286,2953,3269,3297,3020,0.010034252,1.420056839,1.424863784,0.401425719261,4500.0,0.37470600009,0.0126614738256,-0.02671973221,120.238792419,0.0,6000.0,-0.0116090383381,0.00630950368941,-0.0116090383381,67.8023910522,0.349065840244,0.0240919683129,-0.0283025261015,0.307964265347,-0.00825660675764,-0.00825660675764,0.00405898317695,-0.0356217697263,154.361968994,154.361968994,-231.488693237,-66.2250366211,2058,2062,2635,2037,2037,3065,3445,3443,3297,3381,3126,3007,3150,3093,3222,2700,3376,3395,3222,3353,3119,3344,3385,3193
1508403301233475262,143,1508403301233110240,plot_matl,0.25,-1000.0,0.19727294147,-0.00438553420827,-0.0527270548046,-53.7308807373,0.349065840244,0.0256401468068,-0.0116659617051,0.197401463985,0.0063944417052,0.0063944417052,-0.00597335491329,-0.00695832073689,-78.7280044556,-78.7280044556,-0.050541896373,110.605636597,1926,1968,2141,2033,2033,2611,3287,3320,3118,3276,2981,2955,3031,3081,3153,2996,3395,3389,3245,3286,2953,3269,3297,3020,0.009993803,1.430050661,1.429113829,0.401425719261,4500.0,0.37470600009,0.0133161433041,-0.02671973221,120.238792419,0.0,6000.0,-0.011577565223,0.00565902609378,-0.011577565223,67.8563613892,0.349065840244,0.0240919683129,-0.0283025261015,0.307964265347,-0.00825660675764,-0.00825660675764,0.00405898317695,-0.0356217697263,154.361968994,154.361968994,-231.488693237,-66.2250366211,1956,1964,2635,2037,2037,3068,3446,3442,3297,3380,3126,3009,3149,3093,3222,2700,3376,3395,3222,3353,3119,3344,3385,3193
1508403301243466877,144,1508403301243058231,plot_matl,0.25,-1000.0,0.19733081758,-0.00558934640139,-0.0526691824198,-54.0323905945,0.349065840244,0.0242906641215,-0.0115746138617,0.197330266237,-0.00657086167485,-0.00657086167485,0.00559375667945,0.0323297716677,-78.7536621094,-78.7536621094,0.109517492354,110.262947083,1930,1968,2141,2033,2033,2611,3287,3320,3118,3276,2981,2955,3031,3081,3155,2995,3398,3387,3245,3288,2955,3269,3301,3021,0.00994879,1.439999043,1.43262576,0.401425719261,4500.0,0.37335652113,-0.0124197676778,-0.0280692130327,126.311454773,0.0,6000.0,-0.0115622505546,0.00534673873335,-0.0115622505546,67.7381286621,0.349065840244,0.0240919683129,-0.0282292515039,0.30787730217,-0.00585045712069,-0.00585045712069,0.00254306942225,0.0278658270836,154.124267578,154.124267578,-231.203323364,-66.2424926758,1959,1964,2635,2037,2037,3068,3446,3442,3297,3380,3126,3009,3149,3093,3223,2696,3375,3397,3222,3354,3121,3346,3386,3193
1508403301253504221,145,1508403301253068698,plot_matl,0.25,-1000.0,0.197280943394,-0.00458486378193,-0.0527190566063,-53.7814750671,0.349065840244,0.0242906641215,-0.0115746138617,0.197330266237,-0.00657086167485,-0.00657086167485,0.00559375667945,0.0323297716677,-78.7536621094,-78.7536621094,0.109517492354,110.262947083,2039,2082,2144,2030,2030,2609,3287,3319,3118,3273,2982,2955,3031,3081,3155,2995,3398,3387,3245,3288,2955,3269,3301,3021,0.010009927,1.450009803,1.451439415,0.401425719261,4500.0,0.37335652113,-0.0116976005957,-0.0280692130327,126.311454773,0.0,6000.0,-0.0115622170269,-0.00807142537087,-0.0115622170269,71.696105957,0.349065840244,0.0240919683129,-0.0282292515039,0.30787730217,-0.00585045712069,-0.00585045712069,0.00254306942225,0.0278658270836,154.124267578,154.124267578,-231.203323364,-66.2424926758,2036,2047,2637,2034,2034,3067,3444,3442,3297,3380,3129,3008,3149,3093,3223,2696,3375,3397,3222,3354,3121,3346,3386,3193
1508403301263635727,146,1508403301263137693,plot_matl,0.25,-1000.0,0.197369679809,0.0314658395946,-0.0526303164661,-45.4847145081,0.349065840244,0.0242906641215,-0.0115746138617,0.197330266237,-0.00657086167485,-0.00657086167485,0.00559375667945,0.0323297716677,-78.7536621094,-78.7536621094,0.109517492354,110.262947083,2104,2151,2144,2030,2030,2609,3287,3319,3118,3273,2982,2955,3029,3080,3156,2995,3397,3388,3244,3287,2953,3266,3301,3021,0.010068817,1.460078477,1.470047282,0.401425719261,4500.0,0.37470600009,0.0162312928587,-0.02671973221,120.238792419,0.0,6000.0,-0.0115861622617,-0.00756445620209,-0.0115861622617,71.6591644287,0.349065840244,0.0240919683129,-0.0282292515039,0.30787730217,-0.00585045712069,-0.00585045712069,0.00254306942225,0.0278658270836,154.124267578,154.124267578,-231.203323364,-66.2424926758,2087,2095,2637,2034,2034,3067,3444,3442,3297,3380,3129,3008,3147,3093,3223,2699,3373,3394,3221,3353,3119,3342,3386,3193
1508403301273572849,147,1508403301273086131,plot_matl,0.25,-1000.0,0.197383388877,-0.00672934670001,-0.0526166111231,-54.2538566589,0.349065840244,0.0242906641215,-0.0115746138617,0.197330266237,-0.00657086167485,-0.00657086167485,0.00559375667945,0.0323297716677,-78.7536621094,-78.7536621094,0.109517492354,110.262947083,2011,2059,2142,2031,2031,2611,3287,3320,3117,3276,2982,2955,3029,3080,3156,2995,3397,3388,3244,3287,2953,3266,3298,3019,0.009965908,1.470044389,1.464988476,0.401425719261,4500.0,0.37335652113,-0.00997963733971,-0.0280692130327,126.311454773,0.0,6000.0,-0.0115834260359,0.00580471754074,-0.0115834260359,67.7179489136,0.349065840244,0.0240919683129,-0.0282292515039,0.30787730217,-0.00585045712069,-0.00585045712069,0.00254306942225,0.0278658270836,154.124267578,154.124267578,-231.203323364,-66.2424926758,2026,2027,2635,2036,2036,3067,3445,3442,3296,3380,3129,3008,3147,3093,3223,2699,3373,3394,3221,3353,3119,3342,3385,3195
1508403301283333042,148,1508403301283046645,plot_matl,0.25,-1000.0,0.19739317894,-0.00692415330559,-0.0526068210602,-54.1997909546,0.349065840244,0.0256401468068,-0.0115788439289,0.197364658117,0.00865440629423,0.00865440629423,0.00572111224756,-0.00634758919477,-78.7562713623,-78.7562713623,0.164215445518,110.253883362,1961,1996,2142,2031,2031,2611,3287,3320,3117,3276,2982,2955,3031,3081,3155,2994,3395,3390,3242,3287,2953,3266,3298,3019,0.009940494,1.479986826,1.471193112,0.401425719261,4500.0,0.37470600009,0.016053063795,-0.02671973221,120.238792419,0.0,6000.0,-0.0115661015734,0.00546085601673,-0.0115661015734,67.8136749268,0.349065840244,0.0240919683129,-0.0281983483583,0.307945549488,-0.00485343579203,-0.00485343579203,0.00193265487906,-0.0353528186679,154.171554565,154.171554565,-230.608535767,-65.8351821899,1974,1987,2635,2036,2036,3067,3445,3442,3296,3380,3127,3009,3148,3092,3222,2695,3375,3397,3222,3355,3119,3342,3385,3195
1508403301293322022,149,1508403301293067571,plot_matl,0.25,-1000.0,0.19739317894,-0.00692415330559,-0.0526068210602,-54.1997909546,0.349065840244,0.0256401468068,-0.0115788439289,0.197364658117,0.00865440629423,0.00865440629423,0.00572111224756,-0.00634758919477,-78.7562713623,-78.7562713623,0.164215445518,110.253883362,1961,1996,2142,2031,2031,2611,3287,3320,3117,3276,2982,2955,3031,3081,3155,2994,3395,3390,3242,3287,2953,3266,3298,3019,0.010021937,1.490008496,1.493268613,0.401425719261,4500.0,0.37470600009,0.016053063795,-0.02671973221,120.238792419,0.0,6000.0,-0.0115661015734,0.00546085601673,-0.0115661015734,67.8136749268,0.349065840244,0.0240919683129,-0.0281983483583,0.307945549488,-0.00485343579203,-0.00485343579203,0.00193265487906,-0.0353528186679,154.171554565,154.171554565,-230.608535767,-65.8351821899,1974,1987,2635,2036,2036,3067,3445,3442,3296,3380,3127,3009,3148,3092,3222,2695,3375,3397,3222,3355,3119,3342,3385,3195
1508403301303633097,150,1508403301303078279,plot_matl,0.25,-1000.0,0.197257295251,-0.00632841838524,-0.0527427010238,-53.6938095093,0.349065840244,0.0256401468068,-0.0115788439289,0.197364658117,0.00865440629423,0.00865440629423,0.00572111224756,-0.00634758919477,-78.7562713623,-78.7562713623,0.164215445518,110.253883362,2112,2156,2142,2035,2035,2613,3296,3327,3117,3276,2982,2955,3031,3081,3155,2994,3395,3390,3242,3287,2956,3267,3300,3021,0.01001179,1.500019545,1.5017685,0.401425719261,4500.0,0.37470600009,0.0133284889162,-0.02671973221,120.238792419,0.0,6000.0,-0.0115439342335,-0.00765275675803,-0.0115439342335,71.6906433105,0.349065840244,0.0240919683129,-0.0281983483583,0.307945549488,-0.00485343579203,-0.00485343579203,0.00193265487906,-0.0353528186679,154.171554565,154.171554565,-230.608535767,-65.8351821899,2091,2098,2635,2035,2035,3075,3456,3450,3296,3380,3127,3009,3148,3092,3222,2695,3375,3397,3222,3355,3120,3344,3384,3195
1508403301313401631,151,1508403301313064016,plot_matl,0.25,-1000.0,0.197221189737,-0.00519841397181,-0.0527788102627,-53.592716217,0.349065840244,0.0256401468068,-0.0115788439289,0.197364658117,0.00865440629423,0.00865440629423,0.00572111224756,-0.00634758919477,-78.7562713623,-78.7562713623,0.164215445518,110.253883362,2043,2081,2142,2035,2035,2613,3296,3327,3122,3280,2986,2963,3035,3085,3160,3000,3403,3393,3242,3287,2956,3267,3300,3021,0.009983887,1.510005036,1.507566937,0.401425719261,4500.0,0.37335652113,-0.0143359582871,-0.0280692130327,126.311454773,0.0,6000.0,-0.0115710292011,0.00617876136675,-0.0115710292011,67.7589797974,0.349065840244,0.0240919683129,-0.0281983483583,0.307945549488,-0.00485343579203,-0.00485343579203,0.00193265487906,-0.0353528186679,154.171554565,154.171554565,-230.608535767,-65.8351821899,2045,2042,2635,2035,2035,3075,3456,3450,3306,3388,3133,3015,3154,3098,3229,2706,3381,3401,3222,3355,3120,3344,3384,3195
1508403301323418804,152,1508403301323058086,plot_matl,0.25,-1000.0,0.197192832828,-0.00436563929543,-0.052807174623,-53.5375404358,0.349065840244,0.0256401468068,-0.0115640172735,0.197166383266,0.00676782149822,0.00676782149822,0.00598247535527,-0.00391907710582,-78.7154083252,-78.7154083252,-0.18567943573,110.365470886,1982,2013,2142,2035,2035,2608,3296,3327,3122,3280,2986,2963,3035,3085,3160,3000,3403,3393,3249,3291,2957,3272,3302,3023,0.00999378,1.519999106,1.51905456,0.401425719261,4500.0,0.37335652113,-0.0137098105624,-0.0280692130327,126.311454773,0.0,6000.0,-0.0115555347875,0.00578105309978,-0.0115555347875,67.6343994141,0.349065840244,0.0265011657029,-0.0281978175044,0.308125793934,0.0155824096873,0.0155824096873,0.00181657786015,0.0224823988974,154.282226562,154.282226562,-230.946228027,-65.9379272461,2004,2004,2634,2037,2037,3068,3456,3450,3306,3388,3133,3015,3154,3098,3229,2706,3381,3401,3226,3360,3122,3347,3389,3195
1508403301333452409,153,1508403301333094385,plot_matl,0.25,-1000.0,0.197167500854,-0.00357321021147,-0.0528324991465,-53.4018669128,0.349065840244,0.0256401468068,-0.0115640172735,0.197166383266,0.00676782149822,0.00676782149822,0.00598247535527,-0.00391907710582,-78.7154083252,-78.7154083252,-0.18567943573,110.365470886,2027,2060,2142,2035,2035,2608,3289,3320,3118,3275,2981,2955,3029,3082,3156,2996,3403,3393,3249,3291,2957,3272,3302,3023,0.010035236,1.530034883,1.535391108,0.401425719261,4500.0,0.37335652113,-0.0136429015547,-0.0280692130327,126.311454773,0.0,6000.0,-0.0115682817996,0.00595169747248,-0.0115682817996,67.7122268677,0.349065840244,0.0265011657029,-0.0281978175044,0.308125793934,0.0155824096873,0.0155824096873,0.00181657786015,0.0224823988974,154.282226562,154.282226562,-230.946228027,-65.9379272461,2041,2042,2634,2037,2037,3068,3446,3446,3299,3381,3129,3009,3150,3095,3225,2699,3381,3401,3226,3360,3122,3347,3389,3195
1508403301343456898,154,1508403301343080239,plot_matl,0.25,-1000.0,0.197206869721,-0.00418529706076,-0.0527931265533,-53.5896568298,0.349065840244,0.0256401468068,-0.0115640172735,0.197166383266,0.00676782149822,0.00676782149822,0.00598247535527,-0.00391907710582,-78.7154083252,-78.7154083252,-0.18567943573,110.365470886,2051,2104,2142,2033,2033,2608,3289,3320,3118,3275,2981,2955,3029,3082,3156,2996,3397,3391,3245,3288,2956,3269,3299,3020,0.00998517,1.540020512,1.53771618,0.401425719261,4500.0,0.37470600009,0.0126046678051,-0.02671973221,120.238792419,0.0,6000.0,-0.0115769412369,0.00606494396925,-0.0115769412369,67.6396026611,0.349065840244,0.0265011657029,-0.0281978175044,0.308125793934,0.0155824096873,0.0155824096873,0.00181657786015,0.0224823988974,154.282226562,154.282226562,-230.946228027,-65.9379272461,2050,2054,2634,2042,2042,3068,3446,3446,3299,3381,3129,3009,3150,3095,3225,2699,3375,3399,3223,3354,3121,3344,3385,3194
1508403301353300841,155,1508403301353064076,plot_matl,0.25,-1000.0,0.197250187397,-0.00479223579168,-0.0527498200536,-53.7592430115,0.349065840244,0.0256401468068,-0.0115640172735,0.197166383266,0.00676782149822,0.00676782149822,0.00598247535527,-0.00391907710582,-78.7154083252,-78.7154083252,-0.18567943573,110.365470886,2048,2093,2142,2033,2033,2604,3287,3320,3116,3272,2982,2957,3031,3082,3156,2996,3397,3391,3245,3288,2956,3269,3299,3020,0.009984349,1.550004645,1.547574095,0.401425719261,4500.0,0.37335652113,-0.0139753818512,-0.0280692130327,126.311454773,0.0,6000.0,-0.0115479500964,0.00542711047456,-0.0115479500964,67.6724014282,0.349065840244,0.0265011657029,-0.0281978175044,0.308125793934,0.0155824096873,0.0155824096873,0.00181657786015,0.0224823988974,154.282226562,154.282226562,-230.946228027,-65.9379272461,2048,2052,2634,2042,2042,3064,3446,3443,3297,3380,3125,3011,3150,3097,3225,2699,3375,3399,3223,3354,3121,3344,3385,3194
1508403301363343649,156,1508403301363051086,plot_matl,0.25,-1000.0,0.197250127792,-0.00461260881275,-0.0527498759329,-53.7091178894,0.349065840244,0.0242906641215,-0.011569336988,0.19726639986,-0.00672193430364,-0.00672193430364,-0.00760637735948,0.0328964032233,-78.6492996216,-78.6492996216,0.30221888423,109.944747925,2048,2093,2142,2033,2033,2604,3287,3320,3116,3272,2982,2957,3031,3082,3156,2996,3397,3391,3245,3288,2956,3269,3299,3020,0.009986363,1.559991752,1.557872628,0.401425719261,4500.0,0.37335652113,-0.0129478890449,-0.0280692130327,126.311454773,0.0,6000.0,-0.0115733714774,-0.00754514476284,-0.0115733714774,71.7978973389,0.349065840244,0.0265011657029,-0.0281813722104,0.307844817638,0.0163235720247,0.0163235720247,0.00153584848158,0.0282982625067,154.276824951,154.276824951,-230.451049805,-66.2969589233,2048,2052,2634,2042,2042,3064,3446,3443,3297,3380,3125,3011,3150,3097,3225,2699,3375,3399,3223,3354,3121,3344,3385,3194
1508403301373365702,157,1508403301373068695,plot_matl,0.25,-1000.0,0.197249606252,-0.0044856313616,-0.0527503937483,-53.7050476074,0.349065840244,0.0242906641215,-0.011569336988,0.19726639986,-0.00672193430364,-0.00672193430364,-0.00760637735948,0.0328964032233,-78.6492996216,-78.6492996216,0.30221888423,109.944747925,1975,1997,2143,2031,2031,2606,3285,3320,3117,3275,2983,2957,3031,3082,3155,2996,3396,3389,3243,3288,2956,3267,3300,3019,0.010017645,1.570009522,1.572770265,0.401425719261,4500.0,0.37335652113,-0.0135126719251,-0.0280692130327,126.311454773,0.0,6000.0,-0.0115474443883,0.00530555471778,-0.0115474443883,67.7556228638,0.349065840244,0.0265011657029,-0.0281813722104,0.307844817638,0.0163235720247,0.0163235720247,0.00153584848158,0.0282982625067,154.276824951,154.276824951,-230.451049805,-66.2969589233,1999,1991,2635,2041,2041,3067,3446,3443,3298,3379,3127,3010,3150,3097,3223,2705,3376,3397,3221,3355,3121,3346,3385,3194
1508403301383580925,158,1508403301383089310,plot_matl,0.25,-1000.0,0.197245806456,-0.00431497441605,-0.0527541898191,-53.6847610474,0.349065840244,0.0242906641215,-0.011569336988,0.19726639986,-0.00672193430364,-0.00672193430364,-0.00760637735948,0.0328964032233,-78.6492996216,-78.6492996216,0.30221888423,109.944747925,2026,2059,2143,2031,2031,2606,3285,3320,3117,3275,2983,2957,3030,3079,3155,2996,3397,3389,3245,3287,2956,3268,3300,3019,0.010022097,1.580030365,1.583491326,0.401425719261,4500.0,0.37470600009,0.0132556939498,-0.02671973221,120.238792419,0.0,6000.0,-0.0115489410236,0.00529664801434,-0.0115489410236,67.7647323608,0.349065840244,0.0265011657029,-0.0281813722104,0.307844817638,0.0163235720247,0.0163235720247,0.00153584848158,0.0282982625067,154.276824951,154.276824951,-230.451049805,-66.2969589233,2029,2022,2635,2041,2041,3067,3446,3443,3298,3379,3127,3010,3150,3093,3223,2697,3375,3397,3221,3355,3120,3345,3385,3194
1508403301393509472,159,1508403301393099207,plot_matl,0.25,-1000.0,0.197278574109,-0.00492205144837,-0.0527214333415,-53.5943412781,0.349065840244,0.0242906641215,-0.011569336988,0.19726639986,-0.00672193430364,-0.00672193430364,-0.00760637735948,0.0328964032233,-78.6492996216,-78.6492996216,0.30221888423,109.944747925,2085,2105,2143,2034,2034,2610,3287,3318,3117,3273,2983,2957,3030,3079,3155,2996,3397,3389,3245,3287,2956,3268,3298,3020,0.01000923,1.590040497,1.59146757,0.401425719261,4500.0,0.37335652113,-0.0134167484939,-0.0280692130327,126.311454773,0.0,6000.0,-0.0115494467318,0.00527783390135,-0.0115494467318,68.0686187744,0.349065840244,0.0265011657029,-0.0281813722104,0.307844817638,0.0163235720247,0.0163235720247,0.00153584848158,0.0282982625067,154.276824951,154.276824951,-230.451049805,-66.2969589233,2067,2059,2636,2037,2037,3067,3445,3443,3298,3381,3127,3010,3150,3093,3223,2697,3375,3397,3221,3355,3120,3345,3387,3193
1508403301403213701,160,1508403301403043613,plot_matl,0.25,-1000.0,0.197234883904,-0.00398218631744,-0.0527651160955,-53.6267700195,0.349065840244,0.0242906641215,-0.0115337530151,0.19728961587,-0.00619403179735,-0.00619403179735,0.00494293635711,-0.00510256784037,-78.6545257568,-78.6545257568,0.983503580093,109.990066528,1908,1938,2143,2034,2034,2610,3287,3318,3117,3273,2980,2957,3031,3082,3154,2995,3397,3388,3244,3289,2956,3268,3298,3020,0.009941973,1.59998373,1.59071568,0.401425719261,4500.0,0.37335652113,-0.0119626587257,-0.0280692130327,126.311454773,0.0,6000.0,-0.0115414001048,-0.00833713449538,-0.0115414001048,71.7335891724,0.349065840244,0.0240919683129,-0.0281828213483,0.308051913977,-0.0066282809712,-0.0066282809712,0.00159873918165,0.0243679601699,154.189559937,154.189559937,-229.913665771,-66.1261138916,1939,1937,2636,2037,2037,3067,3445,3443,3298,3381,3126,3008,3150,3093,3222,2697,3375,3398,3224,3355,3120,3345,3387,3193
1508403301413606167,161,1508403301413122402,plot_matl,0.25,-1000.0,0.197237968445,-0.00392684619874,-0.0527620352805,-53.656414032,0.349065840244,0.0242906641215,-0.0115337530151,0.19728961587,-0.00619403179735,-0.00619403179735,0.00494293635711,-0.00510256784037,-78.6545257568,-78.6545257568,0.983503580093,109.990066528,1934,1961,2144,2034,2034,2612,3287,3319,3117,3273,2980,2957,3031,3082,3154,2995,3397,3388,3244,3289,2954,3269,3299,3021,0.010080749,1.610063592,1.623000589,0.401425719261,4500.0,0.37335652113,-0.0103182746097,-0.0280692130327,126.311454773,0.0,6000.0,-0.0115336095914,-0.0085086748004,-0.0115336095914,71.7853622437,0.349065840244,0.0240919683129,-0.0281828213483,0.308051913977,-0.0066282809712,-0.0066282809712,0.00159873918165,0.0243679601699,154.189559937,154.189559937,-229.913665771,-66.1261138916,1965,1964,2637,2036,2036,3069,3444,3444,3298,3381,3126,3008,3150,3093,3222,2697,3375,3398,3224,3355,3119,3344,3383,3193
1508403301423550163,162,1508403301423063026,plot_matl,0.25,-1000.0,0.197307854891,-0.00554747646675,-0.0526921413839,-53.9223518372,0.349065840244,0.0242906641215,-0.0115337530151,0.19728961587,-0.00619403179735,-0.00619403179735,0.00494293635711,-0.00510256784037,-78.6545257568,-78.6545257568,0.983503580093,109.990066528,2039,2090,2144,2034,2034,2612,3287,3319,3117,3277,2983,2954,3029,3080,3156,2995,3397,3390,3245,3289,2954,3269,3299,3021,0.009940508,1.620004152,1.610362296,0.401425719261,4500.0,0.37470600009,0.0170961208642,-0.02671973221,120.238792419,0.0,6000.0,-0.011574447155,-0.00779007095844,-0.011574447155,71.7780838013,0.349065840244,0.0240919683129,-0.0281828213483,0.308051913977,-0.0066282809712,-0.0066282809712,0.00159873918165,0.0243679601699,154.189559937,154.189559937,-229.913665771,-66.1261138916,2036,2043,2637,2036,2036,3069,3444,3444,3298,3382,3129,3007,3148,3093,3222,2695,3374,3396,3221,3355,3119,3344,3383,3193
1508403301433442987,163,1508403301433060259,plot_matl,0.25,-1000.0,0.197195023298,-0.0032068148721,-0.052804980427,-53.4948272705,0.349065840244,0.0242906641215,-0.0115337530151,0.19728961587,-0.00619403179735,-0.00619403179735,0.00494293635711,-0.00510256784037,-78.6545257568,-78.6545257568,0.983503580093,109.990066528,2026,2066,2144,2035,2035,2613,3286,3319,3117,3277,2983,2954,3029,3080,3156,2995,3397,3390,3245,3287,2955,3268,3299,3022,0.009995394,1.630001274,1.629249222,0.401425719261,4500.0,0.37470600009,0.0173797383904,-0.02671973221,120.238792419,0.0,6000.0,-0.0115607762709,0.00535384565592,-0.0115607762709,67.7530212402,0.349065840244,0.0240919683129,-0.0281828213483,0.308051913977,-0.0066282809712,-0.0066282809712,0.00159873918165,0.0243679601699,154.189559937,154.189559937,-229.913665771,-66.1261138916,2012,2020,2636,2041,2041,3068,3445,3444,3298,3382,3129,3007,3148,3093,3222,2695,3374,3396,3221,3353,3119,3345,3385,3195
1508403301443578548,164,1508403301443083781,plot_matl,0.25,-1000.0,0.197235137224,-0.00394230894744,-0.0527648702264,-53.7015914917,0.349065840244,0.0256401468068,-0.0115560870618,0.197250515223,0.00898791383952,0.00898791383952,0.00525397900492,0.033627782017,-78.5654296875,-78.5654296875,1.26959311962,110.013412476,2003,2027,2144,2035,2035,2613,3286,3319,3119,3276,2983,2957,3030,3081,3155,2995,3396,3390,3245,3287,2955,3268,3299,3022,0.010023677,1.640024926,1.643883028,0.401425719261,4500.0,0.37470600009,0.0165729206055,-0.02671973221,120.238792419,0.0,6000.0,-0.0115478942171,0.00509391585365,-0.0115478942171,67.6646957397,0.349065840244,0.0240919683129,-0.0281962621957,0.307594835758,-0.00567064806819,-0.00567064806819,0.00186432199553,0.0333116352558,154.245162964,154.245162964,-230.291610718,-66.6617507935,1996,1996,2636,2041,2041,3068,3445,3442,3298,3382,3128,3008,3149,3092,3222,2697,3374,3396,3221,3353,3119,3345,3385,3195
