%time,field.header.seq,field.header.stamp,field.header.frame_id,field.FFJ4_set_point,field.FFJ4_position_gain,field.FFJ4_process_value,field.FFJ4_process_value_dot,field.FFJ4_error,field.FFJ4_command,field.FFJ1,field.FFJ2,field.FFJ3,field.FFJ4,field.FFJ1_dot,field.FFJ2_dot,field.FFJ3_dot,field.FFJ4_dot,field.FFJ1_tao,field.FFJ2_tao,field.FFJ3_tao,field.FFJ4_tao,field.pac0,field.pac1,field.pdc0,field.tac0,field.tdc0,field.el0,field.el1,field.el2,field.el3,field.el4,field.el5,field.el6,field.el7,field.el8,field.el9,field.el10,field.el11,field.el12,field.el13,field.el14,field.el15,field.el16,field.el17,field.el18,field.dt,field.time,field.test_time2,field.FFJ0_set_point,field.FFJ0_position_gain,field.FFJ0_process_value,field.FFJ0_process_value_dot,field.FFJ0_error,field.FFJ0_command,field.FFJ3_set_point,field.FFJ3_position_gain,field.FFJ3_process_value,field.FFJ3_process_value_dot,field.FFJ3_error,field.FFJ3_command,field.MFJ1,field.MFJ2,field.MFJ3,field.MFJ4,field.MFJ1_dot,field.MFJ2_dot,field.MFJ3_dot,field.MFJ4_dot,field.MFJ1_tao,field.MFJ2_tao,field.MFJ3_tao,field.MFJ4_tao,field.Mpac0,field.Mpac1,field.Mpdc0,field.Mtac0,field.Mtdc0,field.Mel0,field.Mel1,field.Mel2,field.Mel3,field.Mel4,field.Mel5,field.Mel6,field.Mel7,field.Mel8,field.Mel9,field.Mel10,field.Mel11,field.Mel12,field.Mel13,field.Mel14,field.Mel15,field.Mel16,field.Mel17,field.Mel18
1508402692840780268,153,1508402692840052364,plot_matl,-0.300000011921,-5000.0,-0.313857138157,-0.000131886583404,0.0,0.0,0.349065840244,0.048581328243,-0.00462045753375,-0.313855081797,-0.0133532369509,-0.0133532369509,-0.0006255559274,-0.000174407716258,-0.0352539792657,-0.0352539792657,1.4808986187,-74.8626098633,2018,2050,2115,2027,2027,2734,3329,3348,3160,3299,3019,2981,3064,3089,3172,2931,3386,3378,3217,3281,2935,3282,3309,3030,0.010059854,1.530057861,1.539157662,0.401425719261,4500.0,0.398996651173,-0.000698085932527,0.0,0.0,0.0,6000.0,-0.00462312623858,-0.000575883488636,-0.00462312623858,27.9128494263,0.349065840244,0.0265011657029,-0.0329707749188,0.3047093153,-0.0153123829514,-0.0153123829514,0.0062412256375,0.0299856439233,162.676177979,162.676177979,-252.430252075,-56.6688575745,2030,2029,2631,2032,2032,3057,3444,3445,3294,3381,3124,3015,3151,3105,3229,2752,3388,3408,3240,3365,3135,3349,3394,3199
1508402692850366795,154,1508402692849985536,plot_matl,-0.300000011921,-5000.0,-0.313863128424,-7.44417638998e-06,0.0,0.0,0.349065840244,0.048581328243,-0.00462045753375,-0.313855081797,-0.0133532369509,-0.0133532369509,-0.0006255559274,-0.000174407716258,-0.0352539792657,-0.0352539792657,1.4808986187,-74.8626098633,2033,2065,2115,2028,2028,2736,3330,3348,3160,3299,3019,2981,3064,3089,3172,2931,3386,3378,3217,3280,2932,3283,3309,3030,0.009930577,1.539990272,1.529308858,0.401425719261,4500.0,0.398996651173,-0.00201456714422,0.0,0.0,0.0,6000.0,-0.00462823128328,-0.000471378938528,-0.00462823128328,27.9123249054,0.349065840244,0.0265011657029,-0.0329707749188,0.3047093153,-0.0153123829514,-0.0153123829514,0.0062412256375,0.0299856439233,162.676177979,162.676177979,-252.430252075,-56.6688575745,2038,2036,2632,2034,2034,3058,3444,3445,3294,3381,3124,3015,3151,3105,3229,2752,3388,3408,3240,3366,3133,3348,3390,3201
1508402692860352857,155,1508402692859981591,plot_matl,-0.300000011921,-5000.0,-0.313858270645,-0.000103595644759,0.0,0.0,0.349065840244,0.0512802936137,-0.00463041197509,-0.313857734203,0.0121847186238,0.0121847186238,-0.00042673596181,-0.000114585091069,-0.167730867863,-0.167730867863,2.04635858536,-74.8061294556,2036,2066,2115,2028,2028,2736,3330,3350,3158,3298,3017,2980,3065,3091,3172,2928,3386,3378,3217,3280,2932,3283,3309,3030,0.009996104,1.549986648,1.54939612,0.401425719261,4500.0,0.400346130133,0.0241118501872,0.0,0.0,0.0,6000.0,-0.00463241152465,-0.000385809224099,-0.00463241152465,27.9090366364,0.349065840244,0.0265011657029,-0.0329329706728,0.304537922144,-0.0144553901628,-0.0144553901628,0.00549328606576,-0.0284107793123,162.693328857,162.693328857,-252.344451904,-56.5483627319,2036,2034,2632,2034,2034,3058,3444,3442,3293,3382,3127,3016,3152,3106,3229,2753,3390,3408,3240,3366,3133,3348,3390,3201
1508402692870359000,156,1508402692870007854,plot_matl,-0.300000011921,-5000.0,-0.313858270645,-0.000103595644759,0.0,0.0,0.349065840244,0.0512802936137,-0.00463041197509,-0.313857734203,0.0121847186238,0.0121847186238,-0.00042673596181,-0.000114585091069,-0.167730867863,-0.167730867863,2.04635858536,-74.8061294556,2048,2087,2114,2027,2027,2736,3330,3350,3158,3298,3017,2980,3065,3091,3172,2928,3386,3378,3215,3280,2934,3283,3309,3031,0.010026058,1.560013046,1.564065048,0.401425719261,4500.0,0.397647172213,-0.0288124363869,0.0,0.0,0.0,6000.0,-0.00462455349043,-0.000540548295248,-0.00462455349043,27.9098129272,0.349065840244,0.0265011657029,-0.0329329706728,0.304537922144,-0.0144553901628,-0.0144553901628,0.00549328606576,-0.0284107793123,162.693328857,162.693328857,-252.344451904,-56.5483627319,2048,2053,2631,2036,2036,3058,3444,3442,3293,3382,3127,3016,3152,3106,3229,2753,3390,3408,3241,3363,3136,3351,3392,3200
1508402692880170480,157,1508402692879980723,plot_matl,-0.300000011921,-5000.0,-0.313846200705,-0.000345359294442,0.0,0.0,0.349065840244,0.0512802936137,-0.00463041197509,-0.313857734203,0.0121847186238,0.0121847186238,-0.00042673596181,-0.000114585091069,-0.167730867863,-0.167730867863,2.04635858536,-74.8061294556,2048,2087,2114,2027,2027,2736,3330,3350,3158,3298,3017,2980,3065,3091,3172,2928,3386,3378,3215,3280,2934,3283,3309,3031,0.009971227,1.569985222,1.565482639,0.401425719261,4500.0,0.398996651173,-0.00275938864797,0.0,0.0,0.0,6000.0,-0.00462455349043,-0.000540548295248,-0.00462455349043,27.9098129272,0.349065840244,0.0265011657029,-0.0329329706728,0.304537922144,-0.0144553901628,-0.0144553901628,0.00549328606576,-0.0284107793123,162.693328857,162.693328857,-252.344451904,-56.5483627319,2048,2053,2631,2036,2036,3058,3444,3442,3293,3382,3127,3016,3152,3106,3229,2753,3390,3408,3241,3363,3136,3351,3392,3200
1508402692890131864,158,1508402692889969593,plot_matl,-0.300000011921,-5000.0,-0.313846200705,-0.000345359294442,0.0,0.0,0.349065840244,0.0512802936137,-0.00463041197509,-0.313857734203,0.0121847186238,0.0121847186238,-0.00042673596181,-0.000114585091069,-0.167730867863,-0.167730867863,2.04635858536,-74.8061294556,2037,2079,2114,2027,2027,2736,3331,3350,3159,3300,3018,2979,3063,3090,3172,2928,3386,3378,3215,3280,2934,3283,3309,3031,0.009988926,1.579974212,1.578250308,0.401425719261,4500.0,0.398996651173,-0.00275938864797,0.0,0.0,0.0,6000.0,-0.00462455349043,-0.000540548295248,-0.00462455349043,27.9098129272,0.349065840244,0.0265011657029,-0.0329329706728,0.304537922144,-0.0144553901628,-0.0144553901628,0.00549328606576,-0.0284107793123,162.693328857,162.693328857,-252.344451904,-56.5483627319,2047,2052,2631,2036,2036,3055,3447,3446,3293,3381,3126,3016,3151,3105,3229,2753,3390,3408,3241,3363,3136,3351,3392,3200
1508402692900427096,159,1508402692899997147,plot_matl,-0.300000011921,-5000.0,-0.313842684031,-0.00038626845344,0.0,0.0,0.349065840244,0.0499308109283,-0.00453572394326,-0.313841849566,-0.00168490107171,-0.00168490107171,-0.00162038637791,-0.000401839526603,-0.215985521674,-0.215985521674,1.30531561375,-75.3274765015,2054,2088,2113,2027,2027,2736,3331,3350,3159,3300,3018,2979,3063,3090,3172,2930,3384,3381,3215,3296,2946,3295,3321,3044,0.010029193,1.590002504,1.594641687,0.401425719261,4500.0,0.398996651173,-0.00323922396637,0.0,0.0,0.0,6000.0,-0.00454020081088,-0.001557597192,-0.00454020081088,27.8992996216,0.349065840244,0.0289103612304,-0.0330280587077,0.304568380117,0.00944951642305,0.00944951642305,0.00658733816817,0.029703412205,163.415649414,163.415649414,-253.008544922,-56.2228622437,2058,2062,2630,2036,2036,3055,3447,3446,3293,3381,3126,3016,3151,3105,3229,2752,3388,3406,3240,3382,3149,3363,3403,3212
1508402692910472864,160,1508402692909985519,plot_matl,-0.300000011921,-5000.0,-0.313846468925,-0.000316200166708,0.0,0.0,0.349065840244,0.0499308109283,-0.00453572394326,-0.313841849566,-0.00168490107171,-0.00168490107171,-0.00162038637791,-0.000401839526603,-0.215985521674,-0.215985521674,1.30531561375,-75.3274765015,2040,2074,2113,2029,2029,2741,3335,3355,3163,3304,3022,2983,3066,3090,3172,2930,3384,3381,3215,3296,2946,3295,3321,3044,0.009986629,1.59999025,1.59786064,0.401425719261,4500.0,0.398996651173,-0.00258789747022,0.0,0.0,0.0,6000.0,-0.00456034624949,-0.00127505231649,-0.00456034624949,27.9084892273,0.349065840244,0.0289103612304,-0.0330280587077,0.304568380117,0.00944951642305,0.00944951642305,0.00658733816817,0.029703412205,163.415649414,163.415649414,-253.008544922,-56.2228622437,2040,2045,2630,2036,2036,3062,3452,3448,3298,3384,3129,3022,3157,3105,3229,2752,3388,3406,3240,3382,3149,3363,3403,3212
1508402692920391524,161,1508402692920036253,plot_matl,-0.300000011921,-5000.0,-0.313854634762,-0.000155888948939,0.0,0.0,0.349065840244,0.0499308109283,-0.00453572394326,-0.313841849566,-0.00168490107171,-0.00168490107171,-0.00162038637791,-0.000401839526603,-0.215985521674,-0.215985521674,1.30531561375,-75.3274765015,2022,2077,2113,2029,2029,2741,3335,3355,3163,3304,3022,2983,3066,3095,3175,2933,3389,3381,3218,3283,2935,3286,3310,3044,0.010050694,1.610041139,1.618161734,0.401425719261,4500.0,0.398996651173,-0.00111899711192,0.0,0.0,0.0,6000.0,-0.00455293990672,0.0118854520842,-0.00455293990672,24.1320304871,0.349065840244,0.0289103612304,-0.0330280587077,0.304568380117,0.00944951642305,0.00944951642305,0.00658733816817,0.029703412205,163.415649414,163.415649414,-253.008544922,-56.2228622437,2038,2051,2630,2036,2036,3062,3452,3448,3298,3384,3129,3022,3157,3110,3232,2756,3392,3409,3240,3365,3136,3353,3392,3212
1508402692930388110,162,1508402692930031130,plot_matl,-0.300000011921,-5000.0,-0.313856244087,-0.000127687104396,0.0,0.0,0.349065840244,0.0499308109283,-0.00453572394326,-0.313841849566,-0.00168490107171,-0.00168490107171,-0.00162038637791,-0.000401839526603,-0.215985521674,-0.215985521674,1.30531561375,-75.3274765015,2020,2061,2113,2029,2029,2736,3331,3351,3159,3298,3017,2983,3066,3095,3175,2933,3389,3381,3218,3283,2935,3286,3310,3031,0.009993759,1.62003584,1.618988958,0.401425719261,4500.0,0.400346130133,0.025828236714,0.0,0.0,0.0,6000.0,-0.00457072677091,-0.00126432499383,-0.00457072677091,27.9134349823,0.349065840244,0.0289103612304,-0.0330280587077,0.304568380117,0.00944951642305,0.00944951642305,0.00658733816817,0.029703412205,163.415649414,163.415649414,-253.008544922,-56.2228622437,2027,2028,2630,2037,2037,3056,3445,3445,3293,3382,3125,3022,3157,3110,3232,2756,3392,3409,3240,3365,3136,3353,3392,3200
1508402692940342971,163,1508402692939975347,plot_matl,-0.300000011921,-5000.0,-0.313857525587,-0.000104551851109,0.0,0.0,0.349065840244,0.0499308109283,-0.00455917045474,-0.313857316971,-0.000863396329805,-0.000863396329805,-0.00155145232566,-0.000108666448796,-0.0884816274047,-0.0884816274047,1.71579229832,-75.2644882202,2009,2060,2113,2029,2029,2736,3331,3351,3159,3298,3017,2979,3064,3092,3173,2930,3387,3381,3214,3280,2934,3286,3310,3031,0.00994346,1.629979614,1.62078398,0.401425719261,4500.0,0.398996651173,-0.00166140857618,0.0,0.0,0.0,6000.0,-0.00456265732646,-0.00149270729162,-0.00456265732646,27.9096298218,0.349065840244,0.0265011657029,-0.0330021865666,0.304361402988,-0.0113949244842,-0.0113949244842,-0.0088398149237,0.0357195436954,163.402740479,163.402740479,-253.109237671,-56.4177398682,2012,2025,2630,2037,2037,3056,3445,3445,3293,3382,3125,3019,3153,3109,3231,2753,3390,3407,3240,3365,3134,3353,3392,3200
1508402692950475310,164,1508402692949993884,plot_matl,-0.300000011921,-5000.0,-0.313853621483,-0.000185504657566,0.0,0.0,0.349065840244,0.0499308109283,-0.00455917045474,-0.313857316971,-0.000863396329805,-0.000863396329805,-0.00155145232566,-0.000108666448796,-0.0884816274047,-0.0884816274047,1.71579229832,-75.2644882202,1994,2039,2113,2029,2029,2734,3331,3349,3159,3298,3017,2979,3064,3092,3173,2930,3387,3381,3214,3280,2934,3284,3310,3031,0.010019917,1.639999086,1.643266388,0.401425719261,4500.0,0.398996651173,-0.00188896828331,0.0,0.0,0.0,6000.0,-0.00456693349406,-0.00145660305861,-0.00456693349406,27.9012851715,0.349065840244,0.0265011657029,-0.0330021865666,0.304361402988,-0.0113949244842,-0.0113949244842,-0.0088398149237,0.0357195436954,163.402740479,163.402740479,-253.109237671,-56.4177398682,2002,2008,2629,2034,2034,3057,3446,3445,3293,3382,3125,3019,3153,3109,3231,2753,3390,3407,3240,3365,3134,3351,3393,3199
1508402692960635978,165,1508402692960056440,plot_matl,-0.300000011921,-5000.0,-0.31385537982,-0.000151859567268,0.0,0.0,0.349065840244,0.0499308109283,-0.00455917045474,-0.313857316971,-0.000863396329805,-0.000863396329805,-0.00155145232566,-0.000108666448796,-0.0884816274047,-0.0884816274047,1.71579229832,-75.2644882202,1989,2036,2113,2029,2029,2734,3331,3349,3159,3299,3017,2980,3065,3092,3172,2932,3384,3378,3215,3280,2934,3284,3310,3031,0.010063468,1.650062027,1.66047222,0.401425719261,4500.0,0.398996651173,-0.00153318594676,0.0,0.0,0.0,6000.0,-0.00458222767338,-0.0011924180435,-0.00458222767338,27.9066505432,0.349065840244,0.0265011657029,-0.0330021865666,0.304361402988,-0.0113949244842,-0.0113949244842,-0.0088398149237,0.0357195436954,163.402740479,163.402740479,-253.109237671,-56.4177398682,1995,2005,2629,2034,2034,3057,3446,3445,3293,3381,3125,3017,3152,3106,3228,2754,3388,3408,3239,3365,3134,3351,3393,3199
1508402692970409804,166,1508402692969985372,plot_matl,-0.300000011921,-5000.0,-0.313857674599,-0.000112804715172,0.0,0.0,0.349065840244,0.0499308109283,-0.00455917045474,-0.313857316971,-0.000863396329805,-0.000863396329805,-0.00155145232566,-0.000108666448796,-0.0884816274047,-0.0884816274047,1.71579229832,-75.2644882202,1997,2039,2114,2027,2027,2736,3328,3349,3159,3299,3017,2980,3065,3092,3172,2932,3384,3378,3215,3280,2935,3283,3310,3033,0.009926673,1.659990183,1.647827718,0.401425719261,4500.0,0.398996651173,-0.00176968076266,0.0,0.0,0.0,6000.0,-0.00459478935227,-0.00097543199081,-0.00459478935227,27.9244556427,0.349065840244,0.0265011657029,-0.0330021865666,0.304361402988,-0.0113949244842,-0.0113949244842,-0.0088398149237,0.0357195436954,163.402740479,163.402740479,-253.109237671,-56.4177398682,2002,2006,2630,2034,2034,3057,3445,3445,3293,3381,3125,3017,3152,3106,3228,2754,3388,3408,3239,3365,3133,3351,3391,3201
1508402692980262589,167,1508402692980003036,plot_matl,-0.300000011921,-5000.0,-0.31385871768,-9.24602572923e-05,0.0,0.0,0.349065840244,0.0499308109283,-0.00460308743641,-0.313858509064,-0.000769125996158,-0.000769125996158,-0.000832090387121,-9.62278500083e-05,-0.0427717156708,-0.0427717156708,2.06522679329,-75.1701126099,1985,2018,2114,2027,2027,2736,3328,3351,3160,3299,3018,2979,3064,3091,3173,2931,3385,3378,3215,3280,2935,3283,3310,3033,0.010006314,1.670007702,1.671054438,0.401425719261,4500.0,0.400346130133,0.0252506919205,0.0,0.0,0.0,6000.0,-0.00460497336462,-0.000799511733931,-0.00460497336462,27.9026927948,0.349065840244,0.0289103612304,-0.0329139716923,0.304406195879,0.012899515219,0.012899515219,-0.010415462777,0.0355409011245,163.01524353,163.01524353,-253.09777832,-56.6129989624,2001,1994,2630,2034,2034,3057,3445,3443,3292,3382,3127,3016,3152,3106,3230,2754,3390,3408,3239,3365,3133,3351,3391,3201
1508402692990236508,168,1508402692989994237,plot_matl,-0.300000011921,-5000.0,-0.313854396343,-0.000184439428267,0.0,0.0,0.349065840244,0.0499308109283,-0.00460308743641,-0.313858509064,-0.000769125996158,-0.000769125996158,-0.000832090387121,-9.62278500083e-05,-0.0427717156708,-0.0427717156708,2.06522679329,-75.1701126099,2009,2036,2115,2026,2026,2736,3328,3351,3160,3299,3018,2979,3064,3091,3173,2931,3385,3380,3217,3280,2933,3283,3310,3032,0.00999032,1.679998571,1.67837376,0.401425719261,4500.0,0.398996651173,-0.00165164598729,0.0,0.0,0.0,6000.0,-0.00460051884875,0.0125059606507,-0.00460051884875,23.9699230194,0.349065840244,0.0289103612304,-0.0329139716923,0.304406195879,0.012899515219,0.012899515219,-0.010415462777,0.0355409011245,163.01524353,163.01524353,-253.09777832,-56.6129989624,2017,2012,2631,2033,2033,3057,3445,3443,3292,3382,3127,3016,3152,3106,3230,2754,3390,3408,3238,3366,3134,3349,3391,3202
1508402693000426659,169,1508402693000018399,plot_matl,-0.300000011921,-5000.0,-0.313850909472,-0.000253135280218,0.0,0.0,0.349065840244,0.0499308109283,-0.00460308743641,-0.313858509064,-0.000769125996158,-0.000769125996158,-0.000832090387121,-9.62278500083e-05,-0.0427717156708,-0.0427717156708,2.06522679329,-75.1701126099,2005,2037,2115,2026,2026,2736,3329,3350,3161,3300,3018,2978,3063,3090,3172,2931,3385,3380,3217,3280,2933,3283,3310,3032,0.0100252,1.69002345,1.6942588,0.401425719261,4500.0,0.398996651173,-0.000879922357854,0.0,0.0,0.0,6000.0,-0.00459664920345,0.0124054569751,-0.00459664920345,23.9099998474,0.349065840244,0.0289103612304,-0.0329139716923,0.304406195879,0.012899515219,0.012899515219,-0.010415462777,0.0355409011245,163.01524353,163.01524353,-253.09777832,-56.6129989624,2017,2018,2631,2033,2033,3056,3444,3445,3293,3380,3125,3017,3150,3105,3228,2754,3390,3408,3238,3366,3134,3349,3391,3202
1508402693010158900,170,1508402693009983443,plot_matl,-0.300000011921,-5000.0,-0.313853174448,-0.000207249686355,0.0,0.0,0.349065840244,0.0499308109283,-0.00460308743641,-0.313858509064,-0.000769125996158,-0.000769125996158,-0.000832090387121,-9.62278500083e-05,-0.0427717156708,-0.0427717156708,2.06522679329,-75.1701126099,1998,2050,2114,2026,2026,2736,3329,3350,3161,3300,3018,2978,3063,3090,3172,2932,3386,3380,3219,3279,2934,3282,3308,3030,0.009964619,1.699988319,1.69398523,0.401425719261,4500.0,0.398996651173,-0.000218215369387,0.0,0.0,0.0,6000.0,-0.00458432361484,-0.0012832749635,-0.00458432361484,27.916934967,0.349065840244,0.0289103612304,-0.0329139716923,0.304406195879,0.012899515219,0.012899515219,-0.010415462777,0.0355409011245,163.01524353,163.01524353,-253.09777832,-56.6129989624,2010,2015,2631,2033,2033,3056,3444,3445,3293,3380,3125,3017,3150,3105,3228,2753,3391,3408,3240,3365,3135,3350,3392,3199
1508402693020423655,171,1508402693020006139,plot_matl,-0.300000011921,-5000.0,-0.313844293356,-0.00038385076914,0.0,0.0,0.349065840244,0.0512802936137,-0.00458236318082,-0.313849389553,0.0137624498457,0.0137624498457,-0.00133021408692,-0.00028236527578,-0.0257399640977,-0.0257399640977,2.13084340096,-75.2379608154,2015,2062,2114,2026,2026,2736,3328,3349,3158,3299,3018,2981,3063,3090,3172,2932,3386,3380,3219,3279,2934,3282,3308,3030,0.010022399,1.7100112,1.713830229,0.401425719261,4500.0,0.398996651173,0.00025854606065,0.0,0.0,0.0,6000.0,-0.0045849760063,-0.00127976690419,-0.0045849760063,27.8920898438,0.349065840244,0.0265011657029,-0.0328479781747,0.304864376783,-0.0140241375193,-0.0140241375193,0.00369057501666,0.0265772864223,162.881668091,162.881668091,-252.696777344,-56.2070007324,2024,2035,2631,2037,2037,3055,3444,3443,3294,3382,3126,3015,3151,3105,3228,2753,3391,3408,3240,3365,3135,3350,3392,3199
1508402693030462036,172,1508402693030007932,plot_matl,-0.300000011921,-5000.0,-0.313842535019,-0.000419749645516,0.0,0.0,0.349065840244,0.0512802936137,-0.00458236318082,-0.313849389553,0.0137624498457,0.0137624498457,-0.00133021408692,-0.00028236527578,-0.0257399640977,-0.0257399640977,2.13084340096,-75.2379608154,2021,2064,2114,2026,2026,2736,3328,3349,3158,3299,3018,2981,3063,3088,3172,2931,3386,3379,3216,3281,2935,3282,3309,3030,0.010001322,1.720012908,1.720227384,0.401425719261,4500.0,0.400346130133,0.0264403931797,0.0,0.0,0.0,6000.0,-0.00458411825821,-0.00130399188492,-0.00458411825821,27.9091243744,0.349065840244,0.0265011657029,-0.0328479781747,0.304864376783,-0.0140241375193,-0.0140241375193,0.00369057501666,0.0265772864223,162.881668091,162.881668091,-252.696777344,-56.2070007324,2021,2031,2631,2037,2037,3055,3444,3443,3294,3382,3126,3015,3151,3104,3230,2754,3389,3409,3241,3365,3134,3351,3390,3199
1508402693040352267,173,1508402693040010521,plot_matl,-0.300000011921,-5000.0,-0.313825398684,-0.000765414151829,0.0,0.0,0.349065840244,0.0512802936137,-0.00458236318082,-0.313849389553,0.0137624498457,0.0137624498457,-0.00133021408692,-0.00028236527578,-0.0257399640977,-0.0257399640977,2.13084340096,-75.2379608154,2024,2064,2114,2030,2030,2735,3330,3349,3160,3298,3016,2981,3063,3088,3172,2931,3386,3379,3216,3281,2935,3282,3309,3032,0.010002324,1.730015603,1.730402052,0.401425719261,4500.0,0.398996651173,-0.00122346822172,0.0,0.0,0.0,6000.0,-0.00458527728915,-0.00129197642673,-0.00458527728915,27.9132385254,0.349065840244,0.0265011657029,-0.0328479781747,0.304864376783,-0.0140241375193,-0.0140241375193,0.00369057501666,0.0265772864223,162.881668091,162.881668091,-252.696777344,-56.2070007324,2030,2034,2631,2029,2029,3057,3445,3443,3296,3382,3125,3015,3151,3104,3230,2754,3389,3409,3241,3365,3134,3351,3390,3201
1508402693050448979,174,1508402693049991427,plot_matl,-0.300000011921,-5000.0,-0.313822358847,-0.000826758972835,0.0,0.0,0.349065840244,0.0512802936137,-0.00458236318082,-0.313849389553,0.0137624498457,0.0137624498457,-0.00133021408692,-0.00028236527578,-0.0257399640977,-0.0257399640977,2.13084340096,-75.2379608154,2032,2070,2114,2030,2030,2735,3330,3349,3160,3298,3016,2978,3063,3091,3173,2930,3386,3380,3219,3282,2932,3282,3309,3032,0.009980725,1.739996659,1.73664615,0.401425719261,4500.0,0.398996651173,-0.00247293547727,0.0,0.0,0.0,6000.0,-0.00457314681262,0.0118766967207,-0.00457314681262,23.9856910706,0.349065840244,0.0265011657029,-0.0328479781747,0.304864376783,-0.0140241375193,-0.0140241375193,0.00369057501666,0.0265772864223,162.881668091,162.881668091,-252.696777344,-56.2070007324,2038,2039,2631,2029,2029,3057,3445,3443,3296,3382,3125,3016,3151,3106,3229,2753,3389,3406,3238,3363,3134,3351,3390,3201
1508402693060097003,175,1508402693059966183,plot_matl,-0.300000011921,-5000.0,-0.313840538263,-0.000459315750049,0.0,0.0,0.349065840244,0.0499308109283,-0.00458471896127,-0.313833773136,-0.00103879335802,-0.00103879335802,-0.00131740339566,-0.000596985279117,-0.111365415156,-0.111365415156,1.30203461647,-75.1936645508,2038,2060,2114,2033,2033,2735,3331,3350,3160,3298,3016,2978,3063,3091,3173,2930,3386,3380,3219,3282,2932,3283,3310,3030,0.009972692,1.749970418,1.7452211,0.401425719261,4500.0,0.398996651173,-0.0019971288275,0.0,0.0,0.0,6000.0,-0.00458729593083,-0.00126638484653,-0.00458729593083,27.9097976685,0.349065840244,0.0289103612304,-0.0328715480864,0.30493375659,0.00912788324058,0.00912788324058,0.00423499755561,0.0253394730389,162.904953003,162.904953003,-252.766983032,-56.3247451782,2042,2039,2631,2036,2036,3056,3445,3444,3292,3382,3125,3016,3151,3106,3229,2753,3389,3406,3238,3363,3134,3350,3390,3200
1508402693070298506,176,1508402693070017985,plot_matl,-0.300000011921,-5000.0,-0.313844710588,-0.000375566771254,0.0,0.0,0.349065840244,0.0499308109283,-0.00458471896127,-0.313833773136,-0.00103879335802,-0.00103879335802,-0.00131740339566,-0.000596985279117,-0.111365415156,-0.111365415156,1.30203461647,-75.1936645508,2038,2060,2114,2033,2033,2735,3331,3350,3160,3298,3016,2978,3063,3091,3173,2930,3386,3380,3219,3282,2932,3283,3310,3030,0.010054153,1.760023583,1.769530928,0.401425719261,4500.0,0.398996651173,-0.0019971288275,0.0,0.0,0.0,6000.0,-0.0045877918601,-0.00127443741076,-0.0045877918601,27.932762146,0.349065840244,0.0289103612304,-0.0328715480864,0.30493375659,0.00912788324058,0.00912788324058,0.00423499755561,0.0253394730389,162.904953003,162.904953003,-252.766983032,-56.3247451782,2042,2039,2631,2036,2036,3056,3445,3444,3292,3382,3125,3016,3151,3106,3229,2753,3389,3406,3238,3363,3134,3350,3390,3200
1508402693080266878,177,1508402693079992231,plot_matl,-0.300000011921,-5000.0,-0.313844710588,-0.000375566771254,0.0,0.0,0.349065840244,0.0499308109283,-0.00458471896127,-0.313833773136,-0.00103879335802,-0.00103879335802,-0.00131740339566,-0.000596985279117,-0.111365415156,-0.111365415156,1.30203461647,-75.1936645508,2031,2065,2114,2033,2033,2735,3331,3350,3160,3298,3018,2978,3065,3091,3173,2930,3387,3392,3228,3282,2932,3283,3310,3030,0.009973368,1.769997588,1.765286136,0.401425719261,4500.0,0.398996651173,-0.000834310427308,0.0,0.0,0.0,6000.0,-0.0045877918601,-0.00127443741076,-0.0045877918601,27.932762146,0.349065840244,0.0289103612304,-0.0328715480864,0.30493375659,0.00912788324058,0.00912788324058,0.00423499755561,0.0253394730389,162.904953003,162.904953003,-252.766983032,-56.3247451782,2048,2037,2631,2036,2036,3056,3445,3444,3292,3382,3126,3018,3153,3106,3229,2753,3390,3421,3252,3363,3134,3350,3390,3200
1508402693090192220,178,1508402693089965878,plot_matl,-0.300000011921,-5000.0,-0.313838422298,-0.000502162147313,0.0,0.0,0.349065840244,0.0499308109283,-0.00458471896127,-0.313833773136,-0.00103879335802,-0.00103879335802,-0.00131740339566,-0.000596985279117,-0.111365415156,-0.111365415156,1.30203461647,-75.1936645508,2021,2067,2113,2028,2028,2737,3336,3350,3160,3298,3018,2978,3065,3091,3173,2930,3387,3392,3228,3291,2942,3291,3317,3038,0.009971643,1.779970398,1.774952454,0.401425719261,4500.0,0.398996651173,-0.000834310427308,0.0,0.0,0.0,6000.0,-0.00459100399166,0.0122124608606,-0.00459100399166,23.8589553833,0.349065840244,0.0289103612304,-0.0328715480864,0.30493375659,0.00912788324058,0.00912788324058,0.00423499755561,0.0253394730389,162.904953003,162.904953003,-252.766983032,-56.3247451782,2028,2038,2631,2035,2035,3060,3449,3444,3292,3382,3126,3018,3153,3106,3229,2753,3390,3421,3252,3374,3142,3357,3397,3206
1508402693100500821,179,1508402693100059080,plot_matl,-0.300000011921,-5000.0,-0.313844293356,-0.000197854737053,0.0,0.0,0.349065840244,0.0499308109283,-0.00459138397127,-0.313843518496,-0.000325081957271,-0.000325081957271,-0.00120689638425,-0.000205950345844,-0.151563555002,-0.151563555002,1.17716157436,-75.0288619995,2007,2037,2113,2028,2028,2737,3336,3364,3172,3311,3027,2989,3070,3098,3181,2937,3392,3392,3228,3291,2942,3291,3317,3038,0.010095836,1.790064362,1.807154644,0.401425719261,4500.0,0.398996651173,-0.000624606909696,0.0,0.0,0.0,6000.0,-0.00459373742342,-0.00115945504513,-0.00459373742342,27.9131813049,0.349065840244,0.0265011657029,-0.0328100547194,0.305078476667,-0.017427040264,-0.017427040264,-0.0119376443326,0.0245934780687,162.984298706,162.984298706,-252.847549438,-56.4523658752,2022,2017,2631,2035,2035,3060,3449,3458,3307,3395,3134,3024,3159,3114,3236,2758,3395,3421,3252,3374,3142,3357,3397,3206
1508402693110161900,180,1508402693110011852,plot_matl,-0.300000011921,-5000.0,-0.313842892647,-0.000261931214482,0.0,0.0,0.349065840244,0.0499308109283,-0.00459138397127,-0.313843518496,-0.000325081957271,-0.000325081957271,-0.00120689638425,-0.000205950345844,-0.151563555002,-0.151563555002,1.17716157436,-75.0288619995,2011,2039,2114,2029,2029,2737,3336,3364,3172,3311,3027,2989,3070,3098,3181,2937,3392,3384,3220,3287,2936,3287,3312,3036,0.009951073,1.800016989,1.79119314,0.401425719261,4500.0,0.398996651173,-4.81111601403e-05,0.0,0.0,0.0,6000.0,-0.00461599649861,-0.00071608525468,-0.00461599649861,27.9097137451,0.349065840244,0.0265011657029,-0.0328100547194,0.305078476667,-0.017427040264,-0.017427040264,-0.0119376443326,0.0245934780687,162.984298706,162.984298706,-252.847549438,-56.4523658752,2019,2017,2631,2030,2030,3060,3449,3458,3307,3395,3134,3024,3159,3114,3236,2758,3395,3413,3244,3369,3138,3352,3394,3202
1508402693120213011,181,1508402693119990203,plot_matl,-0.300000011921,-5000.0,-0.313841402531,-0.000317300553434,0.0,0.0,0.349065840244,0.0499308109283,-0.00459138397127,-0.313843518496,-0.000325081957271,-0.000325081957271,-0.00120689638425,-0.000205950345844,-0.151563555002,-0.151563555002,1.17716157436,-75.0288619995,2005,2039,2114,2029,2029,2738,3333,3352,3159,3299,3019,2981,3065,3090,3174,2937,3392,3384,3220,3287,2936,3287,3312,3036,0.009977598,1.80999521,1.805945238,0.401425719261,4500.0,0.398996651173,-0.00096336484421,0.0,0.0,0.0,6000.0,-0.00459705386311,0.0123231643811,-0.00459705386311,23.8164672852,0.349065840244,0.0265011657029,-0.0328100547194,0.305078476667,-0.017427040264,-0.017427040264,-0.0119376443326,0.0245934780687,162.984298706,162.984298706,-252.847549438,-56.4523658752,2005,2009,2631,2030,2030,3057,3447,3445,3295,3382,3126,3018,3153,3107,3231,2758,3395,3413,3244,3369,3138,3352,3394,3202
1508402693130256473,182,1508402693129985649,plot_matl,-0.300000011921,-5000.0,-0.313845425844,-0.000259648775682,0.0,0.0,0.349065840244,0.0499308109283,-0.00459138397127,-0.313843518496,-0.000325081957271,-0.000325081957271,-0.00120689638425,-0.000205950345844,-0.151563555002,-0.151563555002,1.17716157436,-75.0288619995,1998,2046,2114,2029,2029,2738,3333,3352,3159,3299,3019,2981,3065,3090,3174,2933,3388,3380,3217,3283,2935,3283,3311,3031,0.009994226,1.81999016,1.818949132,0.401425719261,4500.0,0.398996651173,-0.00127577607054,0.0,0.0,0.0,6000.0,-0.00460690213367,-0.000900305924006,-0.00460690213367,27.9306144714,0.349065840244,0.0265011657029,-0.0328100547194,0.305078476667,-0.017427040264,-0.017427040264,-0.0119376443326,0.0245934780687,162.984298706,162.984298706,-252.847549438,-56.4523658752,2001,2012,2631,2030,2030,3057,3447,3445,3295,3382,3126,3018,3153,3107,3231,2755,3391,3411,3240,3367,3137,3352,3392,3201
1508402693140198670,183,1508402693139977561,plot_matl,-0.300000011921,-5000.0,-0.313837587833,-0.000428857922088,0.0,0.0,0.349065840244,0.0499308109283,-0.00461344234645,-0.31383651495,-0.000562318833545,-0.000562318833545,-0.000767557590734,-0.000446663092589,-0.21831177175,-0.21831177175,1.75430059433,-75.1750640869,1995,2041,2114,2029,2029,2736,3333,3351,3160,3301,3018,2980,3065,3090,3174,2933,3388,3380,3217,3283,2935,3283,3311,3031,0.009991649,1.829982154,1.828471767,0.401425719261,4500.0,0.398996651173,-0.00107980659232,0.0,0.0,0.0,6000.0,-0.0046149501577,-0.000736960675567,-0.0046149501577,27.9166164398,0.349065840244,0.0313195586205,-0.0328145772219,0.304792106152,0.0313207283616,0.0313207283616,-0.0120247993618,-0.0326604805887,163.355148315,163.355148315,-252.890808105,-56.035900116,2007,2019,2631,2029,2029,3056,3446,3445,3295,3382,3126,3015,3152,3107,3231,2755,3391,3411,3240,3367,3137,3352,3392,3201
1508402693150216921,184,1508402693149974066,plot_matl,-0.300000011921,-5000.0,-0.31383690238,-0.000464066804852,0.0,0.0,0.349065840244,0.0499308109283,-0.00461344234645,-0.31383651495,-0.000562318833545,-0.000562318833545,-0.000767557590734,-0.000446663092589,-0.21831177175,-0.21831177175,1.75430059433,-75.1750640869,2006,2040,2114,2029,2029,2736,3333,3351,3160,3301,3018,2980,3065,3091,3174,2932,3384,3379,3217,3283,2935,3284,3312,3031,0.009996112,1.839978467,1.839284608,0.401425719261,4500.0,0.398996651173,0.000148596300278,0.0,0.0,0.0,6000.0,-0.00462149223313,-0.000604169967119,-0.00462149223313,27.9087696075,0.349065840244,0.0313195586205,-0.0328145772219,0.304792106152,0.0313207283616,0.0313207283616,-0.0120247993618,-0.0326604805887,163.355148315,163.355148315,-252.890808105,-56.035900116,2011,2016,2631,2029,2029,3056,3446,3445,3295,3382,3126,3015,3152,3104,3231,2754,3391,3409,3240,3367,3134,3352,3391,3201
1508402693160128193,185,1508402693159971365,plot_matl,-0.300000011921,-5000.0,-0.313833117485,-0.00056108814897,0.0,0.0,0.349065840244,0.0499308109283,-0.00461344234645,-0.31383651495,-0.000562318833545,-0.000562318833545,-0.000767557590734,-0.000446663092589,-0.21831177175,-0.21831177175,1.75430059433,-75.1750640869,1996,2047,2115,2029,2029,2741,3336,3355,3163,3302,3021,2980,3065,3091,3174,2932,3384,3379,3217,3283,2935,3284,3312,3031,0.009996919,1.849975643,1.849430015,0.401425719261,4500.0,0.400346130133,0.027273664251,0.0,0.0,0.0,6000.0,-0.00462789880112,-0.000474135682452,-0.00462789880112,27.9205493927,0.349065840244,0.0313195586205,-0.0328145772219,0.304792106152,0.0313207283616,0.0313207283616,-0.0120247993618,-0.0326604805887,163.355148315,163.355148315,-252.890808105,-56.035900116,2003,2015,2632,2030,2030,3064,3450,3451,3297,3385,3127,3015,3152,3104,3231,2754,3391,3409,3240,3367,3134,3352,3391,3201
1508402693170259597,186,1508402693169967818,plot_matl,-0.300000011921,-5000.0,-0.313815891743,-0.000905633554794,0.0,0.0,0.349065840244,0.0499308109283,-0.00461344234645,-0.31383651495,-0.000562318833545,-0.000562318833545,-0.000767557590734,-0.000446663092589,-0.21831177175,-0.21831177175,1.75430059433,-75.1750640869,1996,2047,2115,2029,2029,2741,3336,3355,3163,3302,3021,2980,3065,3091,3174,2932,3384,3379,3217,3283,2935,3284,3312,3031,0.009996273,1.859972117,1.859306778,0.401425719261,4500.0,0.400346130133,0.0282122958452,0.0,0.0,0.0,6000.0,-0.00462789880112,-0.000474135682452,-0.00462789880112,27.9205493927,0.349065840244,0.0313195586205,-0.0328145772219,0.304792106152,0.0313207283616,0.0313207283616,-0.0120247993618,-0.0326604805887,163.355148315,163.355148315,-252.890808105,-56.035900116,2003,2015,2632,2030,2030,3064,3450,3451,3297,3385,3127,3015,3152,3104,3231,2754,3391,3409,3240,3367,3134,3352,3391,3201
1508402693180338590,187,1508402693180016906,plot_matl,-0.300000011921,-5000.0,-0.313815891743,-0.000905633554794,0.0,0.0,0.349065840244,0.0499308109283,-0.00462641892955,-0.313831210136,0.000305021821987,0.000305021821987,-0.000504170719068,-0.000596631318331,-0.325324177742,-0.325324177742,1.40191483498,-75.6170806885,2014,2050,2115,2029,2029,2741,3336,3355,3163,3302,3021,2980,3066,3092,3175,2933,3388,3381,3218,3284,2936,3284,3312,3031,0.010049951,1.870021807,1.879340837,0.401425719261,4500.0,0.400346130133,0.0282122958452,0.0,0.0,0.0,6000.0,-0.00461010215804,-0.000834463979118,-0.00461010215804,27.9042510986,0.349065840244,0.0313195586205,-0.0328435599804,0.304931312799,0.0333945676684,0.0333945676684,0.0038072085008,0.0270407572389,163.216461182,163.216461182,-252.561630249,-55.9772338867,2021,2025,2632,2030,2030,3064,3450,3451,3297,3385,3127,3017,3154,3108,3233,2753,3390,3410,3242,3370,3136,3352,3391,3201
1508402693190341059,188,1508402693190001750,plot_matl,-0.300000011921,-5000.0,-0.313817232847,-0.000896891753655,0.0,0.0,0.349065840244,0.0499308109283,-0.00462641892955,-0.313831210136,0.000305021821987,0.000305021821987,-0.000504170719068,-0.000596631318331,-0.325324177742,-0.325324177742,1.40191483498,-75.6170806885,2005,2048,2116,2029,2029,2737,3330,3350,3160,3302,3021,2980,3066,3092,3175,2933,3388,3381,3218,3284,2936,3284,3312,3032,0.009984449,1.880006636,1.877076412,0.401425719261,4500.0,0.400346130133,0.0267585143447,0.0,0.0,0.0,6000.0,-0.00461755506694,-0.00068335456308,-0.00461755506694,27.904209137,0.349065840244,0.0313195586205,-0.0328435599804,0.304931312799,0.0333945676684,0.0333945676684,0.0038072085008,0.0270407572389,163.216461182,163.216461182,-252.561630249,-55.9772338867,2014,2020,2632,2026,2026,3056,3446,3445,3295,3385,3127,3017,3154,3108,3233,2753,3390,3410,3242,3370,3136,3351,3394,3202
1508402693200646851,189,1508402693200043629,plot_matl,-0.300000011921,-5000.0,-0.313814759254,-0.000951894908212,0.0,0.0,0.349065840244,0.0499308109283,-0.00462641892955,-0.313831210136,0.000305021821987,0.000305021821987,-0.000504170719068,-0.000596631318331,-0.325324177742,-0.325324177742,1.40191483498,-75.6170806885,2013,2053,2114,2028,2028,2736,3330,3350,3160,3300,3017,2981,3063,3090,3172,2932,3386,3381,3218,3282,2935,3284,3311,3031,0.010043558,1.890048926,1.898232462,0.401425719261,4500.0,0.398996651173,0.000119937700219,0.0,0.0,0.0,6000.0,-0.00462866248563,-0.00045814726036,-0.00462866248563,27.9082450867,0.349065840244,0.0313195586205,-0.0328435599804,0.304931312799,0.0333945676684,0.0333945676684,0.0038072085008,0.0270407572389,163.216461182,163.216461182,-252.561630249,-55.9772338867,2026,2030,2632,2031,2031,3056,3446,3445,3295,3382,3126,3016,3152,3105,3230,2753,3390,3407,3238,3365,3136,3349,3391,3203
1508402693210349606,190,1508402693209996356,plot_matl,-0.300000011921,-5000.0,-0.313818305731,-0.00088714028243,0.0,0.0,0.349065840244,0.0499308109283,-0.00462641892955,-0.313831210136,0.000305021821987,0.000305021821987,-0.000504170719068,-0.000596631318331,-0.325324177742,-0.325324177742,1.40191483498,-75.6170806885,2010,2053,2114,2028,2028,2736,3330,3347,3160,3298,3018,2980,3063,3090,3174,2930,3386,3381,3218,3282,2935,3284,3311,3031,0.009951344,1.900001728,1.89075536,0.401425719261,4500.0,0.397647172213,-0.0256291683763,0.0,0.0,0.0,6000.0,-0.00463276728988,-0.000374911556719,-0.00463276728988,27.9094676971,0.349065840244,0.0313195586205,-0.0328435599804,0.304931312799,0.0333945676684,0.0333945676684,0.0038072085008,0.0270407572389,163.216461182,163.216461182,-252.561630249,-55.9772338867,2018,2026,2632,2031,2031,3056,3446,3443,3294,3383,3126,3015,3154,3105,3230,2753,3392,3407,3238,3365,3136,3349,3391,3203
1508402693220454348,191,1508402693219995397,plot_matl,-0.300000011921,-5000.0,-0.313810318708,0.00492218183354,0.0,0.0,0.349065840244,0.0499308109283,-0.00461474526674,-0.313815563917,0.000679685152136,0.000679685152136,-0.000740328396205,-0.000916173157748,-0.364359885454,-0.364359885454,1.42381334305,-75.7376556396,2022,2065,2116,2022,2022,2736,3330,3347,3160,3298,3018,2980,3063,3090,3174,2930,3386,3378,3215,3283,2935,3282,3309,3031,0.009997593,1.910000323,1.909540263,0.401425719261,4500.0,0.398996651173,0.00181362719741,0.0,0.0,0.0,6000.0,-0.00463611399755,-0.000307062960928,-0.00463611399755,27.9090976715,0.349065840244,0.0289103612304,-0.0328894332051,0.305087387562,0.00999545771629,0.00999545771629,-0.0106757264584,0.0234917830676,162.938186646,162.938186646,-252.482467651,-56.3492355347,2027,2034,2632,2034,2034,3056,3446,3443,3294,3383,3126,3015,3154,3105,3230,2753,3392,3409,3239,3367,3136,3353,3392,3201
1508402693230438060,192,1508402693230008927,plot_matl,-0.300000011921,-5000.0,-0.313809245825,-0.0010798885487,0.0,0.0,0.349065840244,0.0499308109283,-0.00461474526674,-0.313815563917,0.000679685152136,0.000679685152136,-0.000740328396205,-0.000916173157748,-0.364359885454,-0.364359885454,1.42381334305,-75.7376556396,2015,2057,2116,2022,2022,2735,3327,3348,3160,3299,3018,2979,3063,3089,3174,2930,3386,3378,3215,3283,2935,3282,3309,3031,0.010013475,1.920014039,1.9225872,0.401425719261,4500.0,0.398996651173,0.00152788043488,0.0,0.0,0.0,6000.0,-0.00463885255158,-0.000251527817454,-0.00463885255158,27.9064655304,0.349065840244,0.0289103612304,-0.0328894332051,0.305087387562,0.00999545771629,0.00999545771629,-0.0106757264584,0.0234917830676,162.938186646,162.938186646,-252.482467651,-56.3492355347,2029,2032,2632,2034,2034,3057,3445,3442,3293,3382,3127,3015,3152,3105,3229,2753,3392,3409,3239,3367,3136,3353,3392,3201
1508402693240152346,193,1508402693239973019,plot_matl,-0.300000011921,-5000.0,-0.313819110394,-0.000883341708686,0.0,0.0,0.349065840244,0.0499308109283,-0.00461474526674,-0.313815563917,0.000679685152136,0.000679685152136,-0.000740328396205,-0.000916173157748,-0.364359885454,-0.364359885454,1.42381334305,-75.7376556396,2021,2063,2115,2022,2022,2735,3327,3348,3160,3299,3018,2979,3063,3089,3174,2930,3386,3381,3218,3283,2935,3283,3308,3032,0.009962025,1.929977062,1.922670825,0.401425719261,4500.0,0.397647172213,-0.0235842000693,0.0,0.0,0.0,6000.0,-0.00464111054316,-0.000205748103326,-0.00464111054316,27.9048118591,0.349065840244,0.0289103612304,-0.0328894332051,0.305087387562,0.00999545771629,0.00999545771629,-0.0106757264584,0.0234917830676,162.938186646,162.938186646,-252.482467651,-56.3492355347,2027,2032,2631,2034,2034,3057,3445,3442,3293,3382,3127,3015,3152,3105,3229,2753,3391,3408,3240,3365,3134,3349,3390,3201
1508402693250436038,194,1508402693250008032,plot_matl,-0.300000011921,-5000.0,-0.313827157021,-0.000723088160157,0.0,0.0,0.349065840244,0.0499308109283,-0.00461474526674,-0.313815563917,0.000679685152136,0.000679685152136,-0.000740328396205,-0.000916173157748,-0.364359885454,-0.364359885454,1.42381334305,-75.7376556396,2030,2057,2115,2023,2023,2736,3331,3352,3157,3297,3018,2979,3064,3089,3174,2930,3386,3381,3218,3283,2935,3283,3308,3032,0.01003689,1.94001335,1.94715666,0.401425719261,4500.0,0.397647172213,-0.0242549851537,0.0,0.0,0.0,6000.0,-0.00464295176789,-0.000168421815033,-0.00464295176789,27.9101810455,0.349065840244,0.0289103612304,-0.0328894332051,0.305087387562,0.00999545771629,0.00999545771629,-0.0106757264584,0.0234917830676,162.938186646,162.938186646,-252.482467651,-56.3492355347,2032,2036,2631,2029,2029,3054,3445,3445,3293,3380,3125,3016,3153,3105,3229,2753,3391,3408,3240,3365,3134,3349,3390,3201
1508402693260709774,195,1508402693260024113,plot_matl,-0.300000011921,-5000.0,-0.313834011555,-0.00058883667225,0.0,0.0,0.349065840244,0.0499308109283,-0.00463484739885,-0.313812255859,0.000982633559033,0.000982633559033,-0.000332736904966,-0.00101319618989,0.138338536024,0.138338536024,1.11650288105,-75.376739502,2021,2054,2115,2023,2023,2736,3331,3352,3157,3297,3018,2979,3064,3088,3171,2932,3385,3379,3216,3282,2934,3282,3310,3032,0.010016161,1.95002949,1.953151395,0.401425719261,4500.0,0.398996651173,0.00250472780317,0.0,0.0,0.0,6000.0,-0.00464445305988,-0.000137975017424,-0.00464445305988,27.9085826874,0.349065840244,0.0265011657029,-0.0329193286598,0.305056244135,-0.0133027974516,-0.0133027974516,0.00522916764021,-0.0383344888687,162.77583313,162.77583313,-252.197525024,-56.0237884521,2031,2030,2631,2029,2029,3054,3445,3445,3293,3380,3125,3016,3153,3106,3230,2752,3391,3409,3239,3364,3134,3350,3391,3201
1508402693270459369,196,1508402693269994044,plot_matl,-0.300000011921,-5000.0,-0.313844412565,-0.000377547810785,0.0,0.0,0.349065840244,0.0499308109283,-0.00463484739885,-0.313812255859,0.000982633559033,0.000982633559033,-0.000332736904966,-0.00101319618989,0.138338536024,0.138338536024,1.11650288105,-75.376739502,2030,2053,2115,2025,2025,2735,3329,3349,3159,3298,3019,2979,3064,3088,3171,2932,3385,3379,3216,3282,2934,3282,3310,3032,0.009969415,1.959999181,1.95400534,0.401425719261,4500.0,0.398996651173,0.0010567168938,0.0,0.0,0.0,6000.0,-0.00464569032192,-0.000112889560114,-0.00464569032192,27.9084358215,0.349065840244,0.0265011657029,-0.0329193286598,0.305056244135,-0.0133027974516,-0.0133027974516,0.00522916764021,-0.0383344888687,162.77583313,162.77583313,-252.197525024,-56.0237884521,2037,2032,2632,2028,2028,3057,3444,3444,3293,3382,3126,3016,3153,3106,3230,2752,3391,3409,3239,3364,3134,3350,3391,3199
1508402693280403676,197,1508402693280008676,plot_matl,-0.300000011921,-5000.0,-0.313859224319,-7.9844299762e-05,0.0,0.0,0.349065840244,0.0499308109283,-0.00463484739885,-0.313812255859,0.000982633559033,0.000982633559033,-0.000332736904966,-0.00101319618989,0.138338536024,0.138338536024,1.11650288105,-75.376739502,2020,2052,2115,2025,2025,2735,3329,3349,3159,3298,3019,2980,3064,3089,3171,2931,3387,3379,3218,3279,2934,3282,3310,3032,0.010013314,1.970013667,1.972622858,0.401425719261,4500.0,0.398996651173,-6.55502662994e-05,0.0,0.0,0.0,6000.0,-0.0046466961503,-9.25002459553e-05,-0.0046466961503,27.9078559875,0.349065840244,0.0265011657029,-0.0329193286598,0.305056244135,-0.0133027974516,-0.0133027974516,0.00522916764021,-0.0383344888687,162.77583313,162.77583313,-252.197525024,-56.0237884521,2032,2027,2632,2028,2028,3057,3444,3444,3293,3382,3126,3016,3151,3106,3228,2752,3389,3409,3240,3364,3134,3350,3391,3199
1508402693290279458,198,1508402693290004205,plot_matl,-0.300000011921,-5000.0,-0.313854694366,-0.000172159954673,0.0,0.0,0.349065840244,0.0499308109283,-0.00463484739885,-0.313812255859,0.000982633559033,0.000982633559033,-0.000332736904966,-0.00101319618989,0.138338536024,0.138338536024,1.11650288105,-75.376739502,2017,2050,2115,2024,2024,2735,3329,3349,3160,3298,3019,2980,3064,3089,3171,2931,3387,3379,3218,3279,2934,3281,3309,3031,0.009996225,1.980009547,1.97925255,0.401425719261,4500.0,0.398996651173,-6.55502662994e-05,0.0,0.0,0.0,6000.0,-0.00464752176777,-7.57617017371e-05,-0.00464752176777,27.9076805115,0.349065840244,0.0265011657029,-0.0329193286598,0.305056244135,-0.0133027974516,-0.0133027974516,0.00522916764021,-0.0383344888687,162.77583313,162.77583313,-252.197525024,-56.0237884521,2023,2028,2631,2028,2028,3054,3445,3443,3296,3382,3126,3016,3151,3106,3228,2752,3389,3409,3240,3364,3134,3349,3391,3200
1508402693300452189,199,1508402693300004143,plot_matl,-0.300000011921,-5000.0,-0.313867509365,8.00939524197e-05,0.0,0.0,0.349065840244,0.0499308109283,-0.0046438826248,-0.313831537962,0.00135739939287,0.00135739939287,-0.000149546947796,-0.000638222321868,0.422621577978,0.422621577978,0.769768476486,-75.4972305298,2029,2061,2115,2024,2024,2735,3329,3349,3160,3300,3017,2981,3063,3091,3171,2933,3387,3379,3217,3279,2934,3281,3309,3031,0.009999598,1.990009555,1.989920002,0.401425719261,4500.0,0.398996651173,-0.000579941843171,0.0,0.0,0.0,6000.0,-0.00464820023626,-6.20009450358e-05,-0.00464820023626,27.9073047638,0.349065840244,0.0265011657029,-0.032900698483,0.305266529322,-0.0129888979718,-0.0129888979718,0.00480830157176,0.0190270543098,163.306488037,163.306488037,-252.328369141,-56.2071304321,2034,2037,2631,2028,2028,3054,3445,3443,3296,3380,3126,3015,3152,3106,3229,2754,3390,3406,3241,3364,3134,3349,3391,3200
1508402693310402114,200,1508402693310008101,plot_matl,-0.300000011921,-5000.0,-0.313866764307,6.55650728731e-05,0.0,0.0,0.349065840244,0.0499308109283,-0.0046438826248,-0.313831537962,0.00135739939287,0.00135739939287,-0.000149546947796,-0.000638222321868,0.422621577978,0.422621577978,0.769768476486,-75.4972305298,2027,2053,2114,2024,2024,2734,3331,3349,3160,3300,3017,2981,3063,3091,3171,2933,3387,3379,3217,3280,2935,3283,3309,3032,0.010003577,2.000013749,2.0007154,0.401425719261,4500.0,0.398996651173,0.00097074941732,0.0,0.0,0.0,6000.0,-0.00464875483885,-5.07541044499e-05,-0.00464875483885,27.9078388214,0.349065840244,0.0265011657029,-0.032900698483,0.305266529322,-0.0129888979718,-0.0129888979718,0.00480830157176,0.0190270543098,163.306488037,163.306488037,-252.328369141,-56.2071304321,2028,2027,2631,2030,2030,3055,3445,3443,3296,3380,3126,3015,3152,3106,3229,2754,3390,3406,3241,3365,3134,3349,3392,3202
1508402693320193580,201,1508402693319970459,plot_matl,-0.300000011921,-5000.0,-0.313866168261,5.36704283149e-05,0.0,0.0,0.349065840244,0.0499308109283,-0.0046438826248,-0.313831537962,0.00135739939287,0.00135739939287,-0.000149546947796,-0.000638222321868,0.422621577978,0.422621577978,0.769768476486,-75.4972305298,2034,2064,2114,2024,2024,2734,3331,3347,3159,3297,3016,2979,3064,3089,3172,2933,3383,3379,3217,3280,2935,3283,3309,3032,0.009960159,2.00997478,2.001991959,0.401425719261,4500.0,0.398996651173,0.000291617150651,0.0,0.0,0.0,6000.0,-0.00463806744665,-0.000267870927928,-0.00463806744665,27.9089164734,0.349065840244,0.0265011657029,-0.032900698483,0.305266529322,-0.0129888979718,-0.0129888979718,0.00480830157176,0.0190270543098,163.306488037,163.306488037,-252.328369141,-56.2071304321,2037,2040,2631,2030,2030,3055,3445,3443,3295,3383,3125,3013,3152,3106,3231,2754,3392,3406,3241,3365,3134,3349,3392,3202
1508402693330424723,202,1508402693329993952,plot_matl,-0.300000011921,-5000.0,-0.313865691423,4.39600808022e-05,0.0,0.0,0.349065840244,0.0499308109283,-0.0046438826248,-0.313831537962,0.00135739939287,0.00135739939287,-0.000149546947796,-0.000638222321868,0.422621577978,0.422621577978,0.769768476486,-75.4972305298,2032,2065,2115,2025,2025,2734,3331,3347,3159,3297,3016,2979,3064,3089,3172,2933,3383,3380,3217,3281,2935,3284,3310,3030,0.01002502,2.019999505,2.02505404,0.401425719261,4500.0,0.398996651173,-0.000783516443335,0.0,0.0,0.0,6000.0,-0.00464045396075,-0.000219406254473,-0.00464045396075,27.9080715179,0.349065840244,0.0265011657029,-0.032900698483,0.305266529322,-0.0129888979718,-0.0129888979718,0.00480830157176,0.0190270543098,163.306488037,163.306488037,-252.328369141,-56.2071304321,2032,2034,2631,2034,2034,3055,3445,3443,3295,3383,3125,3013,3152,3106,3231,2754,3392,3408,3240,3366,3135,3349,3390,3202
1508402693340414414,203,1508402693340002761,plot_matl,-0.300000011921,-5000.0,-0.313870251179,0.00013758969726,0.0,0.0,0.349065840244,0.0499308109283,-0.00464794691652,-0.313861489296,-4.10216707678e-05,-4.10216707678e-05,-6.71394591336e-05,-3.87759355363e-05,0.610949993134,0.610949993134,0.96861743927,-75.0840072632,2027,2056,2115,2025,2025,2734,3330,3349,3157,3299,3018,2980,3061,3092,3172,2933,3383,3380,3217,3281,2935,3284,3310,3030,0.010007421,2.030007752,2.031506463,0.401425719261,4500.0,0.398996651173,-0.00257481937297,0.0,0.0,0.0,6000.0,-0.00464240880683,-0.000179703216418,-0.00464240880683,27.9069957733,0.349065840244,0.0289103612304,-0.0329261831939,0.305007219315,0.00831600558013,0.00831600558013,0.00532656768337,0.0242582205683,163.203125,163.203125,-252.53338623,-56.7231903076,2030,2036,2631,2034,2034,3055,3447,3442,3294,3381,3126,3016,3152,3106,3229,2754,3392,3408,3240,3366,3135,3349,3390,3202
1508402693350417735,204,1508402693349983411,plot_matl,-0.300000011921,-5000.0,-0.313863962889,1.22317787827e-05,0.0,0.0,0.349065840244,0.0499308109283,-0.00464794691652,-0.313861489296,-4.10216707678e-05,-4.10216707678e-05,-6.71394591336e-05,-3.87759355363e-05,0.610949993134,0.610949993134,0.96861743927,-75.0840072632,2029,2053,2115,2025,2025,2734,3330,3349,3157,3299,3018,2980,3061,3092,3172,2930,3385,3379,3215,3282,2933,3285,3309,3031,0.009980514,2.039988462,2.036024856,0.401425719261,4500.0,0.398996651173,-0.00307946070097,0.0,0.0,0.0,6000.0,-0.00464401440695,-0.00014709912648,-0.00464401440695,27.908121109,0.349065840244,0.0289103612304,-0.0329261831939,0.305007219315,0.00831600558013,0.00831600558013,0.00532656768337,0.0242582205683,163.203125,163.203125,-252.53338623,-56.7231903076,2031,2026,2630,2034,2034,3055,3447,3442,3294,3381,3126,3016,3152,3106,3229,2754,3390,3408,3238,3364,3133,3351,3390,3202
1508402693360418765,205,1508402693360020494,plot_matl,-0.300000011921,-5000.0,-0.313853025436,-0.000207099801628,0.0,0.0,0.349065840244,0.0499308109283,-0.00464794691652,-0.313861489296,-4.10216707678e-05,-4.10216707678e-05,-6.71394591336e-05,-3.87759355363e-05,0.610949993134,0.610949993134,0.96861743927,-75.0840072632,2015,2045,2115,2024,2024,2732,3328,3350,3158,3299,3017,2979,3062,3092,3172,2930,3385,3379,3215,3282,2933,3285,3309,3031,0.010036482,2.05002548,2.05747881,0.401425719261,4500.0,0.400346130133,0.0231561399996,0.0,0.0,0.0,6000.0,-0.00464532757178,-0.000120434597193,-0.00464532757178,27.9076538086,0.349065840244,0.0289103612304,-0.0329261831939,0.305007219315,0.00831600558013,0.00831600558013,0.00532656768337,0.0242582205683,163.203125,163.203125,-252.53338623,-56.7231903076,2021,2019,2630,2029,2029,3056,3444,3443,3294,3382,3125,3017,3152,3106,3229,2754,3390,3408,3238,3364,3133,3351,3390,3202
1508402693370316245,206,1508402693370012199,plot_matl,-0.300000011921,-5000.0,-0.313860207796,-5.72896205995e-05,0.0,0.0,0.349065840244,0.0499308109283,-0.00464794691652,-0.313861489296,-4.10216707678e-05,-4.10216707678e-05,-6.71394591336e-05,-3.87759355363e-05,0.610949993134,0.610949993134,0.96861743927,-75.0840072632,2015,2045,2115,2024,2024,2732,3328,3350,3158,3299,3017,2979,3062,3092,3172,2930,3385,3379,3215,3282,2933,3285,3309,3031,0.009991289,2.060017135,2.058205534,0.401425719261,4500.0,0.398996651173,-0.00426965858787,0.0,0.0,0.0,6000.0,-0.00464532757178,-0.000120434597193,-0.00464532757178,27.9076538086,0.349065840244,0.0289103612304,-0.0329261831939,0.305007219315,0.00831600558013,0.00831600558013,0.00532656768337,0.0242582205683,163.203125,163.203125,-252.53338623,-56.7231903076,2021,2019,2630,2029,2029,3056,3444,3443,3294,3382,3125,3017,3152,3106,3229,2754,3390,3408,3238,3364,3133,3351,3390,3202
1508402693380375130,207,1508402693379986169,plot_matl,-0.300000011921,-5000.0,-0.313860207796,-5.72896205995e-05,0.0,0.0,0.349065840244,0.0512802936137,-0.00464341370389,-0.313864022493,0.0119638741016,0.0119638741016,-0.000159302551765,1.32465338538e-05,0.881484985352,0.881484985352,1.09094405174,-75.3277053833,2015,2045,2115,2024,2024,2732,3328,3350,3158,3299,3017,2979,3062,3092,3172,2930,3385,3379,3215,3282,2933,3285,3309,3031,0.009974652,2.069991536,2.064752964,0.401425719261,4500.0,0.398996651173,-0.00426965858787,0.0,0.0,0.0,6000.0,-0.00464532757178,-0.000120434597193,-0.00464532757178,27.9076538086,0.349065840244,0.0265011657029,-0.0329323895276,0.304755866528,-0.0152459507808,-0.0152459507808,0.00546116335317,0.0292563587427,162.991378784,162.991378784,-252.61680603,-56.8892364502,2021,2019,2630,2029,2029,3056,3444,3443,3294,3382,3125,3017,3152,3106,3229,2754,3390,3408,3238,3364,3133,3351,3390,3202
1508402693390290933,208,1508402693390004399,plot_matl,-0.300000011921,-5000.0,-0.313865870237,5.28346208739e-05,0.0,0.0,0.349065840244,0.0512802936137,-0.00464341370389,-0.313864022493,0.0119638741016,0.0119638741016,-0.000159302551765,1.32465338538e-05,0.881484985352,0.881484985352,1.09094405174,-75.3277053833,2009,2037,2114,2024,2024,2736,3330,3351,3161,3298,3016,2979,3062,3090,3172,2931,3385,3378,3217,3280,2933,3284,3310,3031,0.010016872,2.08000941,2.083509376,0.401425719261,4500.0,0.398996651173,-0.0049036690034,0.0,0.0,0.0,6000.0,-0.00463685207069,-0.000299164559692,-0.00463685207069,27.8996963501,0.349065840244,0.0265011657029,-0.0329323895276,0.304755866528,-0.0152459507808,-0.0152459507808,0.00546116335317,0.0292563587427,162.991378784,162.991378784,-252.61680603,-56.8892364502,2017,2021,2631,2030,2030,3054,3445,3445,3293,3380,3126,3017,3152,3106,3229,2753,3389,3407,3237,3365,3135,3350,3391,3201
1508402693400340289,209,1508402693399991949,plot_matl,-0.300000011921,-5000.0,-0.313854187727,-0.000185084616533,0.0,0.0,0.349065840244,0.0512802936137,-0.00464341370389,-0.313864022493,0.0119638741016,0.0119638741016,-0.000159302551765,1.32465338538e-05,0.881484985352,0.881484985352,1.09094405174,-75.3277053833,2004,2039,2114,2024,2024,2736,3330,3351,3161,3298,3016,2979,3062,3089,3173,2930,3384,3380,3216,3282,2932,3284,3310,3031,0.00998734,2.089997096,2.08735406,0.401425719261,4500.0,0.400346130133,0.0227883700281,0.0,0.0,0.0,6000.0,-0.00462712813169,-0.000494471983984,-0.00462712813169,27.9125537872,0.349065840244,0.0265011657029,-0.0329323895276,0.304755866528,-0.0152459507808,-0.0152459507808,0.00546116335317,0.0292563587427,162.991378784,162.991378784,-252.61680603,-56.8892364502,2015,2013,2631,2030,2030,3054,3445,3445,3293,3380,3126,3017,3154,3105,3230,2753,3389,3407,3238,3365,3137,3350,3391,3201
1508402693410111623,210,1508402693409969366,plot_matl,-0.300000011921,-5000.0,-0.313840270042,-0.000466636003694,0.0,0.0,0.349065840244,0.0512802936137,-0.00464341370389,-0.313864022493,0.0119638741016,0.0119638741016,-0.000159302551765,1.32465338538e-05,0.881484985352,0.881484985352,1.09094405174,-75.3277053833,2005,2045,2114,2027,2027,2736,3327,3348,3160,3298,3016,2979,3062,3089,3173,2930,3384,3380,3216,3282,2932,3283,3310,3032,0.009975832,2.099974003,2.09492472,0.401425719261,4500.0,0.398996651173,-0.00421538483351,0.0,0.0,0.0,6000.0,-0.00461960630491,-0.000647236942314,-0.00461960630491,27.9115715027,0.349065840244,0.0265011657029,-0.0329323895276,0.304755866528,-0.0152459507808,-0.0152459507808,0.00546116335317,0.0292563587427,162.991378784,162.991378784,-252.61680603,-56.8892364502,2015,2020,2632,2033,2033,3057,3444,3444,3293,3380,3126,3017,3154,3105,3230,2753,3389,3407,3238,3365,3137,3349,3392,3202
1508402693420356238,211,1508402693419994463,plot_matl,-0.300000011921,-5000.0,-0.313850194216,-0.000266101036686,0.0,0.0,0.349065840244,0.0499308109283,-0.00461696553975,-0.313838332891,-0.00200264691375,-0.00200264691375,0.0127213262022,-0.000505572534166,0.920186161995,0.920186161995,1.91761946678,-74.862991333,2014,2062,2114,2027,2027,2736,3327,3348,3160,3299,3016,2980,3062,3090,3172,2932,3384,3379,3218,3282,2932,3283,3310,3032,0.010026974,2.109999885,2.115691514,0.401425719261,4500.0,0.398996651173,-0.00401788111776,0.0,0.0,0.0,6000.0,-0.00461389310658,-0.000761486415286,-0.00461389310658,27.9100074768,0.349065840244,0.0265011657029,-0.0329041406512,0.304695725441,-0.0156897231936,-0.0156897231936,0.00490302825347,0.0304342154413,162.965744019,162.965744019,-252.550018311,-56.5170783997,2021,2028,2632,2033,2033,3057,3444,3444,3293,3382,3124,3015,3152,3106,3231,2754,3389,3407,3240,3365,3137,3349,3392,3202
1508402693430295271,212,1508402693429989585,plot_matl,-0.300000011921,-5000.0,-0.313864350319,1.48879253175e-05,0.0,0.0,0.349065840244,0.0499308109283,-0.00461696553975,-0.313838332891,-0.00200264691375,-0.00200264691375,0.0127213262022,-0.000505572534166,0.920186161995,0.920186161995,1.91761946678,-74.862991333,2030,2075,2116,2033,2033,2733,3327,3350,3160,3298,3018,2980,3063,3089,3173,2931,3385,3379,3218,3283,2933,3282,3309,3033,0.009992975,2.119994103,2.1185107,0.401425719261,4500.0,0.400346130133,0.0222843028605,0.0,0.0,0.0,6000.0,-0.00460589164868,-0.000924679741729,-0.00460589164868,27.9169578552,0.349065840244,0.0265011657029,-0.0329041406512,0.304695725441,-0.0156897231936,-0.0156897231936,0.00490302825347,0.0304342154413,162.965744019,162.965744019,-252.550018311,-56.5170783997,2042,2045,2631,2030,2030,3056,3444,3445,3292,3382,3125,3015,3150,3106,3229,2754,3390,3407,3240,3365,3133,3350,3393,3200
1508402693440350277,213,1508402693439981802,plot_matl,-0.300000011921,-5000.0,-0.313869923353,0.00012824156147,0.0,0.0,0.349065840244,0.0499308109283,-0.00461696553975,-0.313838332891,-0.00200264691375,-0.00200264691375,0.0127213262022,-0.000505572534166,0.920186161995,0.920186161995,1.91761946678,-74.862991333,2046,2076,2114,2032,2032,2733,3327,3350,3160,3298,3018,2980,3063,3089,3173,2931,3385,3378,3216,3283,2935,3283,3309,3033,0.009992811,2.129986563,2.128468743,0.401425719261,4500.0,0.398996651173,-0.00456252135336,0.0,0.0,0.0,6000.0,-0.00461410032585,-0.000757367175538,-0.00461410032585,27.9099941254,0.349065840244,0.0265011657029,-0.0329041406512,0.304695725441,-0.0156897231936,-0.0156897231936,0.00490302825347,0.0304342154413,162.965744019,162.965744019,-252.550018311,-56.5170783997,2045,2045,2631,2032,2032,3056,3444,3445,3292,3382,3125,3015,3150,3106,3229,2754,3390,3406,3239,3366,3134,3352,3390,3199
1508402693450400706,214,1508402693450012079,plot_matl,-0.300000011921,-5000.0,-0.313879340887,0.000312532705721,0.0,0.0,0.349065840244,0.0499308109283,-0.00461696553975,-0.313838332891,-0.00200264691375,-0.00200264691375,0.0127213262022,-0.000505572534166,0.920186161995,0.920186161995,1.91761946678,-74.862991333,2035,2065,2114,2032,2032,2734,3329,3348,3159,3299,3017,2979,3063,3090,3170,2931,3385,3378,3216,3283,2935,3283,3309,3033,0.010030027,2.140017146,2.146425778,0.401425719261,4500.0,0.398996651173,-0.00568668777123,0.0,0.0,0.0,6000.0,-0.00462086917832,-0.000619397265837,-0.00462086917832,27.9239292145,0.349065840244,0.0265011657029,-0.0329041406512,0.304695725441,-0.0156897231936,-0.0156897231936,0.00490302825347,0.0304342154413,162.965744019,162.965744019,-252.550018311,-56.5170783997,2045,2044,2631,2032,2032,3055,3445,3444,3292,3380,3125,3015,3153,3106,3230,2754,3390,3406,3239,3366,3134,3352,3390,3199
1508402693460424328,215,1508402693460017561,plot_matl,-0.300000011921,-5000.0,-0.313881605864,0.00036046031164,0.0,0.0,0.349065840244,0.0512802936137,-0.00461834296584,-0.313880681992,0.0108367726207,0.0108367726207,-0.000670891604386,-0.00563388131559,0.979436516762,0.979436516762,1.70803630352,-74.8251647949,2046,2074,2113,2032,2032,2734,3329,3348,3159,3299,3017,2979,3063,3090,3170,2932,3386,3380,3216,3281,2934,3284,3309,3031,0.010004965,2.150022487,2.151067475,0.401425719261,4500.0,0.400346130133,0.0211120601743,0.0,0.0,0.0,6000.0,-0.00461312709376,-0.000768547877669,-0.00461312709376,27.9047164917,0.349065840244,0.0289103612304,-0.032904163003,0.304346293211,0.00878021586686,0.00878021586686,0.00490725412965,-0.086264193058,162.916351318,162.916351318,-252.47593689,-56.4749794006,2055,2052,2631,2032,2032,3055,3445,3444,3292,3380,3125,3015,3153,3106,3230,2756,3389,3408,3239,3364,3134,3350,3390,3199
