%time,field.header.seq,field.header.stamp,field.header.frame_id,field.FFJ4_set_point,field.FFJ4_position_gain,field.FFJ4_process_value,field.FFJ4_process_value_dot,field.FFJ4_error,field.FFJ4_command,field.FFJ1,field.FFJ2,field.FFJ3,field.FFJ4,field.FFJ1_dot,field.FFJ2_dot,field.FFJ3_dot,field.FFJ4_dot,field.FFJ1_tao,field.FFJ2_tao,field.FFJ3_tao,field.FFJ4_tao,field.pac0,field.pac1,field.pdc0,field.tac0,field.tdc0,field.el0,field.el1,field.el2,field.el3,field.el4,field.el5,field.el6,field.el7,field.el8,field.el9,field.el10,field.el11,field.el12,field.el13,field.el14,field.el15,field.el16,field.el17,field.el18,field.dt,field.time,field.test_time2,field.FFJ0_set_point,field.FFJ0_position_gain,field.FFJ0_process_value,field.FFJ0_process_value_dot,field.FFJ0_error,field.FFJ0_command,field.FFJ3_set_point,field.FFJ3_position_gain,field.FFJ3_process_value,field.FFJ3_process_value_dot,field.FFJ3_error,field.FFJ3_command,field.MFJ1,field.MFJ2,field.MFJ3,field.MFJ4,field.MFJ1_dot,field.MFJ2_dot,field.MFJ3_dot,field.MFJ4_dot,field.MFJ1_tao,field.MFJ2_tao,field.MFJ3_tao,field.MFJ4_tao,field.Mpac0,field.Mpac1,field.Mpdc0,field.Mtac0,field.Mtdc0,field.Mel0,field.Mel1,field.Mel2,field.Mel3,field.Mel4,field.Mel5,field.Mel6,field.Mel7,field.Mel8,field.Mel9,field.Mel10,field.Mel11,field.Mel12,field.Mel13,field.Mel14,field.Mel15,field.Mel16,field.Mel17,field.Mel18
1508402849961019305,102,1508402849960499396,plot_matl,0.25,-5000.0,0.244652196765,-0.0136841498315,-0.00534781021997,-29.9797801971,0.349065840244,0.0161937773228,-0.00977287627757,0.244749352336,-0.0058081112802,-0.0058081112802,-0.00380307342857,0.022185601294,-90.6421279907,-90.6421279907,0.759967923164,103.909187317,1997,2029,2138,2047,2047,2674,3312,3339,3143,3290,3006,2967,3048,3088,3170,2989,3399,3394,3247,3296,2961,3280,3312,3034,0.009951509,1.020011807,1.015053918,0.401425719261,4500.0,0.365259617567,-0.00785228610039,-0.0361661016941,162.747451782,0.0,6000.0,-0.00987252313644,-0.00185070396401,-0.00987252313644,59.7966651917,0.349065840244,0.0216827709228,-0.0284810476005,0.310752123594,-0.00747399777174,-0.00747399777174,0.00751916691661,0.0935626775026,160.148300171,160.148300171,-242.243789673,-63.3910140991,1999,2002,2634,2038,2038,3068,3447,3446,3299,3382,3132,3011,3151,3100,3228,2728,3383,3402,3233,3361,3130,3350,3393,3201
1508402849970968383,103,1508402849970542879,plot_matl,0.25,-5000.0,0.244696199894,-0.0145890647545,-0.00530379917473,-30.061340332,0.349065840244,0.0175432581455,-0.00987976137549,0.244709327817,0.00947480183095,0.00947480183095,-0.00170889752917,0.0230813231319,-90.4304428101,-90.4304428101,0.465763628483,103.988983154,1980,2022,2138,2047,2047,2674,3312,3339,3143,3290,3006,2967,3048,3088,3168,2986,3402,3395,3246,3296,2964,3282,3311,3035,0.010041743,1.030054363,1.034299529,0.401425719261,4500.0,0.365259617567,-0.00838219746947,-0.0361661016941,162.747451782,0.0,6000.0,-0.00987694598734,-0.00177071278449,-0.00987694598734,59.8112297058,0.349065840244,0.0240919683129,-0.0284902565181,0.310977369547,0.0157748516649,0.0157748516649,0.00776957161725,0.0271974280477,160.465316772,160.465316772,-242.264328003,-63.4009056091,1997,1997,2634,2038,2038,3068,3447,3446,3299,3382,3132,3011,3151,3100,3227,2722,3385,3403,3232,3363,3129,3349,3390,3200
1508402849980978425,104,1508402849980515741,plot_matl,0.25,-5000.0,0.244735553861,0.0224908385426,-0.00526444474235,-20.9045143127,0.349065840244,0.0175432581455,-0.00987976137549,0.244709327817,0.00947480183095,0.00947480183095,-0.00170889752917,0.0230813231319,-90.4304428101,-90.4304428101,0.465763628483,103.988983154,1996,2029,2139,2047,2047,2679,3315,3340,3145,3290,3007,2967,3048,3088,3168,2986,3402,3395,3246,3296,2964,3282,3311,3035,0.009973063,1.040027701,1.037198552,0.401425719261,4500.0,0.365259617567,-0.00881699379534,-0.0361661016941,162.747451782,0.0,6000.0,-0.0098816556856,-0.0016831496032,-0.0098816556856,59.8096199036,0.349065840244,0.0240919683129,-0.0284902565181,0.310977369547,0.0157748516649,0.0157748516649,0.00776957161725,0.0271974280477,160.465316772,160.465316772,-242.264328003,-63.4009056091,2002,1999,2634,2042,2042,3069,3448,3445,3300,3385,3130,3011,3151,3100,3227,2722,3385,3403,3232,3363,3129,3349,3390,3200
1508402849990912760,105,1508402849990527722,plot_matl,0.25,-5000.0,0.244735553861,0.0224908385426,-0.00526444474235,-20.9045143127,0.349065840244,0.0175432581455,-0.00987976137549,0.244709327817,0.00947480183095,0.00947480183095,-0.00170889752917,0.0230813231319,-90.4304428101,-90.4304428101,0.465763628483,103.988983154,1986,2012,2139,2047,2047,2679,3315,3340,3145,3290,3007,2967,3051,3089,3167,2985,3399,3393,3248,3296,2963,3283,3311,3035,0.010011549,1.050039622,1.051212645,0.401425719261,4500.0,0.365259617567,-0.00923254992813,-0.0361661016941,162.747451782,0.0,6000.0,-0.00989723578095,-0.00137581420131,-0.00989723578095,59.8407096863,0.349065840244,0.0240919683129,-0.0284902565181,0.310977369547,0.0157748516649,0.0157748516649,0.00776957161725,0.0271974280477,160.465316772,160.465316772,-242.264328003,-63.4009056091,1993,1993,2634,2042,2042,3069,3448,3445,3300,3385,3130,3011,3152,3098,3227,2721,3381,3404,3230,3363,3128,3348,3390,3200
1508402850001169471,106,1508402850000567501,plot_matl,0.25,-5000.0,0.244777292013,0.0216425769031,-0.00522271543741,-20.5002746582,0.349065840244,0.0175432581455,-0.00987976137549,0.244709327817,0.00947480183095,0.00947480183095,-0.00170889752917,0.0230813231319,-90.4304428101,-90.4304428101,0.465763628483,103.988983154,1986,2012,2139,2047,2047,2679,3315,3340,3145,3290,3007,2967,3051,3089,3167,2985,3399,3393,3248,3296,2963,3283,3311,3035,0.010041488,1.060079927,1.064397728,0.401425719261,4500.0,0.365259617567,-0.00923254992813,-0.0361661016941,162.747451782,0.0,6000.0,-0.00989723578095,-0.00137581420131,-0.00989723578095,59.8407096863,0.349065840244,0.0240919683129,-0.0284902565181,0.310977369547,0.0157748516649,0.0157748516649,0.00776957161725,0.0271974280477,160.465316772,160.465316772,-242.264328003,-63.4009056091,1993,1993,2634,2042,2042,3069,3448,3445,3300,3385,3130,3011,3152,3098,3227,2721,3381,3404,3230,3363,3128,3348,3390,3200
1508402850010951125,107,1508402850010495286,plot_matl,0.25,-5000.0,0.244942948222,-0.0172907747328,-0.00505704712123,-29.9938755035,0.349065840244,0.0175432581455,-0.00981448218226,0.244964808226,0.00821625906974,0.00821625906974,-0.00224104872905,0.0203143805265,-90.3240432739,-90.3240432739,1.38290596008,103.733726501,1970,2018,2141,2047,2047,2681,3331,3354,3158,3305,3007,2967,3051,3089,3167,2985,3399,3393,3248,3296,2963,3283,3314,3035,0.009925986,1.070007426,1.062080502,0.401425719261,4500.0,0.365259617567,-0.0102026602253,-0.0361661016941,162.747451782,0.0,6000.0,-0.00982327200472,-0.00211188825779,-0.00982327200472,59.8096694946,0.349065840244,0.0216827709228,-0.028601044789,0.311090886593,-0.0064390944317,-0.0064390944317,-0.00532556371763,0.0248030275106,160.876586914,160.876586914,-241.481201172,-63.3108444214,1988,1991,2635,2041,2041,3069,3467,3462,3313,3396,3130,3011,3152,3098,3227,2721,3381,3404,3230,3363,3128,3348,3391,3200
1508402850021197703,108,1508402850020571588,plot_matl,0.25,-5000.0,0.244936108589,-0.0175913982093,-0.00506389699876,-30.0422897339,0.349065840244,0.0175432581455,-0.00981448218226,0.244964808226,0.00821625906974,0.00821625906974,-0.00224104872905,0.0203143805265,-90.3240432739,-90.3240432739,1.38290596008,103.733726501,2036,2067,2141,2047,2047,2681,3331,3354,3158,3305,3015,2977,3060,3099,3177,2993,3408,3401,3251,3301,2963,3283,3314,3035,0.010077174,1.080083718,1.088334792,0.401425719261,4500.0,0.366609096527,0.0158567260951,-0.0348166190088,156.674789429,0.0,6000.0,-0.00983640365303,-0.00198821071535,-0.00983640365303,59.8169631958,0.349065840244,0.0216827709228,-0.028601044789,0.311090886593,-0.0064390944317,-0.0064390944317,-0.00532556371763,0.0248030275106,160.876586914,160.876586914,-241.481201172,-63.3108444214,2034,2044,2635,2041,2041,3069,3467,3462,3313,3396,3142,3018,3161,3106,3234,2729,3391,3409,3237,3368,3128,3348,3391,3200
1508402850031123278,109,1508402850030563694,plot_matl,0.25,-5000.0,0.244936108589,-0.0175913982093,-0.00506389699876,-30.0422897339,0.349065840244,0.0175432581455,-0.00981448218226,0.244964808226,0.00821625906974,0.00821625906974,-0.00224104872905,0.0203143805265,-90.3240432739,-90.3240432739,1.38290596008,103.733726501,2036,2067,2141,2047,2047,2681,3331,3354,3158,3305,3015,2977,3060,3099,3177,2993,3408,3401,3251,3301,2963,3283,3314,3035,0.0099918,1.090075865,1.0891062,0.401425719261,4500.0,0.366609096527,0.0158567260951,-0.0348166190088,156.674789429,0.0,6000.0,-0.00983640365303,-0.00198821071535,-0.00983640365303,59.8169631958,0.349065840244,0.0216827709228,-0.028601044789,0.311090886593,-0.0064390944317,-0.0064390944317,-0.00532556371763,0.0248030275106,160.876586914,160.876586914,-241.481201172,-63.3108444214,2034,2044,2635,2041,2041,3069,3467,3462,3313,3396,3142,3018,3161,3106,3234,2729,3391,3409,3237,3368,3128,3348,3391,3200
1508402850040947824,110,1508402850040498220,plot_matl,0.25,-5000.0,0.244881600142,-0.0173683837056,-0.00511839892715,-30.034330368,0.349065840244,0.0175432581455,-0.00981448218226,0.244964808226,0.00821625906974,0.00821625906974,-0.00224104872905,0.0203143805265,-90.3240432739,-90.3240432739,1.38290596008,103.733726501,2079,2110,2140,2040,2040,2676,3315,3341,3144,3294,3008,2967,3051,3094,3171,2992,3408,3397,3249,3301,2969,3284,3319,3037,0.009932651,1.10001035,1.09259161,0.401425719261,4500.0,0.365259617567,-0.0110645201057,-0.0361661016941,162.747451782,0.0,6000.0,-0.00985534675419,0.011614818126,-0.00985534675419,55.7617797852,0.349065840244,0.0216827709228,-0.028601044789,0.311090886593,-0.0064390944317,-0.0064390944317,-0.00532556371763,0.0248030275106,160.876586914,160.876586914,-241.481201172,-63.3108444214,2079,2077,2635,2043,2043,3069,3450,3447,3301,3386,3132,3015,3153,3102,3230,2733,3391,3404,3234,3368,3135,3353,3395,3205
1508402850051038689,111,1508402850050533965,plot_matl,0.25,-5000.0,0.244881600142,-0.0173683837056,-0.00511839892715,-30.034330368,0.349065840244,0.0161937773228,-0.00986795686185,0.244921296835,-0.00566462799907,-0.00566462799907,-0.00160355132539,0.0196232814342,-90.21534729,-90.21534729,1.20954072475,103.841407776,2079,2110,2140,2040,2040,2676,3315,3341,3144,3294,3008,2967,3051,3094,3171,2992,3408,3397,3249,3301,2969,3284,3319,3037,0.010035665,1.110045995,1.113958815,0.401425719261,4500.0,0.365259617567,-0.010987485759,-0.0361661016941,162.747451782,0.0,6000.0,-0.00987553875893,-0.00148076715413,-0.00987553875893,59.8091087341,0.349065840244,0.0216827709228,-0.0286711081862,0.31098484993,-0.00737428339198,-0.00737428339198,-0.0038532896433,0.0268386229873,160.692016602,160.692016602,-241.77154541,-63.2042312622,2079,2077,2635,2043,2043,3069,3450,3447,3301,3386,3132,3015,3153,3102,3230,2733,3391,3404,3234,3368,3135,3353,3395,3205
1508402850061028184,112,1508402850060530346,plot_matl,0.25,-5000.0,0.244887635112,0.020107742399,-0.00511236907914,-20.5789642334,0.349065840244,0.0161937773228,-0.00986795686185,0.244921296835,-0.00566462799907,-0.00566462799907,-0.00160355132539,0.0196232814342,-90.21534729,-90.21534729,1.20954072475,103.841407776,2189,2208,2138,2040,2040,2668,3312,3339,3141,3291,3002,2967,3049,3093,3170,2989,3402,3397,3249,3297,2965,3283,3313,3035,0.00999631,1.120042601,1.11958672,0.401425719261,4500.0,0.365259617567,-0.0109162982553,-0.0361661016941,162.747451782,0.0,6000.0,-0.00986814778298,-0.00169699289836,-0.00986814778298,59.8502540588,0.349065840244,0.0216827709228,-0.0286711081862,0.31098484993,-0.00737428339198,-0.00737428339198,-0.0038532896433,0.0268386229873,160.692016602,160.692016602,-241.77154541,-63.2042312622,2152,2149,2633,2043,2043,3065,3446,3445,3298,3384,3129,3013,3151,3102,3229,2734,3385,3404,3234,3361,3129,3351,3390,3202
1508402850070893969,113,1508402850070498502,plot_matl,0.25,-5000.0,0.244853556156,-0.0172325279564,-0.00514643918723,-30.0944766998,0.349065840244,0.0161937773228,-0.00986795686185,0.244921296835,-0.00566462799907,-0.00566462799907,-0.00160355132539,0.0196232814342,-90.21534729,-90.21534729,1.20954072475,103.841407776,2163,2213,2133,2041,2041,2668,3312,3339,3141,3291,3002,2967,3049,3093,3170,2989,3402,3392,3247,3292,2962,3281,3310,3033,0.009966578,1.130010076,1.126223314,0.401425719261,4500.0,0.365259617567,-0.0113809742033,-0.0361661016941,162.747451782,0.0,6000.0,-0.0098616592586,-0.0018870991189,-0.0098616592586,59.8205032349,0.349065840244,0.0216827709228,-0.0286711081862,0.31098484993,-0.00737428339198,-0.00737428339198,-0.0038532896433,0.0268386229873,160.692016602,160.692016602,-241.77154541,-63.2042312622,2138,2144,2631,2037,2037,3065,3446,3445,3298,3384,3129,3013,3151,3102,3229,2734,3385,3404,3237,3362,3130,3348,3391,3200
1508402850080995137,114,1508402850080510378,plot_matl,0.25,-5000.0,0.244865119457,0.0203131325543,-0.00513488100842,-20.9269886017,0.349065840244,0.0161937773228,-0.00986795686185,0.244921296835,-0.00566462799907,-0.00566462799907,-0.00160355132539,0.0196232814342,-90.21534729,-90.21534729,1.20954072475,103.841407776,2190,2212,2133,2041,2041,2664,3310,3337,3141,3289,3000,2971,3049,3093,3169,2989,3402,3392,3247,3292,2962,3281,3310,3033,0.010012823,1.140022693,1.141461822,0.401425719261,4500.0,0.365259617567,-0.0122540425509,-0.0361661016941,162.747451782,0.0,6000.0,-0.00984438229352,0.01113634184,-0.00984438229352,55.7928886414,0.349065840244,0.0216827709228,-0.0286711081862,0.31098484993,-0.00737428339198,-0.00737428339198,-0.0038532896433,0.0268386229873,160.692016602,160.692016602,-241.77154541,-63.2042312622,2151,2150,2631,2037,2037,3063,3447,3444,3298,3382,3128,3015,3153,3104,3227,2734,3385,3404,3237,3362,3130,3348,3391,3200
1508402850090932499,115,1508402850090533153,plot_matl,0.25,-5000.0,0.244871854782,0.0200578831136,-0.0051281391643,-20.9064979553,0.349065840244,0.0161937773228,-0.00985827296972,0.244869083166,-0.00593059696257,-0.00593059696257,-0.00203019706532,-0.0177621915936,-90.3955993652,-90.3955993652,1.21426093578,104.009536743,2182,2215,2131,2041,2041,2664,3310,3337,3141,3289,3000,2971,3049,3093,3169,2984,3399,3393,3247,3293,2957,3278,3310,3031,0.010021172,1.150044983,1.15243478,0.401425719261,4500.0,0.366609096527,0.0157682541758,-0.0348166190088,156.674789429,0.0,6000.0,-0.00984105747193,-0.00239076837897,-0.00984105747193,59.8101768494,0.349065840244,0.0240919683129,-0.0286136735231,0.311206966639,0.016776856035,0.016776856035,-0.00503800529987,-0.0394071564078,160.955230713,160.955230713,-242.372894287,-62.7112884521,2147,2146,2628,2037,2037,3063,3447,3444,3298,3382,3128,3015,3153,3104,3227,2731,3385,3401,3230,3358,3128,3349,3389,3199
1508402850101060523,116,1508402850100502528,plot_matl,0.25,-5000.0,0.244811311364,0.0211990140378,-0.00518868211657,-20.9057407379,0.349065840244,0.0161937773228,-0.00985827296972,0.244869083166,-0.00593059696257,-0.00593059696257,-0.00203019706532,-0.0177621915936,-90.3955993652,-90.3955993652,1.21426093578,104.009536743,2120,2162,2131,2047,2047,2664,3308,3336,3137,3288,3001,2971,3049,3093,3169,2984,3399,3393,3247,3293,2957,3278,3310,3031,0.009970978,1.160014833,1.156633448,0.401425719261,4500.0,0.366609096527,0.0158179458231,-0.0348166190088,156.674789429,0.0,6000.0,-0.00980152282864,0.0102126467973,-0.00980152282864,55.7764396667,0.349065840244,0.0240919683129,-0.0286136735231,0.311206966639,0.016776856035,0.016776856035,-0.00503800529987,-0.0394071564078,160.955230713,160.955230713,-242.372894287,-62.7112884521,2098,2108,2628,2039,2039,3063,3447,3445,3297,3380,3127,3018,3152,3104,3227,2731,3385,3401,3230,3358,3128,3349,3389,3199
1508402850111099565,117,1508402850110534053,plot_matl,0.25,-5000.0,0.244798481464,0.0214934721589,-0.0052015222609,-21.132774353,0.349065840244,0.0161937773228,-0.00985827296972,0.244869083166,-0.00593059696257,-0.00593059696257,-0.00203019706532,-0.0177621915936,-90.3955993652,-90.3955993652,1.21426093578,104.009536743,2099,2142,2131,2047,2047,2664,3308,3336,3137,3288,3001,2971,3049,3091,3168,2982,3399,3390,3241,3291,2957,3282,3309,3031,0.010031416,1.17004671,1.173675672,0.401425719261,4500.0,0.366609096527,0.0168589614332,-0.0348166190088,156.674789429,0.0,6000.0,-0.00974911544472,0.00912264734507,-0.00974911544472,55.9003791809,0.349065840244,0.0240919683129,-0.0286136735231,0.311206966639,0.016776856035,0.016776856035,-0.00503800529987,-0.0394071564078,160.955230713,160.955230713,-242.372894287,-62.7112884521,2085,2088,2628,2039,2039,3063,3447,3445,3297,3380,3127,3018,3152,3102,3228,2726,3381,3402,3229,3359,3125,3348,3390,3199
1508402850120887599,118,1508402850120491556,plot_matl,0.25,-5000.0,0.244931221008,0.019670907408,-0.00506877945736,-8.90888690948,0.349065840244,0.0161937773228,-0.00985827296972,0.244869083166,-0.00593059696257,-0.00593059696257,-0.00203019706532,-0.0177621915936,-90.3955993652,-90.3955993652,1.21426093578,104.009536743,2099,2142,2131,2047,2047,2664,3308,3336,3137,3288,3001,2971,3049,3091,3168,2982,3399,3390,3241,3291,2957,3282,3309,3031,0.009954632,1.18000317,1.174646576,0.401425719261,4500.0,0.365259617567,-0.0105920433998,-0.0361661016941,162.747451782,0.0,6000.0,-0.00970739219338,-0.00548745971173,-0.00970739219338,64.0648651123,0.349065840244,0.0240919683129,-0.0286136735231,0.311206966639,0.016776856035,0.016776856035,-0.00503800529987,-0.0394071564078,160.955230713,160.955230713,-242.372894287,-62.7112884521,2085,2088,2628,2039,2039,3063,3447,3445,3297,3380,3127,3018,3152,3102,3228,2726,3381,3402,3229,3359,3125,3348,3390,3199
1508402850130979867,119,1508402850130497107,plot_matl,0.25,-5000.0,0.244931221008,0.019670907408,-0.00506877945736,-8.90888690948,0.349065840244,0.0161937773228,-0.00970450695604,0.24499566853,-0.00518335774541,-0.00518335774541,-0.00543898064643,0.0182871557772,-90.4743804932,-90.4743804932,1.07860481739,103.861083984,2061,2085,2129,2047,2047,2665,3309,3335,3137,3289,3007,2971,3049,3091,3168,2982,3399,3390,3241,3291,2957,3282,3309,3031,0.010006102,1.190009232,1.190726138,0.401425719261,4500.0,0.365259617567,-0.0105920433998,-0.0361661016941,162.747451782,0.0,6000.0,-0.00970739219338,-0.00548745971173,-0.00970739219338,64.0648651123,0.349065840244,0.0216827709228,-0.0283777788281,0.311388343573,-0.0117432242259,-0.0117432242259,0.00551391066983,0.0188322942704,161.049087524,161.049087524,-242.96282959,-63.2929496765,2059,2059,2627,2039,2039,3062,3445,3444,3294,3380,3133,3018,3152,3102,3228,2726,3381,3402,3229,3359,3125,3348,3390,3197
1508402850140973797,120,1508402850140527074,plot_matl,0.25,-5000.0,0.244787171483,-0.0157260261476,-0.00521282572299,-29.974445343,0.349065840244,0.0161937773228,-0.00970450695604,0.24499566853,-0.00518335774541,-0.00518335774541,-0.00543898064643,0.0182871557772,-90.4743804932,-90.4743804932,1.07860481739,103.861083984,1979,2043,2129,2047,2047,2665,3309,3335,3137,3289,3007,2978,3055,3098,3174,2988,3406,3394,3246,3295,2960,3282,3309,3031,0.010029901,1.200039465,1.20358812,0.401425719261,4500.0,0.365259617567,-0.0104926619679,-0.0361661016941,162.747451782,0.0,6000.0,-0.00966618955135,-0.00617949711159,-0.00966618955135,59.7979774475,0.349065840244,0.0216827709228,-0.0283777788281,0.311388343573,-0.0117432242259,-0.0117432242259,0.00551391066983,0.0188322942704,161.049087524,161.049087524,-242.96282959,-63.2929496765,2006,2013,2627,2039,2039,3062,3445,3444,3294,3380,3133,3027,3162,3110,3235,2734,3386,3407,3234,3362,3127,3348,3390,3197
1508402850150932251,121,1508402850150500658,plot_matl,0.25,-5000.0,0.244745269418,-0.0150270946324,-0.00525472965091,-30.032087326,0.349065840244,0.0161937773228,-0.00970450695604,0.24499566853,-0.00518335774541,-0.00518335774541,-0.00543898064643,0.0182871557772,-90.4743804932,-90.4743804932,1.07860481739,103.861083984,1975,2017,2129,2045,2045,2662,3310,3333,3141,3288,3001,2971,3050,3090,3167,2987,3400,3392,3245,3295,2960,3281,3310,3032,0.009995479,1.210012533,1.209452959,0.401425719261,4500.0,0.365259617567,-0.00915713980794,-0.0361661016941,162.747451782,0.0,6000.0,-0.00963739771396,0.00667102867737,-0.00963739771396,55.7930641174,0.349065840244,0.0216827709228,-0.0283777788281,0.311388343573,-0.0117432242259,-0.0117432242259,0.00551391066983,0.0188322942704,161.049087524,161.049087524,-242.96282959,-63.2929496765,1987,1992,2627,2039,2039,3065,3446,3445,3297,3383,3126,3019,3154,3106,3228,2734,3384,3404,3232,3362,3127,3350,3391,3199
1508402850160820806,122,1508402850160484443,plot_matl,0.25,-5000.0,0.244742691517,-0.0151163917035,-0.00525730615482,-29.9270458221,0.349065840244,0.0161937773228,-0.00970450695604,0.24499566853,-0.00518335774541,-0.00518335774541,-0.00543898064643,0.0182871557772,-90.4743804932,-90.4743804932,1.07860481739,103.861083984,1960,2001,2131,2047,2047,2660,3308,3333,3141,3288,3001,2971,3050,3090,3167,2987,3400,3392,3245,3293,2959,3280,3310,3030,0.009959914,1.219996223,1.215109508,0.401425719261,4500.0,0.365259617567,-0.00993595924228,-0.0361661016941,162.747451782,0.0,6000.0,-0.00963778235018,-0.00673098629341,-0.00963778235018,59.7673530579,0.349065840244,0.0216827709228,-0.0283777788281,0.311388343573,-0.0117432242259,-0.0117432242259,0.00551391066983,0.0188322942704,161.049087524,161.049087524,-242.96282959,-63.2929496765,1975,1979,2628,2036,2036,3062,3446,3445,3297,3383,3126,3019,3154,3106,3228,2734,3384,3404,3232,3361,3128,3350,3390,3196
1508402850170828259,123,1508402850170534894,plot_matl,0.25,-5000.0,0.244778618217,0.0219775196165,-0.00522138318047,-20.9239826202,0.349065840244,0.0161937773228,-0.00963145401329,0.244733810425,-0.0046759438701,-0.0046759438701,-0.00685507571325,-0.0149705084041,-90.5569076538,-90.5569076538,1.31865429878,104.184143066,1987,2017,2131,2047,2047,2660,3308,3336,3137,3287,2998,2968,3049,3092,3166,2987,3401,3392,3245,3293,2959,3280,3310,3030,0.010049589,1.230046527,1.236099447,0.401425719261,4500.0,0.366609096527,0.0170711074024,-0.0348166190088,156.674789429,0.0,6000.0,-0.00961230415851,0.00619305297732,-0.00961230415851,55.7960700989,0.349065840244,0.0216827709228,-0.028317797929,0.311322599649,-0.012384516187,-0.012384516187,0.00431823031977,0.0201664343476,160.756149292,160.756149292,-243.191925049,-63.2032318115,1999,1993,2628,2036,2036,3062,3446,3443,3297,3382,3125,3017,3152,3104,3230,2737,3384,3404,3232,3361,3128,3350,3390,3196
1508402850180952795,124,1508402850180540345,plot_matl,0.25,-5000.0,0.244832232594,-0.0170595105737,-0.0051677711308,-30.0283241272,0.349065840244,0.0161937773228,-0.00963145401329,0.244733810425,-0.0046759438701,-0.0046759438701,-0.00685507571325,-0.0149705084041,-90.5569076538,-90.5569076538,1.31865429878,104.184143066,2000,2043,2132,2047,2047,2660,3308,3336,3137,3287,2998,2968,3049,3092,3166,2987,3401,3393,3244,3292,2959,3281,3306,3032,0.010006519,1.24005253,1.240808356,0.401425719261,4500.0,0.366609096527,0.0164342876524,-0.0348166190088,156.674789429,0.0,6000.0,-0.00962863955647,-0.00690420391038,-0.00962863955647,59.8285980225,0.349065840244,0.0216827709228,-0.028317797929,0.311322599649,-0.012384516187,-0.012384516187,0.00431823031977,0.0201664343476,160.756149292,160.756149292,-243.191925049,-63.2032318115,2010,2006,2629,2040,2040,3062,3446,3443,3297,3382,3125,3017,3152,3104,3230,2737,3384,3402,3231,3360,3126,3350,3388,3199
1508402850190986996,125,1508402850190544283,plot_matl,0.25,-5000.0,0.244775995612,-0.0159620326012,-0.00522401137277,-30.1027870178,0.349065840244,0.0161937773228,-0.00963145401329,0.244733810425,-0.0046759438701,-0.0046759438701,-0.00685507571325,-0.0149705084041,-90.5569076538,-90.5569076538,1.31865429878,104.184143066,2000,2045,2132,2047,2047,2661,3307,3333,3139,3289,2998,2970,3049,3090,3169,2987,3401,3393,3244,3292,2959,3281,3306,3032,0.010003306,1.250056403,1.25041325,0.401425719261,4500.0,0.365259617567,-0.00979180634022,-0.0361661016941,162.747451782,0.0,6000.0,-0.00963064469397,-0.00684715574607,-0.00963064469397,59.8632965088,0.349065840244,0.0216827709228,-0.028317797929,0.311322599649,-0.012384516187,-0.012384516187,0.00431823031977,0.0201664343476,160.756149292,160.756149292,-243.191925049,-63.2032318115,2005,2012,2629,2040,2040,3062,3447,3444,3296,3381,3127,3016,3153,3104,3229,2737,3384,3402,3231,3360,3126,3350,3388,3199
1508402850200849343,126,1508402850200490009,plot_matl,0.25,-5000.0,0.244765609503,-0.0158162284642,-0.0052343881689,-29.975271225,0.349065840244,0.0161937773228,-0.00963145401329,0.244733810425,-0.0046759438701,-0.0046759438701,-0.00685507571325,-0.0149705084041,-90.5569076538,-90.5569076538,1.31865429878,104.184143066,2022,2091,2131,2047,2047,2661,3307,3333,3139,3289,2998,2970,3049,3090,3169,2985,3399,3393,3244,3293,2960,3279,3308,3031,0.009944358,1.260001873,1.252989108,0.401425719261,4500.0,0.366609096527,0.0167158804834,-0.0348166190088,156.674789429,0.0,6000.0,-0.00964197795838,-0.00658891256899,-0.00964197795838,59.7957687378,0.349065840244,0.0216827709228,-0.028317797929,0.311322599649,-0.012384516187,-0.012384516187,0.00431823031977,0.0201664343476,160.756149292,160.756149292,-243.191925049,-63.2032318115,2032,2044,2629,2040,2040,3062,3447,3444,3296,3381,3127,3016,3153,3104,3229,2734,3385,3403,3232,3359,3125,3347,3388,3197
1508402850211079313,127,1508402850210548360,plot_matl,0.25,-5000.0,0.244727134705,0.0228387266397,-0.00527286203578,-21.370885849,0.349065840244,0.0161937773228,-0.00962245371193,0.244756534696,-0.00548542756587,-0.00548542756587,0.00643945438787,0.0222598258406,-90.5414962769,-90.5414962769,1.32297539711,104.485137939,2038,2082,2131,2048,2048,2664,3309,3335,3139,3288,2999,2972,3051,3090,3169,2985,3399,3393,3244,3293,2960,3279,3308,3031,0.010059498,1.27006063,1.277556246,0.401425719261,4500.0,0.365259617567,-0.0105577167124,-0.0361661016941,162.747451782,0.0,6000.0,-0.00961985904723,0.00637546367943,-0.00961985904723,55.9510955811,0.349065840244,0.0265011657029,-0.0282686371356,0.311417639256,0.0371332727373,0.0371332727373,0.00329763768241,0.0801350921392,160.784606934,160.784606934,-243.115463257,-63.2149772644,2045,2045,2629,2040,2040,3063,3446,3445,3295,3381,3127,3017,3154,3104,3229,2734,3385,3403,3232,3359,3125,3347,3388,3197
1508402850220951352,128,1508402850220525787,plot_matl,0.25,-5000.0,0.244693368673,-0.0143955592066,-0.00530663086101,-29.8845653534,0.349065840244,0.0161937773228,-0.00962245371193,0.244756534696,-0.00548542756587,-0.00548542756587,0.00643945438787,0.0222598258406,-90.5414962769,-90.5414962769,1.32297539711,104.485137939,2052,2089,2131,2048,2048,2664,3309,3335,3139,3288,2999,2972,3051,3091,3165,2984,3399,3390,3241,3291,2956,3281,3306,3031,0.0099764,1.280038002,1.2769792,0.401425719261,4500.0,0.365259617567,-0.0105577167124,-0.0361661016941,162.747451782,0.0,6000.0,-0.0096106659621,-0.00720690703019,-0.0096106659621,59.7296943665,0.349065840244,0.0265011657029,-0.0282686371356,0.311417639256,0.0371332727373,0.0371332727373,0.00329763768241,0.0801350921392,160.784606934,160.784606934,-243.115463257,-63.2149772644,2052,2053,2629,2040,2040,3063,3446,3445,3295,3381,3127,3017,3154,3103,3230,2729,3382,3402,3229,3360,3127,3348,3389,3197
1508402850230936989,129,1508402850230549019,plot_matl,0.25,-5000.0,0.244693368673,-0.0143955592066,-0.00530663086101,-29.8845653534,0.349065840244,0.0161937773228,-0.00962245371193,0.244756534696,-0.00548542756587,-0.00548542756587,0.00643945438787,0.0222598258406,-90.5414962769,-90.5414962769,1.32297539711,104.485137939,2052,2089,2131,2048,2048,2664,3309,3335,3139,3288,2999,2972,3051,3091,3165,2984,3399,3390,3241,3291,2956,3281,3306,3031,0.010021758,1.290060502,1.292806782,0.401425719261,4500.0,0.366609096527,0.0156507138163,-0.0348166190088,156.674789429,0.0,6000.0,-0.00961473118514,-0.00711941812187,-0.00961473118514,59.8168411255,0.349065840244,0.0265011657029,-0.0282686371356,0.311417639256,0.0371332727373,0.0371332727373,0.00329763768241,0.0801350921392,160.784606934,160.784606934,-243.115463257,-63.2149772644,2052,2053,2629,2040,2040,3063,3446,3445,3295,3381,3127,3017,3154,3103,3230,2729,3382,3402,3229,3360,3127,3348,3389,3197
1508402850241115402,130,1508402850240567986,plot_matl,0.25,-5000.0,0.244667351246,0.0239883586764,-0.00533264456317,-20.9586791992,0.349065840244,0.0161937773228,-0.00962245371193,0.244756534696,-0.00548542756587,-0.00548542756587,0.00643945438787,0.0222598258406,-90.5414962769,-90.5414962769,1.32297539711,104.485137939,2075,2098,2131,2050,2050,2667,3309,3333,3139,3286,3000,2972,3051,3091,3165,2984,3399,3390,3241,3291,2956,3281,3306,3030,0.010020861,1.300080336,1.30271193,0.401425719261,4500.0,0.365259617567,-0.0129435872659,-0.0361661016941,162.747451782,0.0,6000.0,-0.0095825092867,0.00565330451354,-0.0095825092867,55.7929992676,0.349065840244,0.0265011657029,-0.0282686371356,0.311417639256,0.0371332727373,0.0371332727373,0.00329763768241,0.0801350921392,160.784606934,160.784606934,-243.115463257,-63.2149772644,2067,2069,2628,2043,2043,3065,3444,3444,3295,3380,3127,3017,3154,3103,3230,2729,3382,3402,3229,3360,3127,3348,3389,3199
1508402850251117550,131,1508402850250556504,plot_matl,0.25,-5000.0,0.244686618447,0.0235404353589,-0.0053133815527,-20.9215965271,0.349065840244,0.0161937773228,-0.00957903172821,0.244671344757,-0.00712690409273,-0.00712690409273,0.00557879917324,-0.0140464873984,-90.7492752075,-90.7492752075,0.564545452595,104.259552002,2059,2091,2129,2044,2044,2665,3308,3335,3137,3286,3000,2970,3049,3090,3168,2983,3399,3392,3241,3291,2955,3280,3308,3029,0.009987927,1.310068674,1.308418437,0.401425719261,4500.0,0.366609096527,0.0126808937639,-0.0348166190088,156.674789429,0.0,6000.0,-0.0095825092867,0.00565330451354,-0.0095825092867,55.7929992676,0.349065840244,0.0216827709228,-0.0283616520464,0.311273157597,-0.0117248836905,-0.0117248836905,0.00521391117945,-0.0406115092337,160.858322144,160.858322144,-243.29876709,-63.3304786682,2059,2057,2627,2039,2039,3065,3446,3443,3296,3380,3127,3018,3154,3104,3229,2727,3381,3401,3229,3358,3127,3348,3390,3198
1508402850260890244,132,1508402850260500566,plot_matl,0.25,-5000.0,0.244686618447,0.0235404353589,-0.0053133815527,-20.9215965271,0.349065840244,0.0161937773228,-0.00957903172821,0.244671344757,-0.00712690409273,-0.00712690409273,0.00557879917324,-0.0140464873984,-90.7492752075,-90.7492752075,0.564545452595,104.259552002,2059,2091,2129,2044,2044,2665,3308,3335,3137,3286,3000,2970,3049,3090,3168,2983,3399,3392,3241,3291,2955,3280,3308,3029,0.00994297,1.320012961,1.31247204,0.401425719261,4500.0,0.366609096527,0.0123604591936,-0.0348166190088,156.674789429,0.0,6000.0,-0.00957977864891,-0.00782643537968,-0.00957977864891,59.8324546814,0.349065840244,0.0216827709228,-0.0283616520464,0.311273157597,-0.0117248836905,-0.0117248836905,0.00521391117945,-0.0406115092337,160.858322144,160.858322144,-243.29876709,-63.3304786682,2059,2057,2627,2039,2039,3065,3446,3443,3296,3380,3127,3018,3154,3104,3229,2727,3381,3401,3229,3358,3127,3348,3390,3198
1508402850270899654,133,1508402850270532241,plot_matl,0.25,-5000.0,0.244686231017,-0.0143689904362,-0.00531377457082,-30.0065422058,0.349065840244,0.0161937773228,-0.00957903172821,0.244671344757,-0.00712690409273,-0.00712690409273,0.00557879917324,-0.0140464873984,-90.7492752075,-90.7492752075,0.564545452595,104.259552002,2046,2096,2129,2044,2044,2665,3308,3335,3137,3285,3000,2970,3051,3090,3167,2984,3400,3392,3243,3291,2955,3280,3308,3029,0.010030052,1.330044066,1.333996916,0.401425719261,4500.0,0.365259617567,-0.0167264118791,-0.0361661016941,162.747451782,0.0,6000.0,-0.00954462401569,-0.00853737350553,-0.00954462401569,59.8044090271,0.349065840244,0.0216827709228,-0.0283616520464,0.311273157597,-0.0117248836905,-0.0117248836905,0.00521391117945,-0.0406115092337,160.858322144,160.858322144,-243.29876709,-63.3304786682,2050,2056,2627,2039,2039,3065,3446,3443,3296,3382,3125,3019,3153,3105,3226,2729,3382,3403,3230,3358,3127,3348,3390,3198
1508402850280884358,134,1508402850280494430,plot_matl,0.25,-5000.0,0.244756475091,-0.0158183630556,-0.00524351745844,-30.038690567,0.349065840244,0.0161937773228,-0.00957903172821,0.244671344757,-0.00712690409273,-0.00712690409273,0.00557879917324,-0.0140464873984,-90.7492752075,-90.7492752075,0.564545452595,104.259552002,2010,2054,2130,2049,2049,2661,3308,3336,3136,3288,2999,2972,3049,3092,3167,2984,3399,3392,3243,3291,2957,3277,3307,3029,0.009961863,1.340006089,1.334889642,0.401425719261,4500.0,0.366609096527,0.0100679891184,-0.0348166190088,156.674789429,0.0,6000.0,-0.00954930391163,-0.00844300258905,-0.00954930391163,59.8348579407,0.349065840244,0.0216827709228,-0.0283616520464,0.311273157597,-0.0117248836905,-0.0117248836905,0.00521391117945,-0.0406115092337,160.858322144,160.858322144,-243.29876709,-63.3304786682,2018,2022,2627,2043,2043,3064,3445,3444,3295,3381,3124,3017,3154,3104,3227,2732,3383,3403,3230,3360,3124,3349,3390,3198
1508402850290917087,135,1508402850290488801,plot_matl,0.25,-5000.0,0.244756475091,-0.0158183630556,-0.00524351745844,-30.038690567,0.349065840244,0.0175432581455,-0.00954814441502,0.244782552123,0.00526645686477,0.00526645686477,0.00495000369847,0.0215438567102,-90.6464767456,-90.6464767456,1.24039232731,104.615699768,1998,2032,2130,2046,2046,2661,3308,3336,3136,3288,2999,2972,3049,3092,3167,2984,3399,3393,3243,3292,2958,3279,3308,3028,0.009994411,1.350000916,1.349245485,0.401425719261,4500.0,0.365259617567,-0.0170480161905,-0.0361661016941,162.747451782,0.0,6000.0,-0.00957712065428,0.00555416056886,-0.00957712065428,55.7970314026,0.349065840244,0.0216827709228,-0.0283143948764,0.311078727245,-0.0101012326777,-0.0101012326777,0.00424714479595,0.0251229815185,160.614379883,160.614379883,-243.269241333,-63.7811508179,2004,2009,2627,2038,2038,3064,3445,3444,3295,3381,3124,3017,3154,3104,3227,2732,3383,3401,3231,3359,3126,3348,3390,3198
1508402850300903274,136,1508402850300506249,plot_matl,0.25,-5000.0,0.244739502668,0.0224308017641,-0.00526049220935,-20.9247074127,0.349065840244,0.0175432581455,-0.00954814441502,0.244782552123,0.00526645686477,0.00526645686477,0.00495000369847,0.0215438567102,-90.6464767456,-90.6464767456,1.24039232731,104.615699768,1982,2001,2130,2046,2046,2660,3308,3333,3136,3287,3000,2971,3048,3092,3166,2984,3399,3393,3243,3292,2958,3279,3308,3028,0.010017233,1.36001856,1.362343688,0.401425719261,4500.0,0.366609096527,0.00986850820482,-0.0348166190088,156.674789429,0.0,6000.0,-0.00958883669227,-0.0076283630915,-0.00958883669227,59.8273239136,0.349065840244,0.0216827709228,-0.0283143948764,0.311078727245,-0.0101012326777,-0.0101012326777,0.00424714479595,0.0251229815185,160.614379883,160.614379883,-243.269241333,-63.7811508179,1989,1980,2627,2038,2038,3061,3446,3445,3292,3379,3124,3018,3152,3104,3229,2732,3383,3401,3231,3359,3126,3348,3390,3198
1508402850310906631,137,1508402850310532633,plot_matl,0.25,-5000.0,0.244636580348,-0.0133888507262,-0.00536342570558,-30.0776481628,0.349065840244,0.0175432581455,-0.00954814441502,0.244782552123,0.00526645686477,0.00526645686477,0.00495000369847,0.0215438567102,-90.6464767456,-90.6464767456,1.24039232731,104.615699768,1975,2004,2131,2046,2046,2660,3308,3333,3136,3287,3000,2971,3048,3092,3166,2984,3400,3394,3244,3292,2958,3281,3308,3031,0.010025797,1.370044778,1.373534189,0.401425719261,4500.0,0.366609096527,0.0105206659064,-0.0348166190088,156.674789429,0.0,6000.0,-0.00957227684557,0.00545667670667,-0.00957227684557,55.7823867798,0.349065840244,0.0216827709228,-0.0283143948764,0.311078727245,-0.0101012326777,-0.0101012326777,0.00424714479595,0.0251229815185,160.614379883,160.614379883,-243.269241333,-63.7811508179,1974,1974,2628,2038,2038,3061,3446,3445,3292,3379,3124,3018,3152,3104,3229,2733,3385,3403,3231,3359,3126,3348,3389,3200
1508402850320849943,138,1508402850320529365,plot_matl,0.25,-5000.0,0.244636580348,-0.0133888507262,-0.00536342570558,-30.0776481628,0.349065840244,0.0175432581455,-0.00954814441502,0.244782552123,0.00526645686477,0.00526645686477,0.00495000369847,0.0215438567102,-90.6464767456,-90.6464767456,1.24039232731,104.615699768,1975,2004,2131,2046,2046,2660,3308,3333,3136,3287,3000,2971,3048,3092,3166,2984,3400,3394,3244,3292,2958,3281,3308,3031,0.009997588,1.380041449,1.379667144,0.401425719261,4500.0,0.366609096527,0.0110620576888,-0.0348166190088,156.674789429,0.0,6000.0,-0.00957227684557,0.00545667670667,-0.00957227684557,55.7823867798,0.349065840244,0.0216827709228,-0.0283143948764,0.311078727245,-0.0101012326777,-0.0101012326777,0.00424714479595,0.0251229815185,160.614379883,160.614379883,-243.269241333,-63.7811508179,1974,1974,2628,2038,2038,3061,3446,3445,3292,3379,3124,3018,3152,3104,3229,2733,3385,3403,3231,3359,3126,3348,3389,3200
1508402850330838497,139,1508402850330500964,plot_matl,0.25,-5000.0,0.244587883353,-0.0124325202778,-0.00541212270036,-29.8774166107,0.349065840244,0.0161937773228,-0.00962885096669,0.244626089931,-0.00788335222751,-0.00788335222751,-0.00681615248322,0.0247037541121,-90.4939804077,-90.4939804077,1.71522951126,104.649757385,1938,1970,2131,2048,2048,2661,3308,3334,3137,3287,3001,2970,3048,3092,3166,2984,3400,3394,3244,3292,2958,3281,3308,3031,0.009999984,1.390013099,1.389997776,0.401425719261,4500.0,0.365259617567,-0.0142429508269,-0.0361661016941,162.747451782,0.0,6000.0,-0.00960766989738,-0.00724313221872,-0.00960766989738,59.6960830688,0.349065840244,0.0240919683129,-0.0282513536513,0.311035424471,0.0163959544152,0.0163959544152,0.00298556569032,0.0258411113173,160.412399292,160.412399292,-243.162719727,-63.7007675171,1956,1956,2628,2039,2039,3060,3447,3443,3293,3380,3126,3016,3153,3104,3229,2733,3385,3403,3231,3359,3126,3348,3389,3200
1508402850340872560,140,1508402850340547729,plot_matl,0.25,-5000.0,0.24461081624,-0.0129067953676,-0.00538918143138,-30.048910141,0.349065840244,0.0161937773228,-0.00962885096669,0.244626089931,-0.00788335222751,-0.00788335222751,-0.00681615248322,0.0247037541121,-90.4939804077,-90.4939804077,1.71522951126,104.649757385,1915,1964,2131,2048,2048,2661,3308,3334,3137,3287,3001,2970,3048,3092,3169,2986,3402,3393,3245,3294,2961,3279,3310,3031,0.010016707,1.4000602,1.40233898,0.401425719261,4500.0,0.365259617567,-0.0142429508269,-0.0361661016941,162.747451782,0.0,6000.0,-0.00963705871254,-0.00665504159406,-0.00963705871254,59.8216705322,0.349065840244,0.0240919683129,-0.0282513536513,0.311035424471,0.0163959544152,0.0163959544152,0.00298556569032,0.0258411113173,160.412399292,160.412399292,-243.162719727,-63.7007675171,1943,1948,2628,2039,2039,3060,3447,3443,3293,3380,3126,3016,3153,3104,3227,2733,3385,3403,3230,3361,3128,3350,3390,3200
1508402850350857315,141,1508402850350543668,plot_matl,0.25,-5000.0,0.244618862867,0.0248473193496,-0.00538113480434,-20.9480838776,0.349065840244,0.0161937773228,-0.00962885096669,0.244626089931,-0.00788335222751,-0.00788335222751,-0.00681615248322,0.0247037541121,-90.4939804077,-90.4939804077,1.71522951126,104.649757385,1916,1956,2133,2046,2046,2665,3310,3336,3139,3290,3001,2970,3047,3092,3168,2984,3402,3393,3245,3293,2962,3279,3310,3031,0.009994617,1.410055708,1.409240997,0.401425719261,4500.0,0.365259617567,-0.0122035536915,-0.0361661016941,162.747451782,0.0,6000.0,-0.00969302095473,0.00789173878729,-0.00969302095473,55.7911148071,0.349065840244,0.0240919683129,-0.0282513536513,0.311035424471,0.0163959544152,0.0163959544152,0.00298556569032,0.0258411113173,160.412399292,160.412399292,-243.162719727,-63.7007675171,1946,1943,2629,2040,2040,3064,3446,3445,3296,3381,3127,3016,3153,3102,3227,2730,3382,3402,3231,3361,3129,3350,3390,3199
1508402850360909508,142,1508402850360473330,plot_matl,0.25,-5000.0,0.244705617428,0.0230962745845,-0.00529438303784,-20.9536590576,0.349065840244,0.0161937773228,-0.00962885096669,0.244626089931,-0.00788335222751,-0.00788335222751,-0.00681615248322,0.0247037541121,-90.4939804077,-90.4939804077,1.71522951126,104.649757385,1926,1959,2135,2050,2050,2671,3310,3338,3142,3290,3001,2970,3047,3092,3168,2984,3402,3393,3245,3293,2962,3280,3311,3034,0.009927668,1.419984746,1.409728856,0.401425719261,4500.0,0.365259617567,-0.0119868852198,-0.0361661016941,162.747451782,0.0,6000.0,-0.00971903279424,-0.00501641072333,-0.00971903279424,59.8120536804,0.349065840244,0.0240919683129,-0.0282513536513,0.311035424471,0.0163959544152,0.0163959544152,0.00298556569032,0.0258411113173,160.412399292,160.412399292,-243.162719727,-63.7007675171,1949,1951,2632,2045,2045,3067,3446,3444,3297,3381,3127,3016,3153,3102,3227,2730,3382,3402,3231,3361,3129,3348,3389,3198
1508402850370962310,143,1508402850370544187,plot_matl,0.25,-5000.0,0.244737923145,0.0224303714931,-0.00526207219809,-21.0440921783,0.349065840244,0.0175432581455,-0.00970755983144,0.24477224052,0.00797580648214,0.00797580648214,0.00817744992673,0.0217486489564,-90.5216369629,-90.5216369629,1.96105968952,104.719421387,1928,1979,2135,2050,2050,2671,3310,3338,3142,3290,3003,2969,3050,3089,3168,2986,3402,3395,3243,3293,2962,3280,3311,3034,0.010071795,1.430056002,1.440266685,0.401425719261,4500.0,0.365259617567,-0.0103548532352,-0.0361661016941,162.747451782,0.0,6000.0,-0.00971555989236,0.0083395531401,-0.00971555989236,55.8427658081,0.349065840244,0.0216827709228,-0.0283899791539,0.310958653688,-0.00708965212107,-0.00708965212107,-0.00957121234387,0.0274700094014,160.420654297,160.420654297,-243.20300293,-63.4490394592,1959,1964,2632,2045,2045,3067,3446,3444,3297,3384,3128,3014,3151,3100,3229,2726,3384,3402,3233,3361,3129,3348,3389,3198
1508402850380964123,144,1508402850380529428,plot_matl,0.25,-5000.0,0.244770511985,0.021753301844,-0.00522948661819,-20.6194877625,0.349065840244,0.0175432581455,-0.00970755983144,0.24477224052,0.00797580648214,0.00797580648214,0.00817744992673,0.0217486489564,-90.5216369629,-90.5216369629,1.96105968952,104.719421387,1952,1990,2137,2045,2045,2675,3313,3338,3142,3290,3003,2969,3050,3089,3168,2986,3402,3395,3243,3296,2961,3282,3310,3035,0.009985135,1.440041478,1.43785944,0.401425719261,4500.0,0.366609096527,0.0148155791685,-0.0348166190088,156.674789429,0.0,6000.0,-0.00972625892609,-0.00487744202837,-0.00972625892609,59.9020957947,0.349065840244,0.0216827709228,-0.0283899791539,0.310958653688,-0.00708965212107,-0.00708965212107,-0.00957121234387,0.0274700094014,160.420654297,160.420654297,-243.20300293,-63.4490394592,1973,1976,2633,2041,2041,3069,3447,3444,3297,3384,3128,3014,3151,3100,3229,2726,3384,3402,3233,3363,3128,3348,3391,3201
1508402850390833321,145,1508402850390516559,plot_matl,0.25,-5000.0,0.24472630024,-0.0152635155246,-0.00527369277552,-30.2387676239,0.349065840244,0.0175432581455,-0.00970755983144,0.24477224052,0.00797580648214,0.00797580648214,0.00817744992673,0.0217486489564,-90.5216369629,-90.5216369629,1.96105968952,104.719421387,1986,2013,2137,2045,2045,2675,3313,3339,3142,3291,3005,2967,3050,3090,3168,2986,3400,3395,3243,3296,2961,3282,3310,3035,0.009984261,1.450027279,1.447717845,0.401425719261,4500.0,0.365259617567,-0.0121217882261,-0.0361661016941,162.747451782,0.0,6000.0,-0.00974450260401,0.00892210286111,-0.00974450260401,55.6369285583,0.349065840244,0.0216827709228,-0.0283899791539,0.310958653688,-0.00708965212107,-0.00708965212107,-0.00957121234387,0.0274700094014,160.420654297,160.420654297,-243.20300293,-63.4490394592,1997,1992,2633,2041,2041,3069,3447,3445,3299,3383,3129,3013,3152,3100,3229,2724,3384,3402,3233,3363,3128,3348,3391,3201
1508402850400901083,146,1508402850400492948,plot_matl,0.25,-5000.0,0.244685173035,-0.0144562153146,-0.00531482277438,-29.9959049225,0.349065840244,0.0175432581455,-0.00970755983144,0.24477224052,0.00797580648214,0.00797580648214,0.00817744992673,0.0217486489564,-90.5216369629,-90.5216369629,1.96105968952,104.719421387,1991,2023,2138,2048,2048,2675,3313,3339,3142,3291,3005,2967,3050,3090,3168,2986,3400,3394,3245,3294,2961,3281,3313,3034,0.009978567,1.460004943,1.456870782,0.401425719261,4500.0,0.366609096527,0.0143150147051,-0.0348166190088,156.674789429,0.0,6000.0,-0.00977431703359,-0.00389671442099,-0.00977431703359,59.7993850708,0.349065840244,0.0216827709228,-0.0283899791539,0.310958653688,-0.00708965212107,-0.00708965212107,-0.00957121234387,0.0274700094014,160.420654297,160.420654297,-243.20300293,-63.4490394592,2002,2006,2634,2042,2042,3069,3447,3445,3299,3383,3129,3013,3152,3100,3229,2724,3384,3401,3231,3360,3130,3347,3392,3201
1508402850410927888,147,1508402850410497953,plot_matl,0.25,-5000.0,0.244690090418,0.0233350787312,-0.00530991423875,-20.8643608093,0.349065840244,0.0161937773228,-0.00978517439216,0.24468138814,-0.00610077474266,-0.00610077474266,-0.0036771253217,0.0235265437514,-90.2941207886,-90.2941207886,1.5881062746,104.482673645,2004,2032,2138,2048,2048,2676,3314,3337,3143,3292,3006,2967,3050,3091,3169,2986,3400,3394,3245,3294,2961,3281,3313,3034,0.010004816,1.470009978,1.470707952,0.401425719261,4500.0,0.365259617567,-0.0126603879035,-0.0361661016941,162.747451782,0.0,6000.0,-0.00979641079903,-0.00345258857124,-0.00979641079903,59.8258094788,0.349065840244,0.0240919683129,-0.0285186097026,0.310794442892,0.0186093337834,0.0186093337834,-0.00697487546131,-0.0310043171048,160.041427612,160.041427612,-243.316162109,-63.2041358948,2013,2015,2634,2042,2042,3069,3448,3446,3301,3385,3131,3013,3152,3098,3226,2724,3384,3401,3231,3360,3130,3347,3392,3201
1508402850420896255,148,1508402850420524442,plot_matl,0.25,-5000.0,0.244690090418,0.0233350787312,-0.00530991423875,-20.8643608093,0.349065840244,0.0161937773228,-0.00978517439216,0.24468138814,-0.00610077474266,-0.00610077474266,-0.0036771253217,0.0235265437514,-90.2941207886,-90.2941207886,1.5881062746,104.482673645,2004,2032,2138,2048,2048,2676,3314,3337,3143,3292,3006,2967,3050,3091,3169,2986,3400,3394,3245,3294,2961,3281,3313,3034,0.010026915,1.480036788,1.48398342,0.401425719261,4500.0,0.365259617567,-0.0126603879035,-0.0361661016941,162.747451782,0.0,6000.0,-0.00979641079903,-0.00345258857124,-0.00979641079903,59.8258094788,0.349065840244,0.0240919683129,-0.0285186097026,0.310794442892,0.0186093337834,0.0186093337834,-0.00697487546131,-0.0310043171048,160.041427612,160.041427612,-243.316162109,-63.2041358948,2013,2015,2634,2042,2042,3069,3448,3446,3301,3385,3131,3013,3152,3098,3226,2724,3384,3401,3231,3360,3130,3347,3392,3201
1508402850431128014,149,1508402850430571257,plot_matl,0.25,-5000.0,0.244740352035,-0.0149729568511,-0.00525965122506,-30.3277626038,0.349065840244,0.0161937773228,-0.00978517439216,0.24468138814,-0.00610077474266,-0.00610077474266,-0.0036771253217,0.0235265437514,-90.2941207886,-90.2941207886,1.5881062746,104.482673645,2004,2032,2138,2048,2048,2676,3314,3337,3143,3292,3006,2967,3050,3091,3169,2986,3400,3394,3245,3294,2961,3281,3313,3034,0.010047216,1.490083542,1.497035184,0.401425719261,4500.0,0.366609096527,0.0148690631613,-0.0348166190088,156.674789429,0.0,6000.0,-0.00979641079903,-0.00345258857124,-0.00979641079903,59.8258094788,0.349065840244,0.0240919683129,-0.0285186097026,0.310794442892,0.0186093337834,0.0186093337834,-0.00697487546131,-0.0310043171048,160.041427612,160.041427612,-243.316162109,-63.2041358948,2013,2015,2634,2042,2042,3069,3448,3446,3301,3385,3131,3013,3152,3098,3226,2724,3384,3401,3231,3360,3130,3347,3392,3201
1508402850440645289,150,1508402850440479262,plot_matl,0.25,-5000.0,0.244740352035,-0.0149729568511,-0.00525965122506,-30.3277626038,0.349065840244,0.0161937773228,-0.00978517439216,0.24468138814,-0.00610077474266,-0.00610077474266,-0.0036771253217,0.0235265437514,-90.2941207886,-90.2941207886,1.5881062746,104.482673645,2033,2064,2138,2048,2048,2676,3314,3337,3143,3292,3006,2967,3050,3091,3169,2986,3401,3396,3247,3296,2961,3291,3318,3045,0.00990411,1.499990253,1.4856165,0.401425719261,4500.0,0.366609096527,0.0148690631613,-0.0348166190088,156.674789429,0.0,6000.0,-0.00983624439687,-0.00264630303718,-0.00983624439687,59.8731231689,0.349065840244,0.0240919683129,-0.0285186097026,0.310794442892,0.0186093337834,0.0186093337834,-0.00697487546131,-0.0310043171048,160.041427612,160.041427612,-243.316162109,-63.2041358948,2034,2035,2634,2042,2042,3069,3448,3446,3301,3385,3131,3013,3152,3098,3226,2724,3382,3404,3232,3360,3129,3357,3399,3211
1508402850451089234,151,1508402850450540981,plot_matl,0.25,-5000.0,0.244639486074,-0.0150660695508,-0.00536051625386,-29.9758605957,0.349065840244,0.0175432581455,-0.00983339175582,0.244757145643,0.00759672513232,0.00759672513232,-0.00270403525792,0.0226423032582,-90.494102478,-90.494102478,2.04629611969,104.274139404,2033,2064,2138,2048,2048,2676,3314,3337,3143,3292,3006,2967,3050,3091,3169,2986,3401,3396,3247,3296,2961,3291,3318,3045,0.010065011,1.510053131,1.519816661,0.401425719261,4500.0,0.367958575487,0.0401425808668,-0.0334671400487,150.602127075,0.0,6000.0,-0.00985142495483,0.0110767027363,-0.00985142495483,55.8526649475,0.349065840244,0.0216827709228,-0.0285473559052,0.31064543128,-0.00387878902256,-0.00387878902256,-0.00630089454353,0.0338321700692,160.129211426,160.129211426,-243.76991272,-63.5230407715,2034,2035,2634,2042,2042,3069,3448,3446,3301,3385,3131,3013,3152,3098,3226,2724,3382,3404,3232,3360,3129,3357,3399,3211
1508402850460939764,152,1508402850460504016,plot_matl,0.25,-5000.0,0.244639486074,-0.0150660695508,-0.00536051625386,-29.9758605957,0.349065840244,0.0175432581455,-0.00984520930797,0.244673699141,0.00658979918808,0.00658979918808,0.0109495678917,0.0222446098924,-90.076171875,-90.076171875,2.41123223305,104.748054504,2029,2083,2138,2051,2051,2677,3317,3343,3145,3293,3007,2983,3065,3091,3169,2986,3401,3396,3247,3296,2961,3291,3318,3045,0.00996099,1.520015861,1.51407048,0.401425719261,4500.0,0.367958575487,0.0401425808668,-0.0334671400487,150.602127075,0.0,6000.0,-0.00985142495483,0.0110767027363,-0.00985142495483,55.8526649475,0.349065840244,0.0216827709228,-0.0284685976803,0.310443729162,-0.00549520319328,-0.00549520319328,-0.00716532068327,-0.0235105454922,159.98449707,159.98449707,-242.619842529,-63.2829818726,2037,2043,2634,2046,2046,3071,3452,3447,3300,3386,3134,3027,3165,3098,3226,2724,3382,3404,3232,3360,3129,3357,3399,3211
1508402850470642836,153,1508402850470472133,plot_matl,0.25,-5000.0,0.244565650821,-0.0131169874221,-0.00543435011059,-29.9745368958,0.349065840244,0.0175432581455,-0.00984520930797,0.244673699141,0.00658979918808,0.00658979918808,0.0109495678917,0.0222446098924,-90.076171875,-90.076171875,2.41123223305,104.748054504,2039,2049,2138,2047,2047,2675,3315,3342,3145,3296,3007,2983,3065,3105,3181,2997,3413,3403,3254,3301,2969,3287,3318,3040,0.009966032,1.529983301,1.524802896,0.401425719261,4500.0,0.366609096527,0.0121669210494,-0.0348166190088,156.674789429,0.0,6000.0,-0.00985761545599,-0.00222774012946,-0.00985761545599,59.7897796631,0.349065840244,0.0216827709228,-0.0284685976803,0.310443729162,-0.00549520319328,-0.00549520319328,-0.00716532068327,-0.0235105454922,159.98449707,159.98449707,-242.619842529,-63.2829818726,2035,2023,2633,2039,2039,3070,3450,3448,3303,3387,3134,3027,3165,3112,3240,2736,3394,3413,3241,3370,3134,3354,3396,3205
1508402850480868876,154,1508402850480513556,plot_matl,0.25,-5000.0,0.244631767273,0.0236491914839,-0.00536823971197,-20.8212070465,0.349065840244,0.0175432581455,-0.00984520930797,0.244673699141,0.00658979918808,0.00658979918808,0.0109495678917,0.0222446098924,-90.076171875,-90.076171875,2.41123223305,104.748054504,2042,2050,2138,2047,2047,2675,3315,3342,3145,3296,3007,2968,3053,3093,3171,2991,3403,3397,3250,3298,2966,3287,3318,3040,0.010043311,1.540025555,1.546669894,0.401425719261,4500.0,0.366609096527,0.0124123133719,-0.0348166190088,156.674789429,0.0,6000.0,-0.00986531283706,-0.00206863624044,-0.00986531283706,59.8211936951,0.349065840244,0.0216827709228,-0.0284685976803,0.310443729162,-0.00549520319328,-0.00549520319328,-0.00716532068327,-0.0235105454922,159.98449707,159.98449707,-242.619842529,-63.2829818726,2038,2025,2633,2039,2039,3070,3450,3448,3303,3387,3134,3013,3155,3103,3229,2729,3386,3404,3234,3362,3130,3354,3396,3205
1508402850491003992,155,1508402850490531235,plot_matl,0.25,-5000.0,0.244680121541,-0.0150691205636,-0.00531988078728,-30.0209827423,0.349065840244,0.0175432581455,-0.00984520930797,0.244673699141,0.00658979918808,0.00658979918808,0.0109495678917,0.0222446098924,-90.076171875,-90.076171875,2.41123223305,104.748054504,2025,2060,2138,2046,2046,2673,3311,3338,3143,3292,3005,2968,3050,3091,3169,2987,3400,3394,3248,3298,2966,3283,3312,3033,0.010016928,1.550043049,1.55262384,0.401425719261,4500.0,0.365259617567,-0.0122108245268,-0.0361661016941,162.747451782,0.0,6000.0,-0.00984169915318,-0.00254082097672,-0.00984169915318,59.8533096313,0.349065840244,0.0216827709228,-0.0284685976803,0.310443729162,-0.00549520319328,-0.00549520319328,-0.00716532068327,-0.0235105454922,159.98449707,159.98449707,-242.619842529,-63.2829818726,2028,2030,2633,2039,2039,3067,3447,3447,3301,3382,3133,3014,3153,3101,3229,2728,3386,3405,3233,3362,3130,3350,3393,3201
1508402850500975841,156,1508402850500489745,plot_matl,0.25,-5000.0,0.244728595018,0.0220929961652,-0.00527141150087,-20.7956390381,0.349065840244,0.0161937773228,-0.0098488740623,0.244719281793,-0.00627087336034,-0.00627087336034,-0.00239529716782,0.022196572274,-90.1267623901,-90.1267623901,2.30349206924,104.688743591,2043,2079,2138,2045,2045,2675,3314,3338,3143,3292,3005,2968,3050,3091,3169,2987,3400,3394,3248,3296,2963,3281,3312,3034,0.009958619,1.560001915,1.553544564,0.401425719261,4500.0,0.367958575487,0.0410175062716,-0.0334671400487,150.602127075,0.0,6000.0,-0.00983913429081,0.010835529305,-0.00983913429081,55.7006721497,0.349065840244,0.0240919683129,-0.0284773595631,0.310676276684,0.0197054594755,0.0197054594755,0.00782141461968,0.033403981477,160.197875977,160.197875977,-242.517913818,-63.5375938416,2042,2043,2633,2040,2040,3068,3446,3447,3301,3382,3133,3014,3153,3101,3229,2728,3386,3405,3233,3361,3129,3349,3392,3200
1508402850510921227,157,1508402850510496464,plot_matl,0.25,-5000.0,0.24472270906,-0.015701295808,-0.00527729606256,-30.1715431213,0.349065840244,0.0161937773228,-0.0098488740623,0.244719281793,-0.00627087336034,-0.00627087336034,-0.00239529716782,0.022196572274,-90.1267623901,-90.1267623901,2.30349206924,104.688743591,2004,2057,2138,2045,2045,2675,3314,3339,3143,3292,3003,2969,3050,3092,3171,2984,3402,3394,3248,3296,2963,3281,3312,3034,0.010006915,1.570008809,1.571085655,0.401425719261,4500.0,0.366609096527,0.0147405425087,-0.0348166190088,156.674789429,0.0,6000.0,-0.00986239500344,-0.00211722007953,-0.00986239500344,59.8324394226,0.349065840244,0.0240919683129,-0.0284773595631,0.310676276684,0.0197054594755,0.0197054594755,0.00782141461968,0.033403981477,160.197875977,160.197875977,-242.517913818,-63.5375938416,2016,2022,2633,2040,2040,3068,3446,3447,3299,3382,3132,3013,3155,3100,3227,2723,3383,3405,3233,3361,3129,3349,3392,3200
1508402850520973670,158,1508402850520518969,plot_matl,0.25,-5000.0,0.24472270906,-0.015701295808,-0.00527729606256,-30.1715431213,0.349065840244,0.0161937773228,-0.0098488740623,0.244719281793,-0.00627087336034,-0.00627087336034,-0.00239529716782,0.022196572274,-90.1267623901,-90.1267623901,2.30349206924,104.688743591,2055,2098,2138,2043,2043,2675,3314,3339,3143,3292,3003,2969,3050,3092,3171,2984,3402,3393,3245,3293,2963,3282,3313,3035,0.010021087,1.580030993,1.583331746,0.401425719261,4500.0,0.366609096527,0.0160175412893,-0.0348166190088,156.674789429,0.0,6000.0,-0.00986239500344,-0.00211722007953,-0.00986239500344,59.8324394226,0.349065840244,0.0240919683129,-0.0284773595631,0.310676276684,0.0197054594755,0.0197054594755,0.00782141461968,0.033403981477,160.197875977,160.197875977,-242.517913818,-63.5375938416,2046,2054,2633,2037,2037,3068,3446,3447,3299,3382,3132,3013,3155,3100,3227,2723,3383,3401,3233,3362,3129,3350,3389,3200
1508402850530914214,159,1508402850530553426,plot_matl,0.25,-5000.0,0.244717374444,-0.0534132756293,-0.00528263114393,-39.1952018738,0.349065840244,0.0161937773228,-0.0098488740623,0.244719281793,-0.00627087336034,-0.00627087336034,-0.00239529716782,0.022196572274,-90.1267623901,-90.1267623901,2.30349206924,104.688743591,2055,2098,2138,2043,2043,2675,3314,3339,3143,3292,3003,2969,3050,3092,3171,2984,3402,3393,3245,3293,2963,3282,3313,3035,0.010035345,1.590065962,1.595619855,0.401425719261,4500.0,0.366609096527,0.0160175412893,-0.0348166190088,156.674789429,0.0,6000.0,-0.00986805837601,0.0114217288792,-0.00986805837601,55.7638549805,0.349065840244,0.0240919683129,-0.0284773595631,0.310676276684,0.0197054594755,0.0197054594755,0.00782141461968,0.033403981477,160.197875977,160.197875977,-242.517913818,-63.5375938416,2046,2054,2633,2037,2037,3068,3446,3447,3299,3382,3132,3013,3155,3100,3227,2723,3383,3401,3233,3362,3129,3350,3389,3200
1508402850540937054,160,1508402850540494275,plot_matl,0.25,-5000.0,0.244717374444,-0.0534132756293,-0.00528263114393,-39.1952018738,0.349065840244,0.0161937773228,-0.00987395178527,0.244712710381,-0.00528737111017,-0.00528737111017,-0.00188251992222,0.0225574914366,-90.5766372681,-90.5766372681,1.95627260208,104.045829773,2055,2098,2138,2043,2043,2675,3314,3339,3143,3292,3003,2969,3050,3092,3171,2984,3402,3393,3245,3293,2963,3282,3313,3035,0.009940063,1.600006596,1.59041008,0.401425719261,4500.0,0.365259617567,-0.0117640821263,-0.0361661016941,162.747451782,0.0,6000.0,-0.00987570267171,-0.00184623256791,-0.00987570267171,59.8090934753,0.349065840244,0.0240919683129,-0.02852316387,0.310626059771,0.0184210743755,0.0184210743755,-0.00677453819662,0.0343107134104,160.329360962,160.329360962,-242.133712769,-63.4438285828,2046,2054,2633,2037,2037,3068,3446,3447,3299,3382,3132,3013,3155,3100,3227,2723,3383,3401,3233,3362,3129,3350,3389,3200
1508402850550949216,161,1508402850550552762,plot_matl,0.25,-5000.0,0.244807168841,-0.0170936323702,-0.00519282696769,-30.02784729,0.349065840244,0.0161937773228,-0.00988101866096,0.24473285675,-0.00553949549794,-0.00553949549794,-0.00173871568404,-0.0156243033707,-90.6493377686,-90.6493377686,1.60833895206,104.165817261,2080,2107,2137,2042,2042,2676,3313,3339,3144,3290,3006,2968,3049,3090,3168,2983,3400,3393,3248,3293,2961,3283,3312,3034,0.010058837,1.610065273,1.619472757,0.401425719261,4500.0,0.365259617567,-0.0106874890625,-0.0361661016941,162.747451782,0.0,6000.0,-0.00986778642982,-0.00200245459564,-0.00986778642982,59.8091392517,0.349065840244,0.0216827709228,-0.0285136774182,0.310559809208,-0.00553771015257,-0.00553771015257,-0.00699802488089,-0.0262112338096,160.489318848,160.489318848,-241.916870117,-63.5362319946,2068,2074,2633,2040,2040,3067,3449,3446,3299,3384,3131,3014,3153,3099,3229,2725,3383,3404,3232,3361,3129,3349,3390,3199
1508402850560919367,162,1508402850560543771,plot_matl,0.25,-5000.0,0.244757935405,-0.0160623341799,-0.00524205807596,-29.9576263428,0.349065840244,0.0161937773228,-0.00988101866096,0.24473285675,-0.00553949549794,-0.00553949549794,-0.00173871568404,-0.0156243033707,-90.6493377686,-90.6493377686,1.60833895206,104.165817261,2080,2107,2137,2042,2042,2676,3313,3339,3144,3290,3006,2968,3049,3090,3168,2983,3400,3393,3248,3293,2961,3283,3312,3034,0.009989795,1.620056151,1.61834679,0.401425719261,4500.0,0.365259617567,-0.0112506449223,-0.0361661016941,162.747451782,0.0,6000.0,-0.00983617268503,0.0107872709632,-0.00983617268503,55.8415031433,0.349065840244,0.0216827709228,-0.0285136774182,0.310559809208,-0.00553771015257,-0.00553771015257,-0.00699802488089,-0.0262112338096,160.489318848,160.489318848,-241.916870117,-63.5362319946,2068,2074,2633,2040,2040,3067,3449,3446,3299,3384,3131,3014,3153,3099,3229,2725,3383,3404,3232,3361,3129,3349,3390,3199
