%time,field.header.seq,field.header.stamp,field.header.frame_id,field.FFJ4_set_point,field.FFJ4_position_gain,field.FFJ4_process_value,field.FFJ4_process_value_dot,field.FFJ4_error,field.FFJ4_command,field.FFJ1,field.FFJ2,field.FFJ3,field.FFJ4,field.FFJ1_dot,field.FFJ2_dot,field.FFJ3_dot,field.FFJ4_dot,field.FFJ1_tao,field.FFJ2_tao,field.FFJ3_tao,field.FFJ4_tao,field.pac0,field.pac1,field.pdc0,field.tac0,field.tdc0,field.el0,field.el1,field.el2,field.el3,field.el4,field.el5,field.el6,field.el7,field.el8,field.el9,field.el10,field.el11,field.el12,field.el13,field.el14,field.el15,field.el16,field.el17,field.el18,field.dt,field.time,field.test_time2,field.FFJ0_set_point,field.FFJ0_position_gain,field.FFJ0_process_value,field.FFJ0_process_value_dot,field.FFJ0_error,field.FFJ0_command,field.FFJ3_set_point,field.FFJ3_position_gain,field.FFJ3_process_value,field.FFJ3_process_value_dot,field.FFJ3_error,field.FFJ3_command,field.MFJ1,field.MFJ2,field.MFJ3,field.MFJ4,field.MFJ1_dot,field.MFJ2_dot,field.MFJ3_dot,field.MFJ4_dot,field.MFJ1_tao,field.MFJ2_tao,field.MFJ3_tao,field.MFJ4_tao,field.Mpac0,field.Mpac1,field.Mpdc0,field.Mtac0,field.Mtdc0,field.Mel0,field.Mel1,field.Mel2,field.Mel3,field.Mel4,field.Mel5,field.Mel6,field.Mel7,field.Mel8,field.Mel9,field.Mel10,field.Mel11,field.Mel12,field.Mel13,field.Mel14,field.Mel15,field.Mel16,field.Mel17,field.Mel18
1508404663157222983,113,1508404663156646366,plot_matl,-0.300000011921,-500.0,-0.0476623661816,-0.00416443729773,0.252337634563,125.091636658,0.349065840244,0.0917647331953,-0.0113677773625,-0.0476847290993,0.00205387198366,0.00205387198366,0.00144587026443,-0.0037016493734,-19.8852806091,-19.8852806091,-51.6923522949,-128.370513916,2026,2060,2130,2030,2030,2863,3366,3375,3199,3316,3045,2966,3071,3065,3169,2817,3359,3360,3184,3271,2911,3284,3314,3037,0.009990228,1.12999708,1.128895764,0.453785598278,4500.0,0.440830588341,0.003783602966,-0.0129550211132,58.2975959778,0.0,6000.0,-0.0113767618313,0.00162663590163,-0.0113767618313,67.7196044922,0.349065840244,0.0265011657029,-0.00364991137758,0.30654489994,-0.000349185167579,-0.000349185167579,-0.00300841243006,0.0547946058214,108.95489502,108.95489502,-0.30536866188,61.3575592041,2032,2031,2551,2045,2045,2933,3429,3429,3249,3369,3093,3057,3160,3155,3244,2889,3423,3427,3268,3379,3155,3360,3391,3197
1508404663166798765,114,1508404663166632518,plot_matl,-0.300000011921,-500.0,-0.0476894713938,0.00616581691429,0.252310544252,127.623161316,0.349065840244,0.0917647331953,-0.0113677773625,-0.0476847290993,0.00205387198366,0.00205387198366,0.00144587026443,-0.0037016493734,-19.8852806091,-19.8852806091,-51.6923522949,-128.370513916,2026,2060,2130,2030,2030,2863,3366,3375,3199,3316,3045,2966,3071,3065,3169,2817,3359,3360,3184,3271,2911,3284,3314,3037,0.009983774,1.139982068,1.138150236,0.453785598278,4500.0,0.440830588341,0.003783602966,-0.0129550211132,58.2975959778,0.0,6000.0,-0.0113621065393,0.00133177707903,-0.0113621065393,67.7800064087,0.349065840244,0.0265011657029,-0.00364991137758,0.30654489994,-0.000349185167579,-0.000349185167579,-0.00300841243006,0.0547946058214,108.95489502,108.95489502,-0.30536866188,61.3575592041,2032,2031,2551,2045,2045,2933,3429,3429,3249,3369,3093,3057,3160,3155,3244,2889,3423,3427,3268,3379,3155,3360,3391,3197
1508404663177034057,115,1508404663176710649,plot_matl,-0.300000011921,-500.0,-0.0476946383715,-0.00345275457948,0.252305358648,125.25655365,0.349065840244,0.0917647331953,-0.0113666215912,-0.047709196806,0.00167746795341,0.00167746795341,0.0014323721407,-0.00318610738032,-19.8885211945,-19.8885211945,-51.3913764954,-128.27722168,2024,2067,2129,2032,2032,2864,3365,3375,3199,3317,3043,2967,3072,3066,3170,2817,3359,3360,3182,3268,2910,3284,3314,3038,0.010080494,1.150061667,1.15925681,0.453785598278,4500.0,0.440830588341,0.00254800892435,-0.0129550211132,58.2975959778,0.0,6000.0,-0.0113699929789,0.00150219269563,-0.0113699929789,67.7288284302,0.349065840244,0.0265011657029,-0.00367702590302,0.306536704302,0.000131084467284,0.000131084467284,-0.00245707435533,-0.00696526886895,108.96030426,108.96030426,-0.169688746333,61.3624153137,2024,2026,2551,2047,2047,2932,3428,3427,3247,3367,3093,3058,3160,3155,3245,2888,3423,3429,3268,3378,3152,3360,3391,3197
1508404663187163650,116,1508404663186651602,plot_matl,-0.300000011921,-500.0,-0.0476733893156,-0.00388461910188,0.252326607704,125.260704041,0.349065840244,0.0917647331953,-0.0113666215912,-0.047709196806,0.00167746795341,0.00167746795341,0.0014323721407,-0.00318610738032,-19.8885211945,-19.8885211945,-51.3913764954,-128.27722168,2014,2054,2129,2035,2035,2863,3365,3376,3198,3317,3043,2967,3072,3066,3170,2817,3359,3360,3182,3268,2910,3285,3313,3036,0.009939303,1.16000169,1.152959148,0.453785598278,4500.0,0.440830588341,0.00254800892435,-0.0129550211132,58.2975959778,0.0,6000.0,-0.0113699929789,0.00150219269563,-0.0113699929789,67.7288284302,0.349065840244,0.0265011657029,-0.00367702590302,0.306536704302,0.000131084467284,0.000131084467284,-0.00245707435533,-0.00696526886895,108.96030426,108.96030426,-0.169688746333,61.3624153137,2030,2035,2551,2043,2043,2931,3429,3430,3249,3367,3093,3058,3160,3155,3245,2888,3423,3429,3268,3378,3152,3359,3394,3195
1508404663196920748,117,1508404663196653534,plot_matl,-0.300000011921,-500.0,-0.0476733893156,-0.00388461910188,0.252326607704,125.260704041,0.349065840244,0.0917647331953,-0.0113666215912,-0.047709196806,0.00167746795341,0.00167746795341,0.0014323721407,-0.00318610738032,-19.8885211945,-19.8885211945,-51.3913764954,-128.27722168,2014,2054,2129,2035,2035,2863,3365,3376,3198,3317,3043,2967,3072,3066,3170,2817,3359,3360,3182,3268,2910,3285,3313,3036,0.010001626,1.17000352,1.170190242,0.453785598278,4500.0,0.440830588341,0.00209077447653,-0.0129550211132,58.2975959778,0.0,6000.0,-0.0113798109815,0.00170368340332,-0.0113798109815,67.7812194824,0.349065840244,0.0265011657029,-0.00367702590302,0.306536704302,0.000131084467284,0.000131084467284,-0.00245707435533,-0.00696526886895,108.96030426,108.96030426,-0.169688746333,61.3624153137,2030,2035,2551,2043,2043,2931,3429,3430,3249,3367,3093,3058,3160,3155,3245,2888,3423,3429,3268,3378,3152,3359,3394,3195
1508404663207129260,118,1508404663206656223,plot_matl,-0.300000011921,-500.0,-0.0476020909846,-0.00531020341441,0.252397894859,124.911933899,0.349065840244,0.0917647331953,-0.0113562177867,-0.0476054511964,0.000951588561293,0.000951588561293,0.00122459663544,0.00452427193522,-19.9737415314,-19.9737415314,-50.8286781311,-128.507339478,2017,2050,2129,2035,2035,2863,3365,3376,3198,3319,3043,2966,3071,3064,3169,2816,3361,3360,3184,3268,2910,3285,3313,3036,0.010003287,1.180006686,1.180387866,0.453785598278,4500.0,0.440830588341,0.00128087343182,-0.0129550211132,58.2975959778,0.0,6000.0,-0.0113527188078,0.00115353416186,-0.0113527188078,67.7668457031,0.349065840244,0.0265011657029,-0.00384894688614,0.307077229023,-0.00304763694294,-0.00304763694294,-8.39828062453e-05,-0.0133916735649,109.25592804,109.25592804,-0.436431586742,61.4063262939,2028,2026,2551,2043,2043,2931,3429,3430,3249,3366,3093,3056,3162,3154,3245,2889,3421,3428,3269,3378,3152,3359,3394,3195
1508404663217085144,119,1508404663216653064,plot_matl,-0.300000011921,-500.0,-0.0476136766374,-0.00507200183347,0.252386331558,124.893363953,0.349065840244,0.0917647331953,-0.0113562177867,-0.0476054511964,0.000951588561293,0.000951588561293,0.00122459663544,0.00452427193522,-19.9737415314,-19.9737415314,-50.8286781311,-128.507339478,2024,2056,2130,2035,2035,2871,3373,3376,3198,3319,3043,2966,3071,3064,3169,2816,3361,3360,3184,3288,2927,3299,3330,3053,0.009996405,1.190003468,1.189572195,0.453785598278,4500.0,0.439481109381,-0.0256541427225,-0.0143045028672,64.370262146,0.0,6000.0,-0.0113535551354,0.00118226732593,-0.0113535551354,67.74659729,0.349065840244,0.0265011657029,-0.00384894688614,0.307077229023,-0.00304763694294,-0.00304763694294,-8.39828062453e-05,-0.0133916735649,109.25592804,109.25592804,-0.436431586742,61.4063262939,2035,2035,2551,2045,2045,2939,3438,3430,3249,3366,3093,3056,3162,3154,3245,2889,3421,3428,3269,3397,3168,3377,3409,3214
1508404663227085904,120,1508404663226649921,plot_matl,-0.300000011921,-500.0,-0.0476241521537,-0.00485765468329,0.252375841141,125.004722595,0.349065840244,0.0917647331953,-0.0113562177867,-0.0476054511964,0.000951588561293,0.000951588561293,0.00122459663544,0.00452427193522,-19.9737415314,-19.9737415314,-50.8286781311,-128.507339478,2018,2056,2130,2035,2035,2871,3373,3382,3206,3322,3051,2970,3075,3070,3172,2820,3363,3360,3184,3288,2927,3299,3330,3053,0.009996481,1.200000515,1.19957772,0.453785598278,4500.0,0.439481109381,-0.024871006608,-0.0143045028672,64.370262146,0.0,6000.0,-0.0113679468632,0.00148027308751,-0.0113679468632,67.7627487183,0.349065840244,0.0265011657029,-0.00384894688614,0.307077229023,-0.00304763694294,-0.00304763694294,-8.39828062453e-05,-0.0133916735649,109.25592804,109.25592804,-0.436431586742,61.4063262939,2022,2028,2551,2045,2045,2939,3438,3434,3255,3373,3096,3061,3164,3159,3250,2892,3424,3428,3269,3397,3168,3377,3409,3214
1508404663237033851,121,1508404663236656881,plot_matl,-0.300000011921,-500.0,-0.0476043149829,0.00451084738597,0.252395689487,127.310081482,0.349065840244,0.0917647331953,-0.0113562177867,-0.0476054511964,0.000951588561293,0.000951588561293,0.00122459663544,0.00452427193522,-19.9737415314,-19.9737415314,-50.8286781311,-128.507339478,2019,2071,2129,2035,2035,2871,3373,3382,3206,3322,3051,2970,3075,3070,3172,2820,3363,3363,3185,3271,2911,3288,3317,3039,0.010007205,1.210007605,1.210871805,0.453785598278,4500.0,0.439481109381,-0.0242801085114,-0.0143045028672,64.370262146,0.0,6000.0,-0.0113548338413,0.00121080735698,-0.0113548338413,67.7636032104,0.349065840244,0.0265011657029,-0.00384894688614,0.307077229023,-0.00304763694294,-0.00304763694294,-8.39828062453e-05,-0.0133916735649,109.25592804,109.25592804,-0.436431586742,61.4063262939,2028,2038,2552,2048,2048,2939,3438,3434,3255,3373,3096,3061,3164,3159,3250,2892,3424,3432,3271,3382,3155,3362,3395,3199
1508404663247206290,122,1508404663246708517,plot_matl,-0.300000011921,-500.0,-0.0476240366697,0.0049317679368,0.25237596035,127.389518738,0.349065840244,0.0917647331953,-0.011347156018,-0.0476198717952,0.00156154285651,0.00156154285651,0.00105302769225,-0.00492050126195,-19.8846111298,-19.8846111298,-50.9268341064,-128.223464966,2013,2044,2129,2035,2035,2865,3369,3378,3202,3317,3046,2967,3072,3067,3172,2820,3363,3363,3185,3271,2911,3288,3317,3039,0.0100514,1.220059041,1.2262708,0.453785598278,4500.0,0.440830588341,0.00294509762898,-0.0129550211132,58.2975959778,0.0,6000.0,-0.0113707985729,-0.0118965655565,-0.0113707985729,71.8552780151,0.349065840244,0.0265011657029,-0.0037467898801,0.306789875031,-0.00130629481282,-0.00130629481282,-0.00155294302385,-0.0104373581707,109.378219604,109.378219604,-0.197288691998,61.3287239075,2024,2027,2552,2048,2048,2933,3431,3429,3248,3369,3094,3058,3162,3156,3248,2892,3424,3432,3271,3382,3155,3362,3395,3199
1508404663256796508,123,1508404663256664016,plot_matl,-0.300000011921,-500.0,-0.0476127229631,-0.0050217024982,0.252387285233,125.130691528,0.349065840244,0.0917647331953,-0.011347156018,-0.0476198717952,0.00156154285651,0.00156154285651,0.00105302769225,-0.00492050126195,-19.8846111298,-19.8846111298,-50.9268341064,-128.223464966,2019,2048,2129,2035,2035,2865,3369,3378,3202,3317,3046,2967,3072,3067,3172,2819,3362,3362,3183,3271,2912,3284,3316,3037,0.009952866,1.230013971,1.224202518,0.453785598278,4500.0,0.440830588341,0.00287829642184,-0.0129550211132,58.2975959778,0.0,6000.0,-0.0113572767004,0.00124880147632,-0.0113572767004,67.8186645508,0.349065840244,0.0265011657029,-0.0037467898801,0.306789875031,-0.00130629481282,-0.00130629481282,-0.00155294302385,-0.0104373581707,109.378219604,109.378219604,-0.197288691998,61.3287239075,2025,2028,2552,2048,2048,2933,3431,3429,3248,3369,3094,3058,3162,3156,3248,2890,3420,3429,3269,3378,3153,3362,3394,3197
1508404663266903901,124,1508404663266650216,plot_matl,-0.300000011921,-500.0,-0.0476228147745,-0.00482158223167,0.252377182245,125.021278381,0.349065840244,0.0917647331953,-0.011347156018,-0.0476198717952,0.00156154285651,0.00156154285651,0.00105302769225,-0.00492050126195,-19.8846111298,-19.8846111298,-50.9268341064,-128.223464966,2021,2048,2129,2031,2031,2864,3365,3377,3197,3315,3045,2966,3071,3067,3172,2819,3362,3362,3183,3271,2912,3284,3316,3037,0.009986731,1.240000239,1.238354644,0.453785598278,4500.0,0.439481109381,-0.0238855741918,-0.0143045028672,64.370262146,0.0,6000.0,-0.0113590937108,0.00126332149375,-0.0113590937108,67.7716903687,0.349065840244,0.0265011657029,-0.0037467898801,0.306789875031,-0.00130629481282,-0.00130629481282,-0.00155294302385,-0.0104373581707,109.378219604,109.378219604,-0.197288691998,61.3287239075,2021,2022,2552,2044,2044,2933,3429,3429,3246,3367,3092,3056,3162,3156,3248,2890,3420,3429,3269,3378,3153,3362,3394,3197
1508404663277193680,125,1508404663276704299,plot_matl,-0.300000011921,-500.0,-0.0476310178638,-0.00465218536556,0.252368986607,125.138885498,0.349065840244,0.0917647331953,-0.011347156018,-0.0476198717952,0.00156154285651,0.00156154285651,0.00105302769225,-0.00492050126195,-19.8846111298,-19.8846111298,-50.9268341064,-128.223464966,2020,2046,2129,2031,2031,2864,3365,3377,3197,3315,3045,2966,3071,3066,3170,2817,3358,3361,3185,3269,2910,3284,3315,3037,0.010055117,1.250055154,1.256889625,0.453785598278,4500.0,0.440830588341,0.00383564131334,-0.0129550211132,58.2975959778,0.0,6000.0,-0.0113476356491,0.00103421683889,-0.0113476356491,67.7951583862,0.349065840244,0.0265011657029,-0.0037467898801,0.306789875031,-0.00130629481282,-0.00130629481282,-0.00155294302385,-0.0104373581707,109.378219604,109.378219604,-0.197288691998,61.3287239075,2020,2011,2552,2044,2044,2933,3429,3429,3246,3367,3092,3056,3162,3156,3247,2887,3421,3429,3270,3377,3156,3360,3392,3197
1508404663287021742,126,1508404663286669118,plot_matl,-0.300000011921,-500.0,-0.0476202629507,-0.0048790499568,0.252379745245,124.98034668,0.349065840244,0.0931142121553,-0.0113531081006,-0.0476243272424,0.0155473928899,0.0155473928899,0.00114541477524,0.00497449235991,-19.8541469574,-19.8541469574,-51.0258216858,-127.952896118,2016,2043,2129,2033,2033,2863,3364,3376,3201,3315,3047,2966,3071,3066,3170,2817,3358,3361,3185,3269,2910,3284,3315,3036,0.009964423,1.260019988,1.255517298,0.453785598278,4500.0,0.439481109381,-0.0230721067637,-0.0143045028672,64.370262146,0.0,6000.0,-0.0113498587161,0.00108035258017,-0.0113498587161,67.7639694214,0.349065840244,0.0265011657029,-0.00370390363969,0.306598901749,-0.000972834473941,-0.000972834473941,0.0132321603596,0.0542457140982,109.350570679,109.350570679,0.0344321355224,61.0443611145,2018,2008,2551,2047,2047,2932,3429,3431,3247,3367,3091,3056,3162,3156,3247,2887,3421,3429,3270,3377,3156,3360,3392,3197
1508404663297007572,127,1508404663296654509,plot_matl,-0.300000011921,-500.0,-0.047646638006,-0.00436150375754,0.25235337019,125.137519836,0.349065840244,0.0931142121553,-0.0113531081006,-0.0476243272424,0.0155473928899,0.0155473928899,0.00114541477524,0.00497449235991,-19.8541469574,-19.8541469574,-51.0258216858,-127.952896118,2004,2049,2129,2033,2033,2863,3364,3376,3201,3315,3047,2964,3070,3067,3168,2817,3360,3361,3183,3269,2912,3284,3315,3036,0.009983747,1.270004692,1.267935869,0.453785598278,4500.0,0.440830588341,0.00340511836112,-0.0129550211132,58.2975959778,0.0,6000.0,-0.0113653521985,-0.012027268298,-0.0113653521985,71.7545318604,0.349065840244,0.0265011657029,-0.00370390363969,0.306598901749,-0.000972834473941,-0.000972834473941,0.0132321603596,0.0542457140982,109.350570679,109.350570679,0.0344321355224,61.0443611145,2010,2011,2551,2047,2047,2932,3429,3431,3247,3367,3091,3057,3161,3155,3246,2888,3424,3426,3269,3379,3153,3360,3392,3197
1508404663306909028,128,1508404663306643432,plot_matl,-0.300000011921,-500.0,-0.0476511977613,0.00548867182806,0.252348810434,127.441078186,0.349065840244,0.0931142121553,-0.0113531081006,-0.0476243272424,0.0155473928899,0.0155473928899,0.00114541477524,0.00497449235991,-19.8541469574,-19.8541469574,-51.0258216858,-127.952896118,2008,2048,2129,2035,2035,2863,3366,3378,3198,3315,3047,2964,3070,3067,3168,2817,3360,3361,3183,3269,2912,3286,3314,3036,0.009988617,1.279993455,1.278542976,0.453785598278,4500.0,0.440830588341,0.00326519040391,-0.0129550211132,58.2975959778,0.0,6000.0,-0.011377453804,0.00164938147645,-0.011377453804,67.7884292603,0.349065840244,0.0265011657029,-0.00370390363969,0.306598901749,-0.000972834473941,-0.000972834473941,0.0132321603596,0.0542457140982,109.350570679,109.350570679,0.0344321355224,61.0443611145,2017,2013,2552,2044,2044,2931,3430,3430,3247,3367,3091,3057,3161,3155,3246,2888,3424,3426,3269,3379,3153,3361,3392,3197
1508404663316932981,129,1508404663316643191,plot_matl,-0.300000011921,-500.0,-0.0476532131433,0.0055453623645,0.252346783876,127.529502869,0.349065840244,0.0931142121553,-0.0113531081006,-0.0476243272424,0.0155473928899,0.0155473928899,0.00114541477524,0.00497449235991,-19.8541469574,-19.8541469574,-51.0258216858,-127.952896118,2007,2062,2129,2035,2035,2863,3366,3378,3198,3317,3045,2967,3072,3065,3169,2816,3361,3361,3182,3269,2912,3286,3314,3036,0.009999463,1.2899936,1.289930727,0.453785598278,4500.0,0.440830588341,0.00267235632055,-0.0129550211132,58.2975959778,0.0,6000.0,-0.0113750034943,0.0015813553473,-0.0113750034943,67.7590713501,0.349065840244,0.0265011657029,-0.00370390363969,0.306598901749,-0.000972834473941,-0.000972834473941,0.0132321603596,0.0542457140982,109.350570679,109.350570679,0.0344321355224,61.0443611145,2014,2022,2552,2044,2044,2931,3430,3430,3247,3367,3092,3056,3161,3155,3245,2889,3420,3426,3268,3379,3153,3361,3392,3197
1508404663326924785,130,1508404663326654923,plot_matl,-0.300000011921,-500.0,-0.0476652048528,-0.0039747543633,0.252334803343,125.120033264,0.349065840244,0.0917647331953,-0.0113781448454,-0.0476625151932,0.00167191633955,0.00167191633955,-0.0117791816592,-0.00403162930161,-19.8504657745,-19.8504657745,-51.0114135742,-128.313461304,2006,2043,2130,2035,2035,2862,3365,3378,3198,3317,3045,2967,3072,3065,3169,2816,3361,3361,3182,3270,2910,3285,3315,3038,0.010011074,1.300004776,1.30143962,0.453785598278,4500.0,0.440830588341,0.00264536822215,-0.0129550211132,58.2975959778,0.0,6000.0,-0.0113607821986,0.0012991395779,-0.0113607821986,67.7366256714,0.349065840244,0.0265011657029,-0.00370620796457,0.306521803141,-0.000855870486703,-0.000855870486703,0.0133824907243,-0.00632320158184,109.09752655,109.09752655,0.323539108038,60.9951477051,2016,2018,2552,2047,2047,2932,3429,3430,3247,3367,3092,3056,3161,3155,3245,2889,3420,3426,3268,3377,3152,3358,3394,3197
1508404663336872392,131,1508404663336631651,plot_matl,-0.300000011921,-500.0,-0.0476557686925,0.00560174556449,0.252344220877,127.595024109,0.349065840244,0.0917647331953,-0.0113781448454,-0.0476625151932,0.00167191633955,0.00167191633955,-0.0117791816592,-0.00403162930161,-19.8504657745,-19.8504657745,-51.0114135742,-128.313461304,1996,2050,2130,2035,2035,2862,3365,3376,3201,3318,3044,2965,3070,3064,3170,2818,3359,3361,3182,3270,2910,3285,3315,3038,0.009975742,1.309981098,1.306822202,0.453785598278,4500.0,0.440830588341,0.00314432638697,-0.0129550211132,58.2975959778,0.0,6000.0,-0.0113860098645,0.0018169793766,-0.0113860098645,67.7346801758,0.349065840244,0.0265011657029,-0.00370620796457,0.306521803141,-0.000855870486703,-0.000855870486703,0.0133824907243,-0.00632320158184,109.09752655,109.09752655,0.323539108038,60.9951477051,2010,2021,2552,2047,2047,2932,3429,3428,3248,3367,3094,3057,3161,3156,3248,2889,3420,3426,3268,3377,3152,3358,3394,3197
1508404663346908848,132,1508404663346650424,plot_matl,-0.300000011921,-500.0,-0.047639362514,0.00525942258537,0.252360641956,127.449790955,0.349065840244,0.0917647331953,-0.0113781448454,-0.0476625151932,0.00167191633955,0.00167191633955,-0.0117791816592,-0.00403162930161,-19.8504657745,-19.8504657745,-51.0114135742,-128.313461304,2010,2049,2130,2035,2035,2862,3365,3376,3201,3318,3044,2965,3070,3064,3170,2818,3359,3363,3183,3270,2910,3285,3315,3036,0.010021239,1.320001228,1.322803548,0.453785598278,4500.0,0.440830588341,0.00305685843341,-0.0129550211132,58.2975959778,0.0,6000.0,-0.0113819958642,0.00172309321351,-0.0113819958642,67.7650375366,0.349065840244,0.0265011657029,-0.00370620796457,0.306521803141,-0.000855870486703,-0.000855870486703,0.0133824907243,-0.00632320158184,109.09752655,109.09752655,0.323539108038,60.9951477051,2028,2030,2552,2045,2045,2932,3429,3428,3248,3367,3094,3057,3161,3156,3248,2889,3420,3427,3270,3376,3153,3359,3392,3197
1508404663356938000,133,1508404663356662169,plot_matl,-0.300000011921,-500.0,-0.0476363301277,0.00519251590595,0.252363681793,127.422691345,0.349065840244,0.0917647331953,-0.0113781448454,-0.0476625151932,0.00167191633955,0.00167191633955,-0.0117791816592,-0.00403162930161,-19.8504657745,-19.8504657745,-51.0114135742,-128.313461304,2005,2053,2130,2035,2035,2862,3364,3375,3198,3316,3044,2964,3071,3065,3171,2818,3359,3363,3183,3270,2910,3285,3315,3036,0.010011991,1.330013174,1.331594803,0.453785598278,4500.0,0.440830588341,0.00398204289377,-0.0129550211132,58.2975959778,0.0,6000.0,-0.0113785788417,0.00165747851133,-0.0113785788417,67.7710037231,0.349065840244,0.0265011657029,-0.00370620796457,0.306521803141,-0.000855870486703,-0.000855870486703,0.0133824907243,-0.00632320158184,109.09752655,109.09752655,0.323539108038,60.9951477051,2028,2029,2552,2045,2045,2931,3430,3429,3248,3365,3094,3055,3159,3156,3246,2889,3420,3427,3270,3376,3153,3359,3392,3197
1508404663367058883,134,1508404663366684208,plot_matl,-0.300000011921,-500.0,-0.0476363301277,0.00519251590595,0.252363681793,127.422691345,0.349065840244,0.0904152542353,-0.0113836666569,-0.047632496804,-0.0115119274706,-0.0115119274706,0.00175947695971,0.00511249573901,-20.0238056183,-20.0238056183,-50.9360847473,-128.671157837,2005,2053,2130,2035,2035,2862,3364,3375,3198,3316,3044,2964,3071,3065,3171,2818,3359,3363,3183,3270,2910,3285,3315,3036,0.01002261,1.340035604,1.34302974,0.453785598278,4500.0,0.440830588341,0.00398204289377,-0.0129550211132,58.2975959778,0.0,6000.0,-0.0113785788417,0.00165747851133,-0.0113785788417,67.7710037231,0.349065840244,0.0289103612304,-0.00368310301565,0.306715011597,0.0230851694942,0.0230851694942,-0.00233931373805,-0.0102250128984,109.238555908,109.238555908,0.0327163599432,61.0735626221,2028,2029,2552,2045,2045,2931,3430,3429,3248,3365,3094,3055,3159,3156,3246,2889,3420,3427,3270,3376,3153,3359,3392,3197
1508404663377115184,135,1508404663376657392,plot_matl,-0.300000011921,-500.0,-0.0476558096707,0.00563196418807,0.252344191074,127.484443665,0.349065840244,0.0917647331953,-0.0113924443722,-0.0476558096707,0.00182103412226,0.00182103412226,0.00189126387704,0.00563196418807,-20.0791625977,-20.0791625977,-50.6159439087,-128.340606689,2011,2059,2130,2035,2035,2862,3364,3375,3198,3316,3044,2964,3071,3065,3171,2817,3358,3362,3184,3269,2911,3286,3316,3035,0.009971013,1.350008236,1.346086755,0.453785598278,4500.0,0.440830588341,0.00364206824452,-0.0129550211132,58.2975959778,0.0,6000.0,-0.0113924443722,0.00189126387704,-0.0113924443722,67.7802505493,0.349065840244,0.0289103612304,-0.00370994326659,0.306645780802,0.022575924173,0.022575924173,-0.00178747740574,-0.0123178903013,109.236351013,109.236351013,0.479124188423,60.6229286194,2030,2028,2552,2045,2045,2931,3430,3429,3248,3365,3094,3055,3159,3156,3246,2889,3424,3426,3270,3376,3153,3360,3394,3198
1508404663386918246,136,1508404663386691302,plot_matl,-0.300000011921,-500.0,-0.0476756356657,-0.00373898865655,0.25232437253,125.23513031,0.349065840244,0.0917647331953,-0.0113924443722,-0.0476558096707,0.00182103412226,0.00182103412226,0.00189126387704,0.00563196418807,-20.0791625977,-20.0791625977,-50.6159439087,-128.340606689,2027,2049,2130,2038,2038,2879,3379,3389,3212,3326,3054,2974,3077,3065,3171,2817,3358,3362,3184,3269,2911,3286,3316,3035,0.010033375,1.360041851,1.364539,0.453785598278,4500.0,0.440830588341,0.00196220213547,-0.0129550211132,58.2975959778,0.0,6000.0,-0.0113998083398,0.00203053141013,-0.0113998083398,67.7583312988,0.349065840244,0.0289103612304,-0.00370994326659,0.306645780802,0.022575924173,0.022575924173,-0.00178747740574,-0.0123178903013,109.236351013,109.236351013,0.479124188423,60.6229286194,2034,2022,2552,2046,2046,2945,3443,3443,3257,3378,3100,3063,3168,3156,3246,2889,3424,3426,3270,3376,3153,3360,3394,3198
1508404663397223944,137,1508404663396702035,plot_matl,-0.300000011921,-500.0,-0.0476923212409,-0.00341433077119,0.252307683229,125.328475952,0.349065840244,0.0917647331953,-0.0113924443722,-0.0476558096707,0.00182103412226,0.00182103412226,0.00189126387704,0.00563196418807,-20.0791625977,-20.0791625977,-50.6159439087,-128.340606689,2030,2056,2130,2038,2038,2879,3379,3389,3212,3326,3054,2974,3077,3071,3176,2823,3365,3366,3188,3275,2915,3289,3315,3035,0.010011129,1.370052499,1.371524673,0.453785598278,4500.0,0.440830588341,0.00402271188796,-0.0129550211132,58.2975959778,0.0,6000.0,-0.0113935740665,0.00191126787104,-0.0113935740665,67.77318573,0.349065840244,0.0289103612304,-0.00370994326659,0.306645780802,0.022575924173,0.022575924173,-0.00178747740574,-0.0123178903013,109.236351013,109.236351013,0.479124188423,60.6229286194,2034,2034,2552,2046,2046,2945,3443,3443,3257,3378,3100,3063,3168,3161,3250,2892,3426,3432,3271,3381,3158,3364,3396,3198
1508404663407037605,138,1508404663406704575,plot_matl,-0.300000011921,-500.0,-0.0476956404746,0.00641080690548,0.252304345369,127.711250305,0.349065840244,0.0917647331953,-0.0113924443722,-0.0476558096707,0.00182103412226,0.00182103412226,0.00189126387704,0.00563196418807,-20.0791625977,-20.0791625977,-50.6159439087,-128.340606689,2023,2060,2129,2039,2039,2865,3368,3377,3201,3320,3046,2974,3077,3071,3176,2823,3365,3366,3188,3275,2915,3289,3315,3041,0.010001267,1.38005527,1.380174846,0.453785598278,4500.0,0.440830588341,0.00421900395304,-0.0129550211132,58.2975959778,0.0,6000.0,-0.0113884387538,0.00181126990356,-0.0113884387538,67.7591247559,0.349065840244,0.0289103612304,-0.00370994326659,0.306645780802,0.022575924173,0.022575924173,-0.00178747740574,-0.0123178903013,109.236351013,109.236351013,0.479124188423,60.6229286194,2030,2035,2552,2046,2046,2933,3430,3430,3249,3370,3094,3063,3168,3161,3250,2892,3426,3432,3271,3381,3158,3364,3396,3199
1508404663417118252,139,1508404663416725582,plot_matl,-0.300000011921,-500.0,-0.0477003492415,-0.00326237152331,0.252299636602,125.367919922,0.349065840244,0.0917647331953,-0.0113884387538,-0.0476956404746,0.00210950197652,0.00210950197652,0.00181126990356,0.00641080690548,-20.0634307861,-20.0634307861,-50.8834114075,-128.886230469,2005,2068,2129,2039,2039,2865,3368,3377,3201,3320,3046,2964,3071,3066,3171,2816,3360,3361,3186,3270,2912,3289,3315,3041,0.010021207,1.39007611,1.392947773,0.453785598278,4500.0,0.440830588341,0.00494600087404,-0.0129550211132,58.2975959778,0.0,6000.0,-0.0113841975108,0.00173659867141,-0.0113841975108,67.7766265869,0.349065840244,0.0265011657029,-0.00368911214173,0.306544661522,0.000165078206919,0.000165078206919,0.0131525062025,-0.00884457305074,109.007949829,109.007949829,0.247199326754,60.8343315125,2020,2034,2552,2046,2046,2933,3430,3430,3249,3370,3094,3058,3161,3156,3247,2889,3424,3430,3269,3377,3155,3364,3396,3199
1508404663427036415,140,1508404663426657240,plot_matl,-0.300000011921,-500.0,-0.0477134697139,-0.00301834638231,0.252286523581,125.411758423,0.349065840244,0.0917647331953,-0.0113884387538,-0.0476956404746,0.00210950197652,0.00210950197652,0.00181126990356,0.00641080690548,-20.0634307861,-20.0634307861,-50.8834114075,-128.886230469,2005,2060,2130,2038,2038,2862,3365,3377,3201,3320,3046,2964,3071,3066,3171,2816,3360,3361,3186,3270,2912,3287,3314,3036,0.009929945,1.400007549,1.3901923,0.453785598278,4500.0,0.440830588341,0.00450718635693,-0.0129550211132,58.2975959778,0.0,6000.0,-0.0113681824878,0.00142158335075,-0.0113681824878,67.7689285278,0.349065840244,0.0265011657029,-0.00368911214173,0.306544661522,0.000165078206919,0.000165078206919,0.0131525062025,-0.00884457305074,109.007949829,109.007949829,0.247199326754,60.8343315125,2012,2025,2553,2044,2044,2933,3429,3431,3248,3370,3094,3058,3161,3156,3247,2889,3424,3430,3269,3377,3155,3362,3394,3197
1508404663436892984,141,1508404663436669727,plot_matl,-0.300000011921,-500.0,-0.0476979874074,-0.00334499403834,0.252302020788,125.369972229,0.349065840244,0.0917647331953,-0.0113884387538,-0.0476956404746,0.00210950197652,0.00210950197652,0.00181126990356,0.00641080690548,-20.0634307861,-20.0634307861,-50.8834114075,-128.886230469,2014,2065,2130,2038,2038,2862,3365,3377,3201,3316,3046,2966,3072,3066,3170,2818,3361,3360,3184,3270,2912,3287,3314,3036,0.010011004,1.410019384,1.411551564,0.453785598278,4500.0,0.440830588341,0.00321552786045,-0.0129550211132,58.2975959778,0.0,6000.0,-0.0113652674481,0.00137732096482,-0.0113652674481,67.7827529907,0.349065840244,0.0265011657029,-0.00368911214173,0.306544661522,0.000165078206919,0.000165078206919,0.0131525062025,-0.00884457305074,109.007949829,109.007949829,0.247199326754,60.8343315125,2021,2034,2553,2044,2044,2933,3429,3431,3248,3367,3092,3056,3161,3156,3246,2890,3422,3429,3269,3377,3155,3362,3394,3197
1508404663447021389,142,1508404663446679213,plot_matl,-0.300000011921,-500.0,-0.0476919226348,-0.00346225965768,0.25230807066,125.304908752,0.349065840244,0.0917647331953,-0.0113884387538,-0.0476956404746,0.00210950197652,0.00210950197652,0.00181126990356,0.00641080690548,-20.0634307861,-20.0634307861,-50.8834114075,-128.886230469,2022,2056,2130,2036,2036,2865,3364,3377,3201,3316,3046,2966,3072,3066,3170,2818,3361,3360,3184,3270,2912,3285,3314,3036,0.010010966,1.420029892,1.421557172,0.453785598278,4500.0,0.440830588341,0.00313101173379,-0.0129550211132,58.2975959778,0.0,6000.0,-0.0113779231906,0.00164600159042,-0.0113779231906,67.7605056763,0.349065840244,0.0265011657029,-0.00368911214173,0.306544661522,0.000165078206919,0.000165078206919,0.0131525062025,-0.00884457305074,109.007949829,109.007949829,0.247199326754,60.8343315125,2028,2030,2552,2045,2045,2931,3429,3431,3248,3367,3092,3056,3161,3156,3246,2890,3422,3429,3269,3380,3152,3361,3393,3198
1508404663457073676,143,1508404663456652496,plot_matl,-0.300000011921,-500.0,-0.0477230995893,-0.00283352378756,0.25227689743,125.451728821,0.349065840244,0.0917647331953,-0.0113779231906,-0.0476919226348,0.00156550586689,0.00156550586689,0.00164600159042,-0.00346225965768,-19.8945064545,-19.8945064545,-50.8421897888,-129.057220459,2019,2051,2130,2036,2036,2865,3364,3378,3199,3319,3044,2964,3071,3067,3170,2818,3360,3360,3184,3270,2912,3285,3314,3036,0.009971885,1.430002775,1.425979555,0.453785598278,4500.0,0.439481109381,-0.0246059093624,-0.0143045028672,64.370262146,0.0,6000.0,-0.0113752866164,0.00159407907631,-0.0113752866164,67.7667770386,0.349065840244,0.0289103612304,-0.00367531576194,0.30624049902,0.0209287144244,0.0209287144244,0.0128870783374,-0.00171356392093,109.316833496,109.316833496,-0.339411556721,61.0310134888,2026,2022,2552,2045,2045,2931,3429,3430,3248,3367,3092,3057,3162,3155,3246,2889,3421,3429,3269,3380,3152,3361,3393,3198
1508404663467003591,144,1508404663466660393,plot_matl,-0.300000011921,-500.0,-0.0477143339813,-0.00301112374291,0.252285659313,125.457862854,0.349065840244,0.0917647331953,-0.0113779231906,-0.0476919226348,0.00156550586689,0.00156550586689,0.00164600159042,-0.00346225965768,-19.8945064545,-19.8945064545,-50.8421897888,-129.057220459,2035,2076,2130,2035,2035,2865,3364,3378,3199,3319,3044,2964,3071,3067,3170,2818,3360,3361,3185,3269,2912,3284,3315,3035,0.010007661,1.440010647,1.441103184,0.453785598278,4500.0,0.439481109381,-0.0245722196996,-0.0143045028672,64.370262146,0.0,6000.0,-0.0113839171827,0.00176535814535,-0.0113839171827,67.7986984253,0.349065840244,0.0289103612304,-0.00367531576194,0.30624049902,0.0209287144244,0.0209287144244,0.0128870783374,-0.00171356392093,109.316833496,109.316833496,-0.339411556721,61.0310134888,2032,2033,2553,2048,2048,2931,3429,3430,3248,3367,3092,3057,3162,3155,3246,2889,3421,3429,3267,3379,3154,3359,3392,3196
1508404663477060479,145,1508404663476655987,plot_matl,-0.300000011921,-500.0,-0.0477236546576,0.00694453483447,0.252276331186,127.830451965,0.349065840244,0.0917647331953,-0.0113779231906,-0.0476919226348,0.00156550586689,0.00156550586689,0.00164600159042,-0.00346225965768,-19.8945064545,-19.8945064545,-50.8421897888,-129.057220459,2029,2060,2130,2035,2035,2863,3362,3375,3198,3317,3044,2965,3073,3065,3169,2818,3360,3361,3185,3269,2912,3284,3315,3035,0.009994922,1.450006225,1.44926369,0.453785598278,4500.0,0.440830588341,0.00169835903216,-0.0129550211132,58.2975959778,0.0,6000.0,-0.0113678323105,0.00144269550219,-0.0113678323105,67.7641296387,0.349065840244,0.0289103612304,-0.00367531576194,0.30624049902,0.0209287144244,0.0209287144244,0.0128870783374,-0.00171356392093,109.316833496,109.316833496,-0.339411556721,61.0310134888,2027,2027,2553,2048,2048,2932,3429,3428,3247,3368,3092,3058,3162,3156,3247,2889,3421,3429,3267,3379,3154,3359,3392,3196
1508404663487095142,146,1508404663486661789,plot_matl,-0.300000011921,-500.0,-0.0477217212319,-0.00283719808795,0.252278268337,125.431259155,0.349065840244,0.0917647331953,-0.0113779231906,-0.0476919226348,0.00156550586689,0.00156550586689,0.00164600159042,-0.00346225965768,-19.8945064545,-19.8945064545,-50.8421897888,-129.057220459,2017,2062,2131,2035,2035,2863,3362,3375,3198,3317,3044,2965,3073,3065,3169,2817,3358,3361,3183,3269,2911,3283,3315,3036,0.010006744,1.460012529,1.460984624,0.453785598278,4500.0,0.440830588341,0.00134873355273,-0.0129550211132,58.2975959778,0.0,6000.0,-0.0113662658259,0.00142523052637,-0.0113662658259,67.7588272095,0.349065840244,0.0289103612304,-0.00367531576194,0.30624049902,0.0209287144244,0.0209287144244,0.0128870783374,-0.00171356392093,109.316833496,109.316833496,-0.339411556721,61.0310134888,2024,2030,2552,2048,2048,2932,3429,3428,3247,3368,3092,3058,3162,3156,3247,2888,3421,3426,3269,3379,3153,3359,3395,3199
1508404663497050815,147,1508404663496694205,plot_matl,-0.300000011921,-500.0,-0.0477205403149,-0.00286262668669,0.25227946043,125.465057373,0.349065840244,0.0917647331953,-0.0113662658259,-0.0477217212319,0.000674366776366,0.000674366776366,0.00142523052637,-0.00283719808795,-19.9460735321,-19.9460735321,-50.7964019775,-129.161422729,2029,2059,2131,2036,2036,2862,3364,3375,3199,3317,3042,2965,3073,3065,3169,2817,3358,3361,3183,3269,2911,3283,3315,3036,0.010030688,1.470044279,1.474511136,0.453785598278,4500.0,0.439481109381,-0.0251773390919,-0.0143045028672,64.370262146,0.0,6000.0,-0.0113777173683,-0.011760299094,-0.0113777173683,71.7011413574,0.349065840244,0.0240919683129,-0.0036629664246,0.306274682283,-0.0280835330486,-0.0280835330486,-0.0027134642005,-0.00182623614091,109.594795227,109.594795227,-0.0150546124205,61.0802497864,2038,2032,2552,2048,2048,2932,3429,3431,3247,3368,3093,3056,3161,3156,3247,2888,3421,3426,3269,3379,3153,3359,3395,3199
1508404663507083265,148,1508404663506687626,plot_matl,-0.300000011921,-500.0,-0.0477203987539,-0.0028629489243,0.252279609442,125.444061279,0.349065840244,0.0917647331953,-0.0113662658259,-0.0477217212319,0.000674366776366,0.000674366776366,0.00142523052637,-0.00283719808795,-19.9460735321,-19.9460735321,-50.7964019775,-129.161422729,2016,2063,2131,2036,2036,2862,3364,3375,3199,3317,3042,2965,3073,3066,3169,2815,3359,3361,3181,3268,2912,3286,3316,3036,0.009993147,1.480037799,1.478985756,0.453785598278,4500.0,0.440830588341,0.001740637701,-0.0129550211132,58.2975959778,0.0,6000.0,-0.0113629056141,0.00136075005867,-0.0113629056141,67.7705764771,0.349065840244,0.0240919683129,-0.0036629664246,0.306274682283,-0.0280835330486,-0.0280835330486,-0.0027134642005,-0.00182623614091,109.594795227,109.594795227,-0.0150546124205,61.0802497864,2022,2031,2552,2048,2048,2932,3429,3431,3247,3368,3093,3056,3161,3155,3244,2889,3423,3428,3269,3378,3152,3359,3392,3199
1508404663517005277,149,1508404663516672811,plot_matl,-0.300000011921,-500.0,-0.047728728503,-0.00270344945602,0.252271264791,125.43813324,0.349065840244,0.0917647331953,-0.0113662658259,-0.0477217212319,0.000674366776366,0.000674366776366,0.00142523052637,-0.00283719808795,-19.9460735321,-19.9460735321,-50.7964019775,-129.161422729,2010,2054,2130,2035,2035,2862,3365,3374,3201,3316,3042,2965,3073,3066,3169,2815,3359,3361,3181,3268,2912,3286,3316,3037,0.009986428,1.490023976,1.487977772,0.453785598278,4500.0,0.442180067301,0.0286100599915,-0.0116055402905,52.2249298096,0.0,6000.0,-0.0113634439185,0.00135748682078,-0.0113634439185,67.7441101074,0.349065840244,0.0240919683129,-0.0036629664246,0.306274682283,-0.0280835330486,-0.0280835330486,-0.0027134642005,-0.00182623614091,109.594795227,109.594795227,-0.0150546124205,61.0802497864,2016,2027,2551,2046,2046,2932,3427,3429,3247,3367,3092,3056,3161,3155,3244,2889,3423,3428,3269,3378,3152,3359,3392,3195
1508404663526980282,150,1508404663526667001,plot_matl,-0.300000011921,-500.0,-0.0477271191776,-0.00274269306101,0.252272874117,125.409873962,0.349065840244,0.0917647331953,-0.0113662658259,-0.0477217212319,0.000674366776366,0.000674366776366,0.00142523052637,-0.00283719808795,-19.9460735321,-19.9460735321,-50.7964019775,-129.161422729,2014,2066,2130,2035,2035,2862,3365,3374,3201,3316,3042,2965,3071,3067,3170,2818,3360,3364,3184,3270,2912,3286,3316,3037,0.009992559,1.500017277,1.49888385,0.453785598278,4500.0,0.440830588341,0.00155719544273,-0.0129550211132,58.2975959778,0.0,6000.0,-0.0113512026146,0.00111141649541,-0.0113512026146,67.7392883301,0.349065840244,0.0240919683129,-0.0036629664246,0.306274682283,-0.0280835330486,-0.0280835330486,-0.0027134642005,-0.00182623614091,109.594795227,109.594795227,-0.0150546124205,61.0802497864,2023,2030,2551,2046,2046,2932,3427,3429,3247,3367,3092,3055,3162,3155,3247,2887,3420,3426,3269,3377,3152,3359,3392,3195
1508404663537094038,151,1508404663536653184,plot_matl,-0.300000011921,-500.0,-0.0477255992591,0.00698605598882,0.252274394035,127.725753784,0.349065840244,0.0917647331953,-0.0113512026146,-0.0477271191776,0.000778597721364,0.000778597721364,0.00111141649541,-0.00274269306101,-19.8319225311,-19.8319225311,-50.9033317566,-129.081359863,2011,2055,2130,2034,2034,2862,3365,3375,3197,3316,3042,2965,3071,3067,3170,2818,3360,3364,3184,3270,2912,3286,3314,3039,0.00998595,1.510003673,1.50787845,0.453785598278,4500.0,0.440830588341,0.00127676129341,-0.0129550211132,58.2975959778,0.0,6000.0,-0.0113527672365,0.00114503491204,-0.0113527672365,67.7898178101,0.349065840244,0.0265011657029,-0.00369431520812,0.306364953518,-0.00292088813148,-0.00292088813148,-0.0021105024498,-0.00350931356661,109.374839783,109.374839783,-0.606945693493,61.1294403076,2018,2026,2552,2045,2045,2930,3430,3431,3248,3367,3092,3055,3162,3155,3247,2887,3420,3426,3269,3377,3152,3357,3394,3198
1508404663547151568,152,1508404663546667791,plot_matl,-0.300000011921,-500.0,-0.0477057993412,0.00658105080947,0.25229421258,127.595626831,0.349065840244,0.0917647331953,-0.0113512026146,-0.0477271191776,0.000778597721364,0.000778597721364,0.00111141649541,-0.00274269306101,-19.8319225311,-19.8319225311,-50.9033317566,-129.081359863,2002,2049,2130,2034,2034,2862,3365,3375,3197,3316,3044,2966,3070,3067,3169,2817,3360,3362,3183,3270,2912,3286,3314,3039,0.010014873,1.520018471,1.522260696,0.453785598278,4500.0,0.440830588341,0.00198865076527,-0.0129550211132,58.2975959778,0.0,6000.0,-0.0113538624719,0.0011780950008,-0.0113538624719,67.8009872437,0.349065840244,0.0265011657029,-0.00369431520812,0.306364953518,-0.00292088813148,-0.00292088813148,-0.0021105024498,-0.00350931356661,109.374839783,109.374839783,-0.606945693493,61.1294403076,2018,2024,2552,2045,2045,2930,3430,3431,3248,3367,3091,3054,3161,3154,3244,2888,3421,3427,3269,3377,3152,3357,3394,3198
1508404663557053855,153,1508404663556653944,plot_matl,-0.300000011921,-500.0,-0.0476982779801,0.00643856823444,0.252301722765,127.693611145,0.349065840244,0.0917647331953,-0.0113512026146,-0.0477271191776,0.000778597721364,0.000778597721364,0.00111141649541,-0.00274269306101,-19.8319225311,-19.8319225311,-50.9033317566,-129.081359863,2011,2048,2129,2034,2034,2862,3367,3375,3197,3316,3044,2966,3070,3067,3169,2817,3360,3362,3183,3269,2910,3286,3312,3038,0.009984614,1.530003941,1.527645942,0.453785598278,4500.0,0.440830588341,0.00162621459458,-0.0129550211132,58.2975959778,0.0,6000.0,-0.0113794207573,-0.0117235565558,-0.0113794207573,71.7979507446,0.349065840244,0.0265011657029,-0.00369431520812,0.306364953518,-0.00292088813148,-0.00292088813148,-0.0021105024498,-0.00350931356661,109.374839783,109.374839783,-0.606945693493,61.1294403076,2026,2020,2552,2042,2042,2932,3429,3431,3248,3367,3091,3054,3161,3154,3244,2888,3421,3427,3269,3377,3153,3358,3393,3196
1508404663566938073,154,1508404663566639735,plot_matl,-0.300000011921,-500.0,-0.0476764030755,0.00599924148992,0.25232359767,127.563194275,0.349065840244,0.0917647331953,-0.0113512026146,-0.0477271191776,0.000778597721364,0.000778597721364,0.00111141649541,-0.00274269306101,-19.8319225311,-19.8319225311,-50.9033317566,-129.081359863,2020,2055,2129,2034,2034,2862,3367,3375,3197,3316,3045,2966,3073,3066,3168,2819,3360,3362,3183,3269,2910,3286,3312,3038,0.009984688,1.539989341,1.537641952,0.453785598278,4500.0,0.440830588341,0.0013336497359,-0.0129550211132,58.2975959778,0.0,6000.0,-0.0113643966615,0.00138482369948,-0.0113643966615,67.781463623,0.349065840244,0.0265011657029,-0.00369431520812,0.306364953518,-0.00292088813148,-0.00292088813148,-0.0021105024498,-0.00350931356661,109.374839783,109.374839783,-0.606945693493,61.1294403076,2022,2021,2552,2042,2042,2932,3429,3429,3248,3366,3093,3058,3160,3154,3246,2888,3421,3427,3269,3377,3153,3358,3393,3196
1508404663576975665,155,1508404663576666269,plot_matl,-0.300000011921,-500.0,-0.0476851388812,-0.00359587068669,0.252314865589,125.351593018,0.349065840244,0.0917647331953,-0.0113643966615,-0.0476764030755,0.000666824867949,0.000666824867949,0.00138482369948,0.00599924148992,-19.7801551819,-19.7801551819,-50.7234382629,-129.36114502,2024,2061,2129,2033,2033,2862,3367,3375,3197,3316,3045,2966,3073,3066,3168,2819,3360,3361,3183,3269,2911,3285,3314,3038,0.010027794,1.550016688,1.55430807,0.453785598278,4500.0,0.440830588341,0.00109115592204,-0.0129550211132,58.2975959778,0.0,6000.0,-0.0113638080657,0.00137058098335,-0.0113638080657,67.7996292114,0.349065840244,0.0265011657029,-0.00368449511006,0.306740790606,-0.00328788021579,-0.00328788021579,-0.00229285540991,0.0509085766971,109.445457458,109.445457458,-0.750163853168,61.1100578308,2022,2022,2552,2042,2042,2932,3429,3429,3248,3366,3093,3058,3160,3154,3246,2888,3421,3426,3269,3377,3153,3358,3393,3197
1508404663587094558,156,1508404663586680761,plot_matl,-0.300000011921,-500.0,-0.0476384460926,0.00523005891591,0.252361565828,127.344482422,0.349065840244,0.0917647331953,-0.0113643966615,-0.0476764030755,0.000666824867949,0.000666824867949,0.00138482369948,0.00599924148992,-19.7801551819,-19.7801551819,-50.7234382629,-129.36114502,2015,2066,2129,2033,2033,2863,3363,3375,3199,3317,3044,2965,3071,3066,3169,2819,3360,3361,3183,3269,2911,3285,3314,3038,0.010012277,1.560030333,1.561915212,0.453785598278,4500.0,0.440830588341,0.00142402376514,-0.0129550211132,58.2975959778,0.0,6000.0,-0.0113631505519,0.00136659480631,-0.0113631505519,67.8002700806,0.349065840244,0.0265011657029,-0.00368449511006,0.306740790606,-0.00328788021579,-0.00328788021579,-0.00229285540991,0.0509085766971,109.445457458,109.445457458,-0.750163853168,61.1100578308,2024,2031,2552,2042,2042,2931,3430,3430,3246,3367,3092,3057,3161,3156,3246,2888,3421,3426,3269,3377,3153,3358,3393,3197
1508404663597046842,157,1508404663596667877,plot_matl,-0.300000011921,-500.0,-0.0476384460926,0.00523005891591,0.252361565828,127.344482422,0.349065840244,0.0917647331953,-0.0113643966615,-0.0476764030755,0.000666824867949,0.000666824867949,0.00138482369948,0.00599924148992,-19.7801551819,-19.7801551819,-50.7234382629,-129.36114502,2021,2074,2129,2033,2033,2863,3363,3375,3199,3317,3044,2965,3071,3066,3169,2818,3359,3360,3184,3269,2911,3283,3315,3036,0.009987968,1.570017996,1.568110976,0.453785598278,4500.0,0.440830588341,0.00142402376514,-0.0129550211132,58.2975959778,0.0,6000.0,-0.0113631505519,0.00136659480631,-0.0113631505519,67.8002700806,0.349065840244,0.0265011657029,-0.00368449511006,0.306740790606,-0.00328788021579,-0.00328788021579,-0.00229285540991,0.0509085766971,109.445457458,109.445457458,-0.750163853168,61.1100578308,2026,2036,2553,2042,2042,2931,3430,3430,3246,3367,3092,3057,3161,3156,3246,2888,3421,3426,3267,3380,3154,3360,3393,3196
1508404663606827492,158,1508404663606635460,plot_matl,-0.300000011921,-500.0,-0.0476273037493,-0.0146102299914,0.252372682095,121.164245605,0.349065840244,0.0917647331953,-0.0113643966615,-0.0476764030755,0.000666824867949,0.000666824867949,0.00138482369948,0.00599924148992,-19.7801551819,-19.7801551819,-50.7234382629,-129.36114502,2002,2048,2129,2032,2032,2862,3377,3384,3208,3322,3050,2970,3075,3066,3169,2818,3359,3360,3184,3269,2911,3283,3315,3036,0.009966642,1.579985158,1.574729436,0.453785598278,4500.0,0.442180067301,0.0282243918628,-0.0116055402905,52.2249298096,0.0,6000.0,-0.0114287277684,-0.0111280595884,-0.0114287277684,73.2092895508,0.349065840244,0.0265011657029,-0.00368449511006,0.306740790606,-0.00328788021579,-0.00328788021579,-0.00229285540991,0.0509085766971,109.445457458,109.445457458,-0.750163853168,61.1100578308,2023,2023,2553,2041,2041,2931,3438,3437,3254,3376,3098,3060,3167,3156,3246,2888,3421,3426,3267,3380,3154,3360,3393,3196
1508404663616783727,159,1508404663616630402,plot_matl,-0.300000011921,-500.0,-0.0476499311626,-0.00433261087164,0.252350062132,125.100242615,0.349065840244,0.0904152542353,-0.0114269377664,-0.0476360693574,-0.0128326816484,-0.0128326816484,0.00227916007861,-0.00464432267472,-19.8449840546,-19.8449840546,-50.8595619202,-129.31539917,2015,2055,2129,2032,2032,2862,3377,3384,3208,3322,3050,2970,3075,3070,3173,2821,3365,3363,3187,3272,2914,3287,3317,3036,0.009994614,1.589980073,1.589143626,0.453785598278,4500.0,0.442180067301,0.0282243918628,-0.0116055402905,52.2249298096,0.0,6000.0,-0.0114083904773,0.00199377024546,-0.0114083904773,67.7431182861,0.349065840244,0.0240919683129,-0.00365363340825,0.306436419487,-0.0255131162703,-0.0255131162703,0.0127729671076,-0.00668255938217,109.221138,109.221138,-0.916116476059,61.1912384033,2029,2035,2553,2041,2041,2931,3438,3437,3254,3376,3098,3060,3167,3161,3249,2893,3424,3433,3271,3382,3154,3362,3396,3196
1508404663626731905,160,1508404663626627292,plot_matl,-0.300000011921,-500.0,-0.0476616807282,0.00567252887413,0.252338320017,127.55909729,0.349065840244,0.0904152542353,-0.0114269377664,-0.0476360693574,-0.0128326816484,-0.0128326816484,0.00227916007861,-0.00464432267472,-19.8449840546,-19.8449840546,-50.8595619202,-129.31539917,2030,2070,2129,2035,2035,2864,3365,3375,3200,3317,3046,2970,3075,3070,3173,2821,3365,3363,3187,3272,2914,3287,3317,3040,0.009995882,1.599976444,1.59934112,0.453785598278,4500.0,0.440830588341,0.00233672768809,-0.0129550211132,58.2975959778,0.0,6000.0,-0.0113879777491,0.00163194106426,-0.0113879777491,67.7597427368,0.349065840244,0.0240919683129,-0.00365363340825,0.306436419487,-0.0255131162703,-0.0255131162703,0.0127729671076,-0.00668255938217,109.221138,109.221138,-0.916116476059,61.1912384033,2036,2038,2551,2044,2044,2931,3431,3429,3250,3367,3093,3060,3167,3161,3249,2893,3424,3433,3271,3382,3154,3362,3396,3199
1508404663636798980,161,1508404663636636453,plot_matl,-0.300000011921,-500.0,-0.0476888306439,0.00622443901375,0.252311170101,127.582984924,0.349065840244,0.0904152542353,-0.0114269377664,-0.0476360693574,-0.0128326816484,-0.0128326816484,0.00227916007861,-0.00464432267472,-19.8449840546,-19.8449840546,-50.8595619202,-129.31539917,2024,2060,2129,2035,2035,2864,3365,3375,3200,3317,3046,2965,3074,3066,3170,2818,3360,3361,3184,3272,2911,3287,3317,3040,0.010009583,1.609985912,1.611542863,0.453785598278,4500.0,0.440830588341,0.00290148379281,-0.0129550211132,58.2975959778,0.0,6000.0,-0.0113849155605,0.00159915967379,-0.0113849155605,67.7950668335,0.349065840244,0.0240919683129,-0.00365363340825,0.306436419487,-0.0255131162703,-0.0255131162703,0.0127729671076,-0.00668255938217,109.221138,109.221138,-0.916116476059,61.1912384033,2032,2028,2551,2044,2044,2931,3431,3429,3250,3367,3093,3056,3162,3157,3246,2889,3423,3428,3267,3377,3154,3362,3396,3199
1508404663646870274,162,1508404663646635939,plot_matl,-0.300000011921,-500.0,-0.0476864427328,-0.00359105761163,0.252313554287,125.301239014,0.349065840244,0.0904152542353,-0.0114269377664,-0.0476360693574,-0.0128326816484,-0.0128326816484,0.00227916007861,-0.00464432267472,-19.8449840546,-19.8449840546,-50.8595619202,-129.31539917,2033,2068,2129,2034,2034,2863,3365,3375,3198,3317,3046,2965,3074,3066,3170,2818,3360,3361,3184,3272,2911,3285,3315,3039,0.010000008,1.619985706,1.620001296,0.453785598278,4500.0,0.440830588341,0.00330418045633,-0.0129550211132,58.2975959778,0.0,6000.0,-0.0113849155605,0.00159915967379,-0.0113849155605,67.7950668335,0.349065840244,0.0240919683129,-0.00365363340825,0.306436419487,-0.0255131162703,-0.0255131162703,0.0127729671076,-0.00668255938217,109.221138,109.221138,-0.916116476059,61.1912384033,2037,2036,2552,2045,2045,2932,3431,3428,3249,3367,3093,3056,3162,3157,3246,2889,3423,3428,3267,3377,3154,3361,3392,3199
1508404663657173966,163,1508404663656686005,plot_matl,-0.300000011921,-500.0,-0.047693066299,-0.00347107299604,0.252306938171,125.40927124,0.349065840244,0.0917647331953,-0.0113746523857,-0.047691501677,0.00178865378257,0.00178865378257,0.00141475978307,-0.00348827242851,-19.9358005524,-19.9358005524,-51.3231925964,-129.293884277,2031,2061,2129,2034,2034,2863,3365,3375,3198,3316,3044,2966,3073,3068,3169,2818,3358,3361,3183,3272,2911,3285,3315,3039,0.010051499,1.630036474,1.638394337,0.453785598278,4500.0,0.440830588341,0.00227800384164,-0.0129550211132,58.2975959778,0.0,6000.0,-0.0113772694021,0.00150757713709,-0.0113772694021,67.8198242188,0.349065840244,0.0265011657029,-0.00362067017704,0.306695461273,-0.00133364577778,-0.00133364577778,-0.00342814181931,0.0509676113725,109.306167603,109.306167603,-0.80319583416,61.0158233643,2033,2030,2552,2045,2045,2932,3431,3428,3249,3367,3091,3058,3160,3156,3246,2887,3421,3427,3267,3377,3154,3361,3392,3199
1508404663666968434,164,1508404663666669567,plot_matl,-0.300000011921,-500.0,-0.047693066299,-0.00347107299604,0.252306938171,125.40927124,0.349065840244,0.0917647331953,-0.0113746523857,-0.047691501677,0.00178865378257,0.00178865378257,0.00141475978307,-0.00348827242851,-19.9358005524,-19.9358005524,-51.3231925964,-129.293884277,2031,2061,2129,2034,2034,2863,3365,3375,3198,3316,3044,2966,3073,3068,3169,2818,3358,3361,3183,3272,2911,3285,3315,3039,0.009982409,1.64001977,1.637115076,0.453785598278,4500.0,0.440830588341,0.00227800384164,-0.0129550211132,58.2975959778,0.0,6000.0,-0.0113772694021,0.00150757713709,-0.0113772694021,67.8198242188,0.349065840244,0.0265011657029,-0.00362067017704,0.306695461273,-0.00133364577778,-0.00133364577778,-0.00342814181931,0.0509676113725,109.306167603,109.306167603,-0.80319583416,61.0158233643,2033,2030,2552,2045,2045,2932,3431,3428,3249,3367,3091,3058,3160,3156,3246,2887,3421,3427,3267,3377,3154,3361,3392,3199
1508404663677157520,165,1508404663676689987,plot_matl,-0.300000011921,-500.0,-0.0476803071797,0.00567504158244,0.252319693565,127.616508484,0.349065840244,0.0917647331953,-0.0113746523857,-0.047691501677,0.00178865378257,0.00178865378257,0.00141475978307,-0.00348827242851,-19.9358005524,-19.9358005524,-51.3231925964,-129.293884277,2010,2048,2130,2034,2034,2862,3363,3375,3198,3316,3044,2966,3073,3068,3169,2818,3358,3361,3183,3267,2911,3286,3315,3038,0.010022235,1.650040802,1.653668775,0.453785598278,4500.0,0.440830588341,0.00232705520466,-0.0129550211132,58.2975959778,0.0,6000.0,-0.0113802673295,0.00210135034285,-0.0113802673295,67.7699279785,0.349065840244,0.0265011657029,-0.00362067017704,0.306695461273,-0.00133364577778,-0.00133364577778,-0.00342814181931,0.0509676113725,109.306167603,109.306167603,-0.80319583416,61.0158233643,2016,2021,2551,2046,2046,2931,3429,3428,3249,3367,3091,3058,3160,3156,3246,2887,3421,3427,3267,3378,3155,3360,3393,3196
1508404663686928163,166,1508404663686650950,plot_matl,-0.300000011921,-500.0,-0.0476511418819,0.0051619913429,0.252348870039,127.491134644,0.349065840244,0.0917647331953,-0.0113746523857,-0.047691501677,0.00178865378257,0.00178865378257,0.00141475978307,-0.00348827242851,-19.9358005524,-19.9358005524,-51.3231925964,-129.293884277,2022,2060,2130,2034,2034,2862,3363,3387,3209,3326,3053,2972,3080,3074,3175,2823,3363,3361,3183,3267,2911,3286,3315,3038,0.009958633,1.660001202,1.653133078,0.453785598278,4500.0,0.439481109381,-0.0243319179863,-0.0143045028672,64.370262146,0.0,6000.0,-0.0113774081692,0.00196105451323,-0.0113774081692,67.7695159912,0.349065840244,0.0265011657029,-0.00362067017704,0.306695461273,-0.00133364577778,-0.00133364577778,-0.00342814181931,0.0509676113725,109.306167603,109.306167603,-0.80319583416,61.0158233643,2030,2032,2551,2046,2046,2931,3429,3445,3259,3377,3099,3062,3167,3161,3251,2894,3425,3427,3267,3378,3155,3360,3393,3196
1508404663696850533,167,1508404663696669839,plot_matl,-0.300000011921,-500.0,-0.0476720966399,-0.00412345677614,0.252327889204,125.195289612,0.349065840244,0.0917647331953,-0.0113757802173,-0.0476553849876,0.00143665040378,0.00143665040378,0.00192187749781,-0.00451363623142,-19.9299602509,-19.9299602509,-51.0952262878,-129.605148315,2018,2051,2129,2037,2037,2862,3363,3387,3209,3326,3053,2972,3080,3074,3175,2823,3363,3366,3187,3275,2915,3287,3315,3039,0.010017655,1.670019677,1.672948385,0.453785598278,4500.0,0.440830588341,0.00345390266739,-0.0129550211132,58.2975959778,0.0,6000.0,-0.0113884294406,-0.0112997842953,-0.0113884294406,71.9468765259,0.349065840244,0.0289103612304,-0.00363961374387,0.306859076023,0.0201899614185,0.0201899614185,-0.00315113528632,-0.0155823044479,109.494255066,109.494255066,-0.511482477188,61.0271072388,2020,2022,2552,2043,2043,2931,3429,3445,3259,3377,3099,3062,3167,3161,3251,2894,3425,3432,3271,3380,3157,3361,3396,3199
1508404663706989748,168,1508404663706636112,plot_matl,-0.300000011921,-500.0,-0.0476542748511,0.00531072821468,0.252345710993,127.424499512,0.349065840244,0.0917647331953,-0.0113757802173,-0.0476553849876,0.00143665040378,0.00143665040378,0.00192187749781,-0.00451363623142,-19.9299602509,-19.9299602509,-51.0952262878,-129.605148315,2021,2047,2129,2037,2037,2865,3365,3376,3202,3318,3044,2965,3074,3067,3169,2823,3363,3366,3187,3275,2915,3287,3315,3039,0.009965894,1.679985864,1.674270192,0.453785598278,4500.0,0.440830588341,0.00335455220193,-0.0129550211132,58.2975959778,0.0,6000.0,-0.0113972229883,0.00225409748964,-0.0113972229883,67.8051605225,0.349065840244,0.0289103612304,-0.00363961374387,0.306859076023,0.0201899614185,0.0201899614185,-0.00315113528632,-0.0155823044479,109.494255066,109.494255066,-0.511482477188,61.0271072388,2021,2015,2552,2043,2043,2933,3430,3430,3247,3368,3094,3057,3162,3156,3246,2894,3425,3432,3271,3380,3157,3361,3396,3199
1508404663717018174,169,1508404663716655202,plot_matl,-0.300000011921,-500.0,-0.0476571284235,-0.00435849372298,0.252342879772,125.201560974,0.349065840244,0.0917647331953,-0.0113757802173,-0.0476553849876,0.00143665040378,0.00143665040378,0.00192187749781,-0.00451363623142,-19.9299602509,-19.9299602509,-51.0952262878,-129.605148315,2028,2059,2130,2037,2037,2865,3365,3376,3202,3318,3044,2965,3074,3067,3169,2819,3361,3360,3183,3269,2912,3284,3313,3038,0.010020124,1.690005094,1.693400956,0.453785598278,4500.0,0.440830588341,0.00274647562765,-0.0129550211132,58.2975959778,0.0,6000.0,-0.0113916145638,-0.0113158421591,-0.0113916145638,71.6893234253,0.349065840244,0.0289103612304,-0.00363961374387,0.306859076023,0.0201899614185,0.0201899614185,-0.00315113528632,-0.0155823044479,109.494255066,109.494255066,-0.511482477188,61.0271072388,2025,2020,2552,2043,2043,2933,3430,3430,3247,3368,3094,3057,3162,3156,3246,2890,3421,3428,3270,3379,3155,3361,3395,3197
1508404663727099660,170,1508404663726681733,plot_matl,-0.300000011921,-500.0,-0.0476694405079,-0.00407852884382,0.252330571413,125.27520752,0.349065840244,0.0917647331953,-0.0113757802173,-0.0476553849876,0.00143665040378,0.00143665040378,0.00192187749781,-0.00451363623142,-19.9299602509,-19.9299602509,-51.0952262878,-129.605148315,2037,2063,2130,2035,2035,2862,3365,3375,3198,3316,3043,2964,3072,3067,3169,2819,3361,3360,3183,3269,2912,3284,3313,3038,0.01002703,1.700032432,1.7045951,0.453785598278,4500.0,0.439481109381,-0.024012722075,-0.0143045028672,64.370262146,0.0,6000.0,-0.0113989114761,-0.011198551394,-0.0113989114761,71.6108474731,0.349065840244,0.0289103612304,-0.00363961374387,0.306859076023,0.0201899614185,0.0201899614185,-0.00315113528632,-0.0155823044479,109.494255066,109.494255066,-0.511482477188,61.0271072388,2032,2028,2552,2043,2043,2933,3428,3429,3247,3367,3093,3058,3161,3156,3246,2890,3421,3428,3270,3379,3155,3361,3395,3197
1508404663737222878,171,1508404663736674310,plot_matl,-0.300000011921,-500.0,-0.0476612597704,0.00554542336613,0.252338737249,127.532287598,0.349065840244,0.0904152542353,-0.0113968821242,-0.0476637408137,-0.0117698153481,-0.0117698153481,0.00218004337512,0.00557567132637,-19.8669643402,-19.8669643402,-51.7346572876,-128.717208862,1993,2020,2130,2035,2035,2862,3365,3375,3198,3316,3043,2964,3072,3067,3168,2817,3359,3362,3185,3272,2912,3284,3312,3038,0.009992743,1.710024834,1.708759053,0.453785598278,4500.0,0.439481109381,-0.024089705199,-0.0143045028672,64.370262146,0.0,6000.0,-0.0113802645355,0.00182125309948,-0.0113802645355,67.7704162598,0.349065840244,0.0240919683129,-0.00368714425713,0.306967169046,-0.0259193051606,-0.0259193051606,0.0131135396659,-0.0166306421161,109.377159119,109.377159119,-0.500611543655,61.096408844,2001,2001,2552,2043,2043,2933,3428,3429,3247,3367,3093,3058,3161,3155,3247,2890,3420,3428,3269,3378,3152,3360,3393,3197
1508404663747179524,172,1508404663746704091,plot_matl,-0.300000011921,-500.0,-0.0476547814906,-0.0043454663828,0.252345204353,125.095870972,0.349065840244,0.0904152542353,-0.0113968821242,-0.0476637408137,-0.0117698153481,-0.0117698153481,0.00218004337512,0.00557567132637,-19.8669643402,-19.8669643402,-51.7346572876,-128.717208862,2071,2110,2130,2036,2036,2863,3365,3376,3199,3318,3045,2964,3072,3067,3168,2817,3359,3362,3185,3272,2912,3284,3312,3038,0.010028353,1.720054635,1.724876716,0.453785598278,4500.0,0.440830588341,0.00259309075773,-0.0129550211132,58.2975959778,0.0,6000.0,-0.0113773653284,0.00174653076101,-0.0113773653284,67.7391891479,0.349065840244,0.0240919683129,-0.00368714425713,0.306967169046,-0.0259193051606,-0.0259193051606,0.0131135396659,-0.0166306421161,109.377159119,109.377159119,-0.500611543655,61.096408844,2057,2063,2552,2045,2045,2932,3431,3430,3247,3367,3093,3058,3161,3155,3247,2890,3420,3428,3269,3378,3152,3360,3393,3196
1508404663757108783,173,1508404663756650358,plot_matl,-0.300000011921,-500.0,-0.0476333685219,-0.00477429386228,0.252366632223,125.011764526,0.349065840244,0.0904152542353,-0.0113968821242,-0.0476637408137,-0.0117698153481,-0.0117698153481,0.00218004337512,0.00557567132637,-19.8669643402,-19.8669643402,-51.7346572876,-128.717208862,2011,2045,2130,2036,2036,2863,3365,3376,3199,3318,3045,2964,3071,3065,3168,2816,3359,3363,3183,3270,2912,3284,3312,3038,0.009944759,1.730000326,1.720443307,0.453785598278,4500.0,0.440830588341,0.00255279126577,-0.0129550211132,58.2975959778,0.0,6000.0,-0.0113626029342,0.00142999331001,-0.0113626029342,67.7514190674,0.349065840244,0.0240919683129,-0.00368714425713,0.306967169046,-0.0259193051606,-0.0259193051606,0.0131135396659,-0.0166306421161,109.377159119,109.377159119,-0.500611543655,61.096408844,2018,2020,2552,2045,2045,2932,3431,3430,3247,3367,3093,3058,3161,3156,3247,2889,3421,3427,3267,3378,3152,3360,3393,3196
