%time,field.header.seq,field.header.stamp,field.header.frame_id,field.FFJ4_set_point,field.FFJ4_position_gain,field.FFJ4_process_value,field.FFJ4_process_value_dot,field.FFJ4_error,field.FFJ4_command,field.FFJ1,field.FFJ2,field.FFJ3,field.FFJ4,field.FFJ1_dot,field.FFJ2_dot,field.FFJ3_dot,field.FFJ4_dot,field.FFJ1_tao,field.FFJ2_tao,field.FFJ3_tao,field.FFJ4_tao,field.pac0,field.pac1,field.pdc0,field.tac0,field.tdc0,field.el0,field.el1,field.el2,field.el3,field.el4,field.el5,field.el6,field.el7,field.el8,field.el9,field.el10,field.el11,field.el12,field.el13,field.el14,field.el15,field.el16,field.el17,field.el18,field.dt,field.time,field.test_time2,field.FFJ0_set_point,field.FFJ0_position_gain,field.FFJ0_process_value,field.FFJ0_process_value_dot,field.FFJ0_error,field.FFJ0_command,field.FFJ3_set_point,field.FFJ3_position_gain,field.FFJ3_process_value,field.FFJ3_process_value_dot,field.FFJ3_error,field.FFJ3_command,field.MFJ1,field.MFJ2,field.MFJ3,field.MFJ4,field.MFJ1_dot,field.MFJ2_dot,field.MFJ3_dot,field.MFJ4_dot,field.MFJ1_tao,field.MFJ2_tao,field.MFJ3_tao,field.MFJ4_tao,field.Mpac0,field.Mpac1,field.Mpdc0,field.Mtac0,field.Mtdc0,field.Mel0,field.Mel1,field.Mel2,field.Mel3,field.Mel4,field.Mel5,field.Mel6,field.Mel7,field.Mel8,field.Mel9,field.Mel10,field.Mel11,field.Mel12,field.Mel13,field.Mel14,field.Mel15,field.Mel16,field.Mel17,field.Mel18
1508404311381573341,105,1508404311380988249,plot_matl,0.25,-2000.0,0.215545922518,0.00555209210142,-0.0344540700316,-67.5486068726,0.349065840244,0.0728719979525,-0.00374334282242,0.21551245451,-0.00755968270823,-0.00755968270823,0.00854913052171,0.00622886605561,-90.3228225708,-90.3228225708,-56.3656616211,99.5560913086,2035,2072,2126,2017,2017,2664,3307,3336,3140,3293,3005,2970,3049,3088,3168,2968,3398,3393,3241,3293,2959,3281,3312,3036,0.009980354,1.049952732,1.04793717,0.453785598278,4500.0,0.423287332058,0.012796019204,-0.0304982792586,137.242263794,0.0,6000.0,-0.00374658103101,-0.00481010507792,-0.00374658103101,23.9674186707,0.349065840244,0.0240919683129,-0.00153524451889,0.308787584305,0.0041953381151,0.0041953381151,0.000306363421259,0.00946478452533,112.934463501,112.934463501,0.362732678652,62.8544883728,2038,2037,2556,2022,2022,2942,3428,3433,3249,3370,3096,3050,3160,3149,3241,2863,3415,3422,3259,3375,3149,3357,3394,3199
1508404311391222510,106,1508404311390971575,plot_matl,0.25,-2000.0,0.215563818812,0.00522580789402,-0.034436173737,-67.6251525879,0.349065840244,0.0742214769125,-0.00372616713867,0.215548396111,0.00654651317745,0.00654651317745,-0.00525594037026,0.00553718488663,-90.3008117676,-90.3008117676,-56.3034896851,99.2129669189,2003,2039,2126,2017,2017,2664,3307,3336,3139,3292,3004,2970,3049,3089,3168,2969,3398,3394,3241,3293,2959,3281,3312,3036,0.00998083,1.059935281,1.05796798,0.453785598278,4500.0,0.423287332058,0.0124913249165,-0.0304982792586,137.242263794,0.0,6000.0,-0.00373184494674,-0.0051393378526,-0.00373184494674,23.9408798218,0.349065840244,0.0240919683129,-0.00160292163491,0.308743059635,0.00567855453119,0.00567855453119,0.00169466168154,0.0104741370305,113.031059265,113.031059265,0.509940624237,62.7356567383,2010,2011,2556,2022,2022,2942,3428,3433,3251,3369,3096,3051,3159,3148,3243,2863,3413,3423,3259,3375,3149,3357,3394,3199
1508404311401502974,107,1508404311401009370,plot_matl,0.25,-2000.0,0.215505883098,-0.0315227471292,-0.0344941169024,-76.5549087524,0.349065840244,0.0728719979525,-0.00373866432346,0.215494140983,-0.00725131062791,-0.00725131062791,-0.00500117335469,0.00662995362654,-90.2210083008,-90.2210083008,-56.2110023499,99.2510375977,2012,2050,2126,2018,2018,2661,3307,3336,3139,3292,3004,2970,3049,3089,3168,2969,3398,3394,3241,3296,2960,3280,3313,3036,0.010039123,1.069974083,1.074186161,0.453785598278,4500.0,0.421937853098,-0.0140242874622,-0.0318477600813,143.314926147,0.0,6000.0,-0.00371796032414,-0.00541847618297,-0.00371796032414,23.9353065491,0.349065840244,0.0240919683129,-0.00160021940246,0.308786392212,0.0055173127912,0.0055173127912,0.00164221506566,0.00960396882147,112.954185486,112.954185486,0.556765437126,62.6726455688,2020,2021,2556,2024,2024,2941,3428,3433,3251,3369,3096,3051,3159,3148,3243,2863,3413,3423,3262,3376,3149,3358,3393,3200
1508404311411298925,108,1508404311410979426,plot_matl,0.25,-2000.0,0.215495944023,0.00658857030794,-0.0345040559769,-67.4357299805,0.349065840244,0.0742214769125,-0.00375752570108,0.215450078249,0.00691124144942,0.00691124144942,0.0088083781302,-0.0303576886654,-90.3621749878,-90.3621749878,-56.3477630615,99.3807754517,2045,2076,2126,2018,2018,2661,3310,3336,3140,3291,3005,2970,3048,3086,3167,2968,3398,3394,3241,3296,2960,3280,3313,3036,0.009969049,1.079943638,1.076657292,0.453785598278,4500.0,0.421937853098,-0.0128647461534,-0.0318477600813,143.314926147,0.0,6000.0,-0.00376668712124,-0.00443635834381,-0.00376668712124,23.9339542389,0.349065840244,0.0240919683129,-0.00158552732319,0.308594167233,0.00629091169685,0.00629091169685,0.00134461559355,-0.0483074486256,112.94203949,112.94203949,0.346378296614,62.7681236267,2042,2038,2556,2024,2024,2941,3430,3430,3249,3370,3095,3052,3157,3148,3241,2863,3413,3423,3262,3376,3149,3358,3393,3200
1508404311421367169,109,1508404311421014163,plot_matl,0.25,-2000.0,0.215491890907,0.00670960964635,-0.034508112818,-67.432220459,0.349065840244,0.0728719979525,-0.0037857638672,0.215479299426,-0.00643974170089,-0.00643974170089,-0.00404544081539,0.00694458326325,-90.4783782959,-90.4783782959,-56.5013885498,99.4820785522,2019,2047,2127,2021,2021,2661,3310,3336,3140,3291,3005,2970,3048,3086,3167,2968,3397,3392,3240,3295,2959,3279,3309,3036,0.01003463,1.089978791,1.09377467,0.453785598278,4500.0,0.423287332058,0.0132926814258,-0.0304982792586,137.242263794,0.0,6000.0,-0.00378342228942,-0.00409656343982,-0.00378342228942,23.9267177582,0.349065840244,0.0240919683129,-0.00156103854533,0.30866765976,0.00598973361775,0.00598973361775,0.000845116563141,0.073916003108,112.861106873,112.861106873,0.183984607458,62.947845459,2026,2022,2557,2025,2025,2941,3430,3430,3249,3370,3095,3052,3157,3148,3241,2863,3413,3424,3262,3374,3147,3358,3394,3200
1508404311431320868,110,1508404311430973851,plot_matl,0.25,-2000.0,0.215447410941,0.00756656518206,-0.0345525927842,-67.2169189453,0.349065840244,0.0742214769125,-0.00373805989511,0.215476259589,0.00640048505738,0.00640048505738,-0.00499654887244,0.00698103150353,-90.4035110474,-90.4035110474,-56.2859458923,99.3618087769,2010,2050,2127,2021,2021,2661,3309,3337,3141,3291,3005,2970,3050,3089,3167,2968,3397,3392,3240,3295,2959,3279,3309,3036,0.009957739,1.099937456,1.09535129,0.453785598278,4500.0,0.421937853098,-0.0139761855826,-0.0318477600813,143.314926147,0.0,6000.0,-0.00374596868642,0.00858529563993,-0.00374596868642,19.7941322327,0.349065840244,0.0240919683129,-0.00155343837105,0.308663487434,0.00582932634279,0.00582932634279,0.000691797700711,0.0120490668342,112.846450806,112.846450806,0.26964494586,62.9932861328,2023,2025,2557,2025,2025,2941,3431,3430,3250,3369,3095,3050,3159,3148,3241,2863,3413,3424,3262,3374,3147,3358,3394,3200
1508404311441579398,111,1508404311441046482,plot_matl,0.25,-2000.0,0.215446799994,0.00756699731573,-0.0345532000065,-67.1216125488,0.349065840244,0.0742214769125,-0.00373805989511,0.215476259589,0.00640048505738,0.00640048505738,-0.00499654887244,0.00698103150353,-90.4035110474,-90.4035110474,-56.2859458923,99.3618087769,2036,2068,2127,2021,2021,2661,3309,3337,3141,3291,3005,2970,3050,3089,3168,2968,3400,3391,3241,3295,2961,3280,3312,3036,0.010074362,1.110010746,1.118254182,0.453785598278,4500.0,0.421937853098,-0.0138544505462,-0.0318477600813,143.314926147,0.0,6000.0,-0.00373995257542,0.00847192946821,-0.00373995257542,19.6655063629,0.349065840244,0.0240919683129,-0.00155343837105,0.308663487434,0.00582932634279,0.00582932634279,0.000691797700711,0.0120490668342,112.846450806,112.846450806,0.26964494586,62.9932861328,2041,2040,2557,2025,2025,2941,3431,3430,3250,3369,3095,3050,3159,3148,3243,2862,3414,3421,3261,3376,3149,3359,3393,3201
1508404311451179040,112,1508404311450965393,plot_matl,0.25,-2000.0,0.215450286865,0.045406639576,-0.0345497168601,-58.1629142761,0.349065840244,0.0742214769125,-0.00373805989511,0.215476259589,0.00640048505738,0.00640048505738,-0.00499654887244,0.00698103150353,-90.4035110474,-90.4035110474,-56.2859458923,99.3618087769,2018,2051,2125,2022,2022,2661,3310,3335,3141,3290,3005,2971,3050,3089,3168,2968,3400,3391,3241,3295,2961,3280,3312,3036,0.009918024,1.119929493,1.110818688,0.453785598278,4500.0,0.423287332058,0.0119897415861,-0.0304982792586,137.242263794,0.0,6000.0,-0.00373587571084,0.00839555915445,-0.00373587571084,19.8989067078,0.349065840244,0.0240919683129,-0.00155343837105,0.308663487434,0.00582932634279,0.00582932634279,0.000691797700711,0.0120490668342,112.846450806,112.846450806,0.26964494586,62.9932861328,2028,2023,2556,2027,2027,2941,3430,3432,3250,3368,3096,3053,3159,3148,3243,2862,3414,3421,3261,3376,3149,3359,3393,3201
1508404311461486600,113,1508404311460990100,plot_matl,0.25,-2000.0,0.215483888984,0.00685972161591,-0.0345161184669,-67.3007659912,0.349065840244,0.0742214769125,-0.00373805989511,0.215476259589,0.00640048505738,0.00640048505738,-0.00499654887244,0.00698103150353,-90.4035110474,-90.4035110474,-56.2859458923,99.3618087769,2016,2050,2125,2022,2022,2661,3310,3335,3141,3290,3005,2971,3048,3089,3165,2969,3398,3393,3240,3295,2958,3281,3312,3036,0.010025205,1.129954572,1.132848165,0.453785598278,4500.0,0.421937853098,-0.0149197652936,-0.0318477600813,143.314926147,0.0,6000.0,-0.00375568401068,0.00879704020917,-0.00375568401068,19.7459754944,0.349065840244,0.0240919683129,-0.00155343837105,0.308663487434,0.00582932634279,0.00582932634279,0.000691797700711,0.0120490668342,112.846450806,112.846450806,0.26964494586,62.9932861328,2021,2024,2556,2027,2027,2941,3430,3432,3250,3368,3096,3053,3159,3148,3242,2863,3415,3422,3261,3376,3149,3358,3393,3201
1508404311471522220,114,1508404311471031868,plot_matl,0.25,-2000.0,0.215514823794,0.00625738082454,-0.0344851799309,-67.4188308716,0.349065840244,0.0728719979525,-0.00374711351469,0.215474352241,-0.00739964516833,-0.00739964516833,-0.00479533569887,0.00707602594048,-90.5765075684,-90.5765075684,-56.6852912903,99.2819137573,2035,2070,2126,2022,2022,2661,3308,3336,3140,3291,3005,2971,3048,3089,3165,2969,3398,3393,3240,3295,2958,3281,3311,3034,0.010042897,1.139996732,1.144890258,0.453785598278,4500.0,0.421937853098,-0.0146612664685,-0.0318477600813,143.314926147,0.0,6000.0,-0.00374907441437,-0.00475135492161,-0.00374907441437,24.0037326813,0.349065840244,0.0240919683129,-0.00159937213175,0.308658599854,0.00472974125296,0.00472974125296,-0.0137238455936,0.0121790682897,112.689422607,112.689422607,0.470938920975,63.2684669495,2037,2032,2556,2028,2028,2939,3430,3432,3251,3370,3096,3053,3159,3148,3242,2863,3415,3422,3261,3376,3149,3358,3394,3201
1508404311481370362,115,1508404311481003833,plot_matl,0.25,-2000.0,0.215471103787,0.00712710386142,-0.0345289036632,-67.2229690552,0.349065840244,0.0728719979525,-0.00374711351469,0.215474352241,-0.00739964516833,-0.00739964516833,-0.00479533569887,0.00707602594048,-90.5765075684,-90.5765075684,-56.6852912903,99.2819137573,2025,2048,2126,2022,2022,2661,3308,3336,3140,3291,3006,2971,3050,3088,3167,2969,3399,3394,3241,3294,2958,3281,3311,3034,0.009970021,1.149968321,1.146552415,0.453785598278,4500.0,0.421937853098,-0.0147959869355,-0.0318477600813,143.314926147,0.0,6000.0,-0.00373216881417,-0.00509738316759,-0.00373216881417,24.0654468536,0.349065840244,0.0240919683129,-0.00159937213175,0.308658599854,0.00472974125296,0.00472974125296,-0.0137238455936,0.0121790682897,112.689422607,112.689422607,0.470938920975,63.2684669495,2025,2017,2556,2028,2028,2939,3430,3432,3251,3370,3097,3052,3159,3149,3243,2861,3414,3423,3260,3375,3149,3358,3394,3201
1508404311491592943,116,1508404311491055399,plot_matl,0.25,-2000.0,0.215495407581,0.00656162528321,-0.0345045924187,-67.5198669434,0.349065840244,0.0728719979525,-0.00374711351469,0.215474352241,-0.00739964516833,-0.00739964516833,-0.00479533569887,0.00707602594048,-90.5765075684,-90.5765075684,-56.6852912903,99.2819137573,2011,2038,2126,2021,2021,2661,3308,3336,3140,3291,3006,2971,3050,3088,3167,2969,3399,3394,3241,3294,2958,3280,3314,3034,0.010052729,1.160020012,1.166116564,0.453785598278,4500.0,0.423287332058,0.0135626764968,-0.0304982792586,137.242263794,0.0,6000.0,-0.00374119891785,-0.00492591178045,-0.00374119891785,23.8545227051,0.349065840244,0.0240919683129,-0.00159937213175,0.308658599854,0.00472974125296,0.00472974125296,-0.0137238455936,0.0121790682897,112.689422607,112.689422607,0.470938920975,63.2684669495,2019,2014,2557,2024,2024,2942,3431,3428,3251,3370,3097,3052,3159,3149,3243,2861,3414,3423,3260,3375,3149,3359,3394,3200
1508404311501473120,117,1508404311500991974,plot_matl,0.25,-2000.0,0.215516239405,0.00613417848945,-0.0344837531447,-67.5038375854,0.349065840244,0.0728719979525,-0.00374711351469,0.215474352241,-0.00739964516833,-0.00739964516833,-0.00479533569887,0.00707602594048,-90.5765075684,-90.5765075684,-56.6852912903,99.2819137573,2028,2053,2126,2021,2021,2661,3308,3336,3140,3291,3004,2970,3050,3088,3166,2969,3398,3394,3241,3294,2958,3280,3314,3034,0.009935357,1.169956562,1.162436769,0.453785598278,4500.0,0.421937853098,-0.01367469877,-0.0318477600813,143.314926147,0.0,6000.0,-0.00371155515313,0.00789515301585,-0.00371155515313,19.9270973206,0.349065840244,0.0240919683129,-0.00159937213175,0.308658599854,0.00472974125296,0.00472974125296,-0.0137238455936,0.0121790682897,112.689422607,112.689422607,0.470938920975,63.2684669495,2030,2032,2557,2024,2024,2942,3431,3428,3249,3370,3095,3051,3157,3148,3242,2862,3415,3424,3260,3375,3149,3359,3394,3200
1508404311511274248,118,1508404311510976865,plot_matl,0.25,-2000.0,0.215505346656,0.00634278170764,-0.0344946607947,-67.4948348999,0.349065840244,0.0728719979525,-0.00371995638125,0.215504422784,-0.00708698434755,-0.00708698434755,-0.00535618141294,0.00637500965968,-90.8472900391,-90.8472900391,-56.5707054138,99.4467010498,2020,2047,2126,2021,2021,2663,3308,3336,3140,3291,3004,2970,3050,3088,3166,2969,3398,3394,3241,3296,2957,3280,3312,3033,0.009983029,1.179940889,1.177997422,0.453785598278,4500.0,0.421937853098,-0.0146060111001,-0.0318477600813,143.314926147,0.0,6000.0,-0.00368706183508,0.00739862909541,-0.00368706183508,19.9589271545,0.349065840244,0.0240919683129,-0.00163095409516,0.308517187834,0.00517434906214,0.00517434906214,0.00224003219046,-0.0469746440649,112.931640625,112.931640625,0.802556216717,63.1216583252,2020,2014,2556,2022,2022,2942,3431,3428,3249,3370,3095,3051,3157,3148,3242,2862,3415,3424,3258,3377,3149,3356,3393,3198
1508404311521410591,119,1508404311521026073,plot_matl,0.25,-2000.0,0.215525016189,0.0059254555963,-0.0344749763608,-67.4343719482,0.349065840244,0.0728719979525,-0.00371995638125,0.215504422784,-0.00708698434755,-0.00708698434755,-0.00535618141294,0.00637500965968,-90.8472900391,-90.8472900391,-56.5707054138,99.4467010498,2018,2040,2126,2021,2021,2663,3310,3337,3139,3291,3006,2971,3049,3088,3168,2969,3398,3394,3241,3296,2957,3280,3312,3033,0.010050156,1.189990233,1.195968564,0.453785598278,4500.0,0.423287332058,0.0122879203409,-0.0304982792586,137.242263794,0.0,6000.0,-0.00370473158546,0.00774815864861,-0.00370473158546,19.7747840881,0.349065840244,0.0240919683129,-0.00163095409516,0.308517187834,0.00517434906214,0.00517434906214,0.00224003219046,-0.0469746440649,112.931640625,112.931640625,0.802556216717,63.1216583252,2019,2018,2556,2022,2022,2942,3431,3429,3253,3369,3097,3051,3159,3149,3242,2862,3415,3424,3258,3377,3149,3356,3393,3198
1508404311531286835,120,1508404311530984023,plot_matl,0.25,-2000.0,0.215545609593,0.00552934734151,-0.0344543978572,-67.5165100098,0.349065840244,0.0728719979525,-0.00371995638125,0.215504422784,-0.00708698434755,-0.00708698434755,-0.00535618141294,0.00637500965968,-90.8472900391,-90.8472900391,-56.5707054138,99.4467010498,2017,2058,2126,2017,2017,2663,3310,3337,3139,3291,3006,2971,3049,3088,3168,2969,3400,3394,3242,3295,2960,3281,3313,3037,0.009958641,1.199948671,1.19503692,0.453785598278,4500.0,0.423287332058,0.0110369306058,-0.0304982792586,137.242263794,0.0,6000.0,-0.00370759959333,0.00781308114529,-0.00370759959333,19.8045463562,0.349065840244,0.0240919683129,-0.00163095409516,0.308517187834,0.00517434906214,0.00517434906214,0.00224003219046,-0.0469746440649,112.931640625,112.931640625,0.802556216717,63.1216583252,2026,2027,2557,2020,2020,2942,3431,3429,3253,3369,3097,3051,3159,3149,3242,2862,3413,3423,3259,3376,3148,3357,3395,3198
1508404311541282683,121,1508404311541000078,plot_matl,0.25,-2000.0,0.215528979897,0.00576022174209,-0.0344710201025,-67.399772644,0.349065840244,0.0728719979525,-0.00371995638125,0.215504422784,-0.00708698434755,-0.00708698434755,-0.00535618141294,0.00637500965968,-90.8472900391,-90.8472900391,-56.5707054138,99.4467010498,2023,2057,2126,2017,2017,2662,3308,3338,3139,3291,3007,2969,3049,3090,3168,2969,3400,3394,3242,3295,2960,3281,3313,3037,0.010014536,1.209964786,1.211758856,0.453785598278,4500.0,0.423287332058,0.0125271901488,-0.0304982792586,137.242263794,0.0,6000.0,-0.00368731259368,0.00737805198878,-0.00368731259368,19.7084178925,0.349065840244,0.0240919683129,-0.00163095409516,0.308517187834,0.00517434906214,0.00517434906214,0.00224003219046,-0.0469746440649,112.931640625,112.931640625,0.802556216717,63.1216583252,2021,2023,2557,2020,2020,2941,3433,3429,3250,3370,3097,3053,3159,3148,3242,2862,3413,3423,3259,3376,3148,3357,3395,3198
1508404311551351377,122,1508404311551019757,plot_matl,0.25,-2000.0,0.215546607971,0.00544964894652,-0.0344533883035,-67.5544509888,0.349065840244,0.0742214769125,-0.003670664737,0.215551435947,0.00605252478272,0.00605252478272,0.00705856038257,0.00531619368121,-90.7049179077,-90.7049179077,-56.6909561157,99.6745071411,2027,2050,2126,2017,2017,2662,3308,3338,3139,3291,3007,2969,3049,3090,3166,2969,3399,3393,3242,3295,2959,3281,3313,3036,0.010019148,1.219984245,1.222336056,0.453785598278,4500.0,0.421937853098,-0.0144777679816,-0.0318477600813,143.314926147,0.0,6000.0,-0.00365698733367,-0.00663714390248,-0.00365698733367,23.9790439606,0.349065840244,0.0216827709228,-0.0015876784455,0.308672189713,-0.0176992919296,-0.0176992919296,0.00138174451422,0.0117888692766,113.033210754,113.033210754,0.668124139309,63.317565918,2029,2025,2557,2020,2020,2941,3433,3429,3250,3370,3097,3053,3159,3148,3242,2863,3415,3422,3263,3376,3148,3357,3395,3200
1508404311561599781,123,1508404311561023915,plot_matl,0.25,-2000.0,0.215492025018,0.00652157701552,-0.0345079675317,-67.4582977295,0.349065840244,0.0742214769125,-0.003670664737,0.215551435947,0.00605252478272,0.00605252478272,0.00705856038257,0.00531619368121,-90.7049179077,-90.7049179077,-56.6909561157,99.6745071411,2022,2059,2126,2020,2020,2663,3310,3337,3139,3291,3007,2971,3049,3090,3166,2969,3399,3393,3242,3295,2959,3281,3313,3036,0.010005551,1.229988674,1.230682773,0.453785598278,4500.0,0.423287332058,0.0104840444401,-0.0304982792586,137.242263794,0.0,6000.0,-0.00368129159324,0.00727410800755,-0.00368129159324,19.9585323334,0.349065840244,0.0216827709228,-0.0015876784455,0.308672189713,-0.0176992919296,-0.0176992919296,0.00138174451422,0.0117888692766,113.033210754,113.033210754,0.668124139309,63.317565918,2029,2027,2557,2023,2023,2941,3430,3430,3251,3371,3096,3050,3159,3148,3242,2863,3415,3422,3263,3376,3148,3357,3395,3200
1508404311571379214,124,1508404311570978626,plot_matl,0.25,-2000.0,0.215588092804,-0.0332804434001,-0.034411907196,-76.5794296265,0.349065840244,0.0742214769125,-0.003670664737,0.215551435947,0.00605252478272,0.00605252478272,0.00705856038257,0.00531619368121,-90.7049179077,-90.7049179077,-56.6909561157,99.6745071411,2023,2069,2126,2020,2020,2663,3310,3337,3139,3291,3007,2971,3050,3089,3166,2970,3396,3393,3240,3295,2959,3280,3313,3036,0.009952556,1.239942883,1.234116944,0.453785598278,4500.0,0.423287332058,0.0105465408415,-0.0304982792586,137.242263794,0.0,6000.0,-0.00365039240569,0.00665776478127,-0.00365039240569,19.9683818817,0.349065840244,0.0216827709228,-0.0015876784455,0.308672189713,-0.0176992919296,-0.0176992919296,0.00138174451422,0.0117888692766,113.033210754,113.033210754,0.668124139309,63.317565918,2031,2037,2557,2023,2023,2941,3430,3430,3251,3371,3096,3050,3158,3146,3242,2864,3414,3424,3261,3375,3148,3357,3395,3200
1508404311581441019,125,1508404311580975107,plot_matl,0.25,-2000.0,0.215566560626,0.00509356800467,-0.0344334468246,-67.6442260742,0.349065840244,0.0742214769125,-0.003670664737,0.215551435947,0.00605252478272,0.00605252478272,0.00705856038257,0.00531619368121,-90.7049179077,-90.7049179077,-56.6909561157,99.6745071411,2019,2060,2126,2020,2020,2663,3310,3338,3141,3292,3007,2971,3050,3089,3166,2970,3396,3393,3240,3295,2959,3280,3310,3035,0.009996575,1.249939805,1.249571875,0.453785598278,4500.0,0.421937853098,-0.0175966732204,-0.0318477600813,143.314926147,0.0,6000.0,-0.00365212280303,0.00667853979394,-0.00365212280303,19.9262218475,0.349065840244,0.0216827709228,-0.0015876784455,0.308672189713,-0.0176992919296,-0.0176992919296,0.00138174451422,0.0117888692766,113.033210754,113.033210754,0.668124139309,63.317565918,2031,2036,2557,2024,2024,2941,3432,3430,3252,3370,3096,3050,3158,3146,3242,2864,3414,3424,3261,3375,3148,3357,3393,3198
1508404311591406369,126,1508404311591004162,plot_matl,0.25,-2000.0,0.215581297874,0.00486858654767,-0.0344186984003,-67.6506347656,0.349065840244,0.0728719979525,-0.0036524545867,0.215586259961,-0.00861418992281,-0.00861418992281,0.00668945675716,0.00469790399075,-90.9294433594,-90.9294433594,-56.5445098877,99.4640579224,2011,2061,2126,2020,2020,2663,3310,3338,3141,3292,3005,2969,3049,3089,3168,2969,3399,3392,3243,3294,2959,3280,3310,3035,0.010028409,1.259968665,1.263579534,0.453785598278,4500.0,0.423287332058,0.00945142190903,-0.0304982792586,137.242263794,0.0,6000.0,-0.0036413515918,0.00642922101542,-0.0036413515918,19.8677997589,0.349065840244,0.0240919683129,-0.00157426635269,0.308658838272,0.00653911242262,0.00653911242262,0.00110614683945,0.0121253840625,113.053718567,113.053718567,0.458795756102,63.0939102173,2028,2038,2557,2024,2024,2941,3432,3430,3252,3370,3096,3051,3157,3148,3241,2863,3413,3426,3258,3377,3148,3357,3393,3198
1508404311601546946,127,1508404311601021596,plot_matl,0.25,-2000.0,0.215561330318,0.00527412444353,-0.0344386659563,-67.6216506958,0.349065840244,0.0728719979525,-0.0036524545867,0.215586259961,-0.00861418992281,-0.00861418992281,0.00668945675716,0.00469790399075,-90.9294433594,-90.9294433594,-56.5445098877,99.4640579224,2027,2069,2126,2020,2020,2662,3309,3336,3141,3292,3005,2969,3049,3089,3168,2969,3399,3392,3243,3294,2959,3279,3312,3035,0.010018501,1.269986479,1.272349627,0.453785598278,4500.0,0.423287332058,0.00867228209972,-0.0304982792586,137.242263794,0.0,6000.0,-0.0036432268098,0.00646976288408,-0.0036432268098,19.9142551422,0.349065840244,0.0240919683129,-0.00157426635269,0.308658838272,0.00653911242262,0.00653911242262,0.00110614683945,0.0121253840625,113.053718567,113.053718567,0.458795756102,63.0939102173,2035,2037,2557,2026,2026,2941,3433,3430,3252,3370,3096,3051,3157,3148,3241,2863,3413,3426,3258,3377,3150,3358,3395,3200
1508404311611444438,128,1508404311611004731,plot_matl,0.25,-2000.0,0.215576946735,0.00495277391747,-0.0344230532646,-67.6104278564,0.349065840244,0.0728719979525,-0.0036524545867,0.215586259961,-0.00861418992281,-0.00861418992281,0.00668945675716,0.00469790399075,-90.9294433594,-90.9294433594,-56.5445098877,99.4640579224,2030,2057,2126,2020,2020,2662,3309,3336,3139,3292,3004,2970,3048,3089,3167,2968,3400,3394,3243,3294,2959,3279,3312,3035,0.009981312,1.279969404,1.277607936,0.453785598278,4500.0,0.421937853098,-0.0186592359096,-0.0318477600813,143.314926147,0.0,6000.0,-0.00364618003368,-0.00688080582768,-0.00364618003368,24.0391521454,0.349065840244,0.0240919683129,-0.00157426635269,0.308658838272,0.00653911242262,0.00653911242262,0.00110614683945,0.0121253840625,113.053718567,113.053718567,0.458795756102,63.0939102173,2035,2032,2557,2026,2026,2941,3433,3430,3251,3369,3095,3051,3158,3149,3241,2863,3413,3422,3258,3377,3150,3358,3395,3200
1508404311621456880,129,1508404311621004485,plot_matl,0.25,-2000.0,0.215516984463,-0.03175149858,-0.0344830192626,-76.0339355469,0.349065840244,0.0728719979525,-0.0036524545867,0.215586259961,-0.00861418992281,-0.00861418992281,0.00668945675716,0.00469790399075,-90.9294433594,-90.9294433594,-56.5445098877,99.4640579224,2026,2048,2126,2018,2018,2663,3309,3336,3139,3292,3004,2970,3048,3089,3167,2968,3400,3394,3240,3294,2960,3281,3314,3035,0.009999939,1.289969137,1.289992131,0.453785598278,4500.0,0.423287332058,0.00855042785406,-0.0304982792586,137.242263794,0.0,6000.0,-0.00363753852434,0.00632504513487,-0.00363753852434,20.0552692413,0.349065840244,0.0240919683129,-0.00157426635269,0.308658838272,0.00653911242262,0.00653911242262,0.00110614683945,0.0121253840625,113.053718567,113.053718567,0.458795756102,63.0939102173,2027,2023,2556,2025,2025,2941,3433,3430,3251,3369,3095,3051,3158,3149,3241,2863,3413,3422,3260,3375,3148,3356,3393,3197
1508404311631416477,130,1508404311631002885,plot_matl,0.25,-2000.0,0.215498059988,-0.0313858613372,-0.0345019437373,-76.4636917114,0.349065840244,0.0755709558725,-0.0036388116423,0.215540707111,0.0175760164857,0.0175760164857,0.00635006325319,0.00567751703784,-90.6593856812,-90.6593856812,-56.5322532654,99.7961883545,2032,2052,2126,2018,2018,2663,3308,3338,3141,3292,3005,2971,3050,3088,3168,2968,3400,3394,3240,3294,2960,3281,3314,3035,0.009997618,1.299967462,1.29969034,0.453785598278,4500.0,0.421937853098,-0.0187116842717,-0.0318477600813,143.314926147,0.0,6000.0,-0.00366482930258,-0.00653867097571,-0.00366482930258,23.9203281403,0.349065840244,0.0216827709228,-0.00154738954734,0.308714002371,-0.0167569108307,-0.0167569108307,0.000575680460315,0.0111039439216,112.959220886,112.959220886,0.517248153687,62.8776931763,2036,2032,2556,2025,2025,2941,3429,3431,3251,3369,3097,3050,3158,3147,3242,2863,3413,3422,3260,3375,3148,3356,3393,3197
1508404311641187635,131,1508404311641032020,plot_matl,0.25,-2000.0,0.21548563242,-0.0311523675919,-0.0345143713057,-76.4289016724,0.349065840244,0.0755709558725,-0.0036388116423,0.215540707111,0.0175760164857,0.0175760164857,0.00635006325319,0.00567751703784,-90.6593856812,-90.6593856812,-56.5322532654,99.7961883545,2023,2057,2126,2020,2020,2663,3308,3338,3141,3292,3005,2971,3050,3088,3168,2968,3399,3392,3239,3294,2957,3279,3313,3035,0.010028513,1.309996442,1.313735203,0.453785598278,4500.0,0.423287332058,0.00893854070455,-0.0304982792586,137.242263794,0.0,6000.0,-0.00364970858209,0.00658583501354,-0.00364970858209,19.9343986511,0.349065840244,0.0216827709228,-0.00154738954734,0.308714002371,-0.0167569108307,-0.0167569108307,0.000575680460315,0.0111039439216,112.959220886,112.959220886,0.517248153687,62.8776931763,2036,2029,2557,2027,2027,2941,3429,3431,3251,3369,3097,3050,3158,3147,3242,2863,3413,3424,3259,3376,3149,3357,3396,3200
1508404311651444512,132,1508404311650974624,plot_matl,0.25,-2000.0,0.215309366584,-0.027551934123,-0.0346906334162,-75.6487197876,0.349065840244,0.0755709558725,-0.0036388116423,0.215540707111,0.0175760164857,0.0175760164857,0.00635006325319,0.00567751703784,-90.6593856812,-90.6593856812,-56.5322532654,99.7961883545,1998,2043,2126,2020,2020,2663,3310,3338,3139,3291,3005,2970,3051,3090,3168,2968,3399,3392,3239,3294,2957,3279,3313,3035,0.009943687,1.319939632,1.312566684,0.453785598278,4500.0,0.421937853098,-0.0194554813206,-0.0318477600813,143.314926147,0.0,6000.0,-0.00366129586473,0.00682322587818,-0.00366129586473,20.0234031677,0.349065840244,0.0216827709228,-0.00154738954734,0.308714002371,-0.0167569108307,-0.0167569108307,0.000575680460315,0.0111039439216,112.959220886,112.959220886,0.517248153687,62.8776931763,2014,2016,2557,2027,2027,2942,3431,3429,3252,3369,3098,3051,3157,3149,3242,2863,3413,3424,3259,3376,3149,3357,3396,3200
1508404311661302521,133,1508404311660979248,plot_matl,0.25,-2000.0,0.215267375112,-0.0266561154276,-0.034732632339,-75.9478378296,0.349065840244,0.0755709558725,-0.0036388116423,0.215540707111,0.0175760164857,0.0175760164857,0.00635006325319,0.00567751703784,-90.6593856812,-90.6593856812,-56.5322532654,99.7961883545,2018,2068,2126,2020,2020,2663,3310,3338,3139,3291,3005,2970,3051,3090,3167,2969,3397,3394,3241,3296,2960,3279,3314,3035,0.010003166,1.329944051,1.330421078,0.453785598278,4500.0,0.424636811018,0.0346632003784,-0.0291487984359,131.169586182,0.0,6000.0,-0.00367174274288,-0.00639692088589,-0.00367174274288,23.9589595795,0.349065840244,0.0216827709228,-0.00154738954734,0.308714002371,-0.0167569108307,-0.0167569108307,0.000575680460315,0.0111039439216,112.959220886,112.959220886,0.517248153687,62.8776931763,2028,2035,2557,2027,2027,2942,3431,3429,3252,3369,3098,3051,3157,3149,3242,2863,3415,3424,3259,3376,3148,3356,3394,3198
1508404311671433967,134,1508404311671009891,plot_matl,0.25,-2000.0,0.215297669172,0.0105966087431,-0.0347023308277,-66.6352996826,0.349065840244,0.0728719979525,-0.00367063633166,0.21531060338,-0.00942688155919,-0.00942688155919,0.00699404487386,0.010368950665,-90.5981140137,-90.5981140137,-56.3620376587,99.656463623,2027,2067,2126,2019,2019,2661,3306,3336,3141,3290,3005,2969,3051,3090,3167,2969,3397,3394,3241,3296,2960,3279,3314,3035,0.010029816,1.339974364,1.343995344,0.453785598278,4500.0,0.421937853098,-0.0182042364031,-0.0318477600813,143.314926147,0.0,6000.0,-0.00368138728663,-0.00618686666712,-0.00368138728663,24.1112709045,0.349065840244,0.0240919683129,-0.00157807732467,0.308633476496,0.00713612698019,0.00713612698019,0.00117396540008,0.0744880437851,112.899513245,112.899513245,0.53797262907,62.880153656,2036,2040,2556,2025,2025,2940,3430,3433,3251,3369,3097,3051,3157,3149,3242,2863,3415,3424,3259,3376,3148,3356,3394,3198
1508404311681460807,135,1508404311681015438,plot_matl,0.25,-2000.0,0.215389311314,0.00869952887297,-0.0346106849611,-67.1083984375,0.349065840244,0.0728719979525,-0.00367063633166,0.21531060338,-0.00942688155919,-0.00942688155919,0.00699404487386,0.010368950665,-90.5981140137,-90.5981140137,-56.3620376587,99.656463623,2004,2051,2126,2019,2019,2661,3306,3336,3141,3290,3005,2969,3049,3088,3166,2970,3399,3394,3240,3296,2960,3281,3314,3035,0.010006033,1.349980191,1.350814455,0.453785598278,4500.0,0.423287332058,0.0103102037683,-0.0304982792586,137.242263794,0.0,6000.0,-0.00366412824951,-0.00651857210323,-0.00366412824951,23.9622383118,0.349065840244,0.0240919683129,-0.00157807732467,0.308633476496,0.00713612698019,0.00713612698019,0.00117396540008,0.0744880437851,112.899513245,112.899513245,0.53797262907,62.880153656,2017,2026,2556,2025,2025,2940,3430,3433,3251,3369,3097,3051,3158,3146,3242,2864,3414,3421,3260,3375,3149,3358,3394,3198
1508404311691589313,136,1508404311691049328,plot_matl,0.25,-2000.0,0.215440660715,0.00769214658067,-0.0345593355596,-67.276512146,0.349065840244,0.0728719979525,-0.00367063633166,0.21531060338,-0.00942688155919,-0.00942688155919,0.00699404487386,0.010368950665,-90.5981140137,-90.5981140137,-56.3620376587,99.656463623,2028,2070,2125,2018,2018,2662,3310,3337,3139,3291,3005,2969,3049,3088,3166,2970,3399,3394,3240,3296,2960,3281,3312,3035,0.010034327,1.360014001,1.364668472,0.453785598278,4500.0,0.424636811018,0.0376809649169,-0.0291487984359,131.169586182,0.0,6000.0,-0.00365910702385,0.00680862693116,-0.00365910702385,19.9118041992,0.349065840244,0.0240919683129,-0.00157807732467,0.308633476496,0.00713612698019,0.00713612698019,0.00117396540008,0.0744880437851,112.899513245,112.899513245,0.53797262907,62.880153656,2031,2032,2557,2026,2026,2941,3430,3432,3251,3370,3097,3051,3158,3146,3242,2864,3414,3421,3260,3375,3149,3358,3395,3197
1508404311701512011,137,1508404311701036799,plot_matl,0.25,-2000.0,0.215474516153,0.00701400032267,-0.0345254912972,-67.4303665161,0.349065840244,0.0728719979525,-0.00367063633166,0.21531060338,-0.00942688155919,-0.00942688155919,0.00699404487386,0.010368950665,-90.5981140137,-90.5981140137,-56.3620376587,99.656463623,2031,2063,2125,2018,2018,2662,3310,3337,3139,3291,3004,2971,3050,3089,3168,2970,3398,3393,3242,3294,2960,3281,3312,3035,0.009987361,1.370002108,1.368268457,0.453785598278,4500.0,0.421937853098,-0.0158228315413,-0.0318477600813,143.314926147,0.0,6000.0,-0.00369249936193,-0.00592429656535,-0.00369249936193,23.8791503906,0.349065840244,0.0240919683129,-0.00157807732467,0.308633476496,0.00713612698019,0.00713612698019,0.00117396540008,0.0744880437851,112.899513245,112.899513245,0.53797262907,62.880153656,2033,2032,2557,2026,2026,2941,3430,3432,3251,3370,3095,3052,3158,3148,3242,2863,3414,3423,3259,3376,3149,3358,3395,3197
1508404311711285621,138,1508404311710987436,plot_matl,0.25,-2000.0,0.215538337827,0.0436195321381,-0.034461658448,-58.4885444641,0.349065840244,0.0742214769125,-0.00366401183419,0.215501114726,0.00526885874569,0.00526885874569,0.00692208344117,0.00647422019392,-90.2090301514,-90.2090301514,-56.7611656189,99.8224639893,2009,2041,2126,2018,2018,2662,3309,3337,3139,3291,3004,2971,3050,3089,3168,2970,3398,3393,3242,3294,2959,3279,3313,3035,0.009949374,1.37995248,1.373013612,0.453785598278,4500.0,0.421937853098,-0.0168533343822,-0.0318477600813,143.314926147,0.0,6000.0,-0.00367530807853,0.00714761065319,-0.00367530807853,19.9189815521,0.349065840244,0.0216827709228,-0.00154567230493,0.308439224958,-0.0171285513788,-0.0171285513788,0.000528436095919,-0.0452756360173,112.862243652,112.862243652,0.225737541914,62.8396949768,2021,2019,2557,2022,2022,2942,3429,3430,3251,3370,3095,3052,3158,3148,3242,2863,3414,3423,3259,3376,3150,3357,3393,3200
1508404311721096842,139,1508404311720952989,plot_matl,0.25,-2000.0,0.215456664562,-0.0305002257228,-0.0345433354378,-76.7489852905,0.349065840244,0.0742214769125,-0.00366401183419,0.215501114726,0.00526885874569,0.00526885874569,0.00692208344117,0.00647422019392,-90.2090301514,-90.2090301514,-56.7611656189,99.8224639893,2020,2054,2126,2018,2018,2662,3309,3337,3138,3290,3006,2970,3050,3089,3165,2970,3398,3391,3242,3294,2959,3279,3313,3035,0.009962036,1.389916282,1.384723004,0.453785598278,4500.0,0.423287332058,0.00951603986323,-0.0304982792586,137.242263794,0.0,6000.0,-0.00367128336802,-0.00635465281084,-0.00367128336802,24.0248966217,0.349065840244,0.0216827709228,-0.00154567230493,0.308439224958,-0.0171285513788,-0.0171285513788,0.000528436095919,-0.0452756360173,112.862243652,112.862243652,0.225737541914,62.8396949768,2029,2025,2557,2022,2022,2942,3429,3430,3252,3370,3096,3052,3159,3147,3244,2862,3414,3422,3259,3376,3150,3357,3393,3200
1508404311731255652,140,1508404311730981781,plot_matl,0.25,-2000.0,0.215454980731,0.00740237254649,-0.0345450155437,-67.2260437012,0.349065840244,0.0742214769125,-0.00366401183419,0.215501114726,0.00526885874569,0.00526885874569,0.00692208344117,0.00647422019392,-90.2090301514,-90.2090301514,-56.7611656189,99.8224639893,2027,2057,2126,2019,2019,2661,3309,3337,3138,3290,3006,2970,3050,3089,3165,2970,3398,3391,3239,3295,2958,3280,3311,3036,0.010031566,1.39994685,1.40441924,0.453785598278,4500.0,0.423287332058,0.00924694444984,-0.0304982792586,137.242263794,0.0,6000.0,-0.00366786285304,-0.00642185565084,-0.00366786285304,24.0413990021,0.349065840244,0.0216827709228,-0.00154567230493,0.308439224958,-0.0171285513788,-0.0171285513788,0.000528436095919,-0.0452756360173,112.862243652,112.862243652,0.225737541914,62.8396949768,2028,2028,2557,2024,2024,2941,3429,3430,3252,3370,3096,3052,3159,3147,3244,2862,3414,3422,3260,3376,3150,3359,3393,3199
1508404311741256688,141,1508404311740969551,plot_matl,0.25,-2000.0,0.215540736914,0.00713198026642,-0.0344592630863,-67.3972930908,0.349065840244,0.0742214769125,-0.00366401183419,0.215501114726,0.00526885874569,0.00526885874569,0.00692208344117,0.00647422019392,-90.2090301514,-90.2090301514,-56.7611656189,99.8224639893,2014,2047,2126,2019,2019,2661,3308,3338,3140,3292,3004,2969,3062,3098,3175,2976,3398,3391,3239,3295,2958,3280,3311,3036,0.009985819,1.40993351,1.408000479,0.453785598278,4500.0,0.421937853098,-0.0188073664904,-0.0318477600813,143.314926147,0.0,6000.0,-0.0036530578509,-0.00627567060292,-0.0036530578509,24.1884899139,0.349065840244,0.0216827709228,-0.00154567230493,0.308439224958,-0.0171285513788,-0.0171285513788,0.000528436095919,-0.0452756360173,112.862243652,112.862243652,0.225737541914,62.8396949768,2023,2022,2557,2024,2024,2941,3430,3430,3250,3369,3097,3050,3170,3158,3250,2871,3414,3422,3260,3376,3150,3359,3393,3199
1508404311751381487,142,1508404311750975174,plot_matl,0.25,-2000.0,0.215553596616,-0.0312533415854,-0.0344464033842,-77.2680511475,0.349065840244,0.0728719979525,-0.0036530578509,0.215540736914,-0.00940368324518,-0.00940368324518,-0.00627567060292,0.00713198026642,-89.9254302979,-89.9254302979,-56.8222846985,99.7257843018,2032,2064,2127,2017,2017,2661,3308,3338,3140,3292,3004,2969,3062,3098,3175,2976,3405,3401,3248,3298,2962,3285,3314,3040,0.010016174,1.419939416,1.422296708,0.453785598278,4500.0,0.423287332058,0.00733308121562,-0.0304982792586,137.242263794,0.0,6000.0,-0.00367494556122,0.0075014680624,-0.00367494556122,19.7567806244,0.349065840244,0.0216827709228,-0.00153718597721,0.308498322964,-0.0195048581809,-0.0195048581809,0.000357209297363,-0.0444654040039,112.647369385,112.647369385,0.465436995029,62.5729904175,2033,2031,2557,2024,2024,2941,3430,3430,3250,3369,3097,3050,3170,3158,3250,2871,3422,3428,3267,3380,3153,3362,3397,3204
1508404311761197361,143,1508404311760967387,plot_matl,0.25,-2000.0,0.21546562016,-0.0297404397279,-0.0345343835652,-77.0005722046,0.349065840244,0.0728719979525,-0.0036530578509,0.215540736914,-0.00940368324518,-0.00940368324518,-0.00627567060292,0.00713198026642,-89.9254302979,-89.9254302979,-56.8222846985,99.7257843018,2033,2055,2127,2017,2017,2666,3311,3338,3143,3293,3007,2970,3048,3090,3175,2976,3405,3401,3248,3298,2962,3285,3314,3040,0.009980199,1.429931356,1.427168457,0.453785598278,4500.0,0.421937853098,-0.0196912847459,-0.0318477600813,143.314926147,0.0,6000.0,-0.00370862288401,-0.005306574516,-0.00370862288401,24.0637836456,0.349065840244,0.0216827709228,-0.00153718597721,0.308498322964,-0.0195048581809,-0.0195048581809,0.000357209297363,-0.0444654040039,112.647369385,112.647369385,0.465436995029,62.5729904175,2028,2028,2557,2024,2024,2942,3434,3434,3254,3370,3097,3053,3159,3150,3250,2871,3422,3428,3267,3380,3153,3362,3397,3204
1508404311771340524,144,1508404311771001596,plot_matl,0.25,-2000.0,0.215429574251,0.00867447350174,-0.0345704220235,-67.2083892822,0.349065840244,0.0728719979525,-0.0036530578509,0.215540736914,-0.00940368324518,-0.00940368324518,-0.00627567060292,0.00713198026642,-89.9254302979,-89.9254302979,-56.8222846985,99.7257843018,2023,2050,2127,2017,2017,2666,3311,3338,3143,3293,3007,2970,3048,3090,3169,2969,3401,3393,3241,3295,2959,3280,3312,3035,0.010034906,1.439966249,1.445026464,0.453785598278,4500.0,0.423287332058,0.00953964050859,-0.0304982792586,137.242263794,0.0,6000.0,-0.0037122911308,-0.00528975203633,-0.0037122911308,23.970872879,0.349065840244,0.0216827709228,-0.00153718597721,0.308498322964,-0.0195048581809,-0.0195048581809,0.000357209297363,-0.0444654040039,112.647369385,112.647369385,0.465436995029,62.5729904175,2025,2022,2557,2024,2024,2942,3434,3434,3254,3370,3097,3053,3159,3150,3244,2864,3416,3424,3260,3376,3151,3358,3393,3200
1508404311781395182,145,1508404311780977756,plot_matl,0.25,-2000.0,0.215464413166,0.00783697888255,-0.0345355831087,-67.3733520508,0.349065840244,0.0728719979525,-0.0036530578509,0.215540736914,-0.00940368324518,-0.00940368324518,-0.00627567060292,0.00713198026642,-89.9254302979,-89.9254302979,-56.8222846985,99.7257843018,2036,2058,2126,2019,2019,2663,3309,3339,3141,3292,3006,2972,3048,3090,3169,2969,3401,3393,3241,3295,2959,3280,3312,3035,0.009975613,1.449942154,1.446463885,0.453785598278,4500.0,0.421937853098,-0.0193935018033,-0.0318477600813,143.314926147,0.0,6000.0,-0.00373691949062,0.00858494918793,-0.00373691949062,19.9490337372,0.349065840244,0.0216827709228,-0.00153718597721,0.308498322964,-0.0195048581809,-0.0195048581809,0.000357209297363,-0.0444654040039,112.647369385,112.647369385,0.465436995029,62.5729904175,2025,2026,2557,2027,2027,2942,3429,3429,3252,3371,3095,3052,3159,3150,3244,2864,3416,3424,3260,3376,3151,3358,3393,3200
1508404311791296693,146,1508404311790979818,plot_matl,0.25,-2000.0,0.215420871973,-0.0293115247041,-0.0345791243017,-76.327003479,0.349065840244,0.0728719979525,-0.00373691949062,0.215464413166,-0.00969675090164,-0.00969675090164,0.00858494918793,0.00783697888255,-89.9781112671,-89.9781112671,-56.5455780029,99.8833618164,2045,2073,2126,2019,2019,2663,3309,3339,3141,3292,3006,2972,3049,3088,3166,2970,3398,3392,3240,3296,2960,3280,3312,3035,0.010001334,1.459944069,1.460194764,0.453785598278,4500.0,0.423287332058,0.00787264015526,-0.0304982792586,137.242263794,0.0,6000.0,-0.00376888480969,0.00919108558446,-0.00376888480969,19.9045810699,0.349065840244,0.0240919683129,-0.00152574386448,0.308491021395,0.0059187496081,0.0059187496081,0.000134021276608,0.0164072010666,112.362449646,112.362449646,0.487303465605,62.6191101074,2039,2037,2557,2027,2027,2942,3429,3429,3252,3371,3095,3052,3160,3148,3241,2864,3416,3424,3260,3375,3150,3357,3393,3200
1508404311801372960,147,1508404311800983392,plot_matl,0.25,-2000.0,0.215355157852,-0.0280647538602,-0.0346448421478,-76.1181106567,0.349065840244,0.0728719979525,-0.00373691949062,0.215464413166,-0.00969675090164,-0.00969675090164,0.00858494918793,0.00783697888255,-89.9781112671,-89.9781112671,-56.5455780029,99.8833618164,2043,2071,2125,2015,2015,2662,3309,3336,3140,3292,3006,2972,3049,3088,3166,2970,3398,3392,3240,3296,2960,3280,3313,3035,0.010004594,1.46994841,1.470675318,0.453785598278,4500.0,0.423287332058,0.00653143506497,-0.0304982792586,137.242263794,0.0,6000.0,-0.00377324572764,-0.00417415425181,-0.00377324572764,23.9307556152,0.349065840244,0.0240919683129,-0.00152574386448,0.308491021395,0.0059187496081,0.0059187496081,0.000134021276608,0.0164072010666,112.362449646,112.362449646,0.487303465605,62.6191101074,2042,2037,2556,2029,2029,2941,3430,3432,3253,3368,3095,3052,3160,3148,3241,2864,3416,3424,3260,3375,3150,3357,3393,3197
1508404311811307325,148,1508404311811002920,plot_matl,0.25,-2000.0,0.215303406119,-0.0271023940295,-0.0346965976059,-76.0315856934,0.349065840244,0.0728719979525,-0.00373691949062,0.215464413166,-0.00969675090164,-0.00969675090164,0.00858494918793,0.00783697888255,-89.9781112671,-89.9781112671,-56.5455780029,99.8833618164,1984,2034,2125,2015,2015,2662,3309,3336,3140,3292,3004,2971,3050,3088,3168,2969,3398,3391,3242,3296,2960,3280,3313,3035,0.01001817,1.479967287,1.48268916,0.453785598278,4500.0,0.421937853098,-0.0193966254592,-0.0318477600813,143.314926147,0.0,6000.0,-0.00376576790586,-0.00435238797218,-0.00376576790586,23.9433631897,0.349065840244,0.0240919683129,-0.00152574386448,0.308491021395,0.0059187496081,0.0059187496081,0.000134021276608,0.0164072010666,112.362449646,112.362449646,0.487303465605,62.6191101074,1997,2009,2556,2029,2029,2941,3430,3432,3253,3368,3096,3049,3158,3147,3243,2864,3414,3426,3261,3376,3150,3357,3393,3197
1508404311821296469,149,1508404311820971130,plot_matl,0.25,-2000.0,0.215252548456,-0.0261273328215,-0.0347474478185,-76.4648590088,0.349065840244,0.0728719979525,-0.00373691949062,0.215464413166,-0.00969675090164,-0.00969675090164,0.00858494918793,0.00783697888255,-89.9781112671,-89.9781112671,-56.5455780029,99.8833618164,2045,2093,2126,2017,2017,2662,3311,3340,3140,3292,3004,2971,3050,3088,3168,2969,3398,3391,3242,3296,2958,3279,3310,3035,0.009967971,1.489935481,1.485227679,0.453785598278,4500.0,0.421937853098,-0.0187606625259,-0.0318477600813,143.314926147,0.0,6000.0,-0.00374207831919,0.00857749395072,-0.00374207831919,19.6586170197,0.349065840244,0.0240919683129,-0.00152574386448,0.308491021395,0.0059187496081,0.0059187496081,0.000134021276608,0.0164072010666,112.362449646,112.362449646,0.487303465605,62.6191101074,2044,2047,2556,2026,2026,2940,3433,3433,3253,3368,3096,3049,3158,3147,3243,2864,3414,3426,3261,3376,3149,3359,3394,3200
1508404311831443998,150,1508404311830978297,plot_matl,0.25,-2000.0,0.215224042535,0.0122524797916,-0.0347759574652,-66.444694519,0.349065840244,0.0728719979525,-0.00374207831919,0.215252548456,-0.00938033126295,-0.00938033126295,0.00857749395072,-0.0261273328215,-90.0580444336,-90.0580444336,-56.9953422546,99.6113891602,2005,2044,2126,2017,2017,2662,3311,3340,3139,3293,3005,2970,3050,3089,3169,2969,3399,3394,3242,3296,2958,3279,3310,3035,0.010006877,1.499942569,1.50103155,0.453785598278,4500.0,0.421937853098,-0.0177779346704,-0.0318477600813,143.314926147,0.0,6000.0,-0.00371589907445,-0.00539665296674,-0.00371589907445,24.0600414276,0.349065840244,0.0240919683129,-0.00155719683971,0.308140099049,0.00482993898913,0.00482993898913,-0.0145893050358,0.0230601541698,112.440231323,112.440231323,0.675181627274,62.8532714844,2017,2016,2556,2026,2026,2940,3433,3433,3254,3370,3097,3049,3158,3148,3242,2863,3416,3422,3261,3376,3149,3359,3394,3200
1508404311841526528,151,1508404311840988785,plot_matl,0.25,-2000.0,0.215270921588,0.0113550266251,-0.0347290784121,-66.8775787354,0.349065840244,0.0728719979525,-0.00374207831919,0.215252548456,-0.00938033126295,-0.00938033126295,0.00857749395072,-0.0261273328215,-90.0580444336,-90.0580444336,-56.9953422546,99.6113891602,1980,2017,2127,2017,2017,2663,3311,3340,3139,3293,3005,2970,3050,3089,3169,2969,3399,3394,3241,3294,2959,3280,3313,3037,0.010011856,1.509953457,1.511790256,0.453785598278,4500.0,0.423287332058,0.00921729300171,-0.0304982792586,137.242263794,0.0,6000.0,-0.00370620889589,0.00781239382923,-0.00370620889589,19.9831962585,0.349065840244,0.0240919683129,-0.00155719683971,0.308140099049,0.00482993898913,0.00482993898913,-0.0145893050358,0.0230601541698,112.440231323,112.440231323,0.675181627274,62.8532714844,1990,1995,2557,2028,2028,2941,3433,3433,3254,3370,3097,3049,3158,3148,3242,2863,3416,3422,3261,3375,3148,3355,3395,3199
1508404311851192133,152,1508404311850961480,plot_matl,0.25,-2000.0,0.215370923281,0.00928798224777,-0.0346290767193,-67.0046234131,0.349065840244,0.0728719979525,-0.00374207831919,0.215252548456,-0.00938033126295,-0.00938033126295,0.00857749395072,-0.0261273328215,-90.0580444336,-90.0580444336,-56.9953422546,99.6113891602,2053,2078,2127,2017,2017,2663,3310,3337,3138,3290,3006,2970,3048,3087,3166,2969,3399,3394,3241,3294,2959,3280,3313,3037,0.009969919,1.519925176,1.515427688,0.453785598278,4500.0,0.421937853098,-0.0177251826972,-0.0318477600813,143.314926147,0.0,6000.0,-0.00370567664504,0.00781090185046,-0.00370567664504,19.830947876,0.349065840244,0.0240919683129,-0.00155719683971,0.308140099049,0.00482993898913,0.00482993898913,-0.0145893050358,0.0230601541698,112.440231323,112.440231323,0.675181627274,62.8532714844,2048,2040,2557,2028,2028,2941,3433,3431,3250,3370,3096,3051,3159,3148,3242,2862,3416,3422,3261,3375,3148,3355,3395,3199
1508404311861244122,153,1508404311860965098,plot_matl,0.25,-2000.0,0.215382665396,-0.0289081130177,-0.0346173383296,-76.0567321777,0.349065840244,0.0728719979525,-0.00374207831919,0.215252548456,-0.00938033126295,-0.00938033126295,0.00857749395072,-0.0261273328215,-90.0580444336,-90.0580444336,-56.9953422546,99.6113891602,2020,2045,2126,2018,2018,2663,3310,3337,3138,3290,3006,2970,3048,3087,3166,2969,3399,3392,3241,3294,2959,3279,3313,3035,0.010003917,1.529929536,1.530599301,0.453785598278,4500.0,0.423287332058,0.0112477624789,-0.0304982792586,137.242263794,0.0,6000.0,-0.00366181717254,-0.00651034060866,-0.00366181717254,23.8966178894,0.349065840244,0.0240919683129,-0.00155719683971,0.308140099049,0.00482993898913,0.00482993898913,-0.0145893050358,0.0230601541698,112.440231323,112.440231323,0.675181627274,62.8532714844,2021,2016,2557,2024,2024,2941,3433,3431,3250,3370,3096,3051,3159,3148,3242,2862,3415,3423,3259,3374,3147,3358,3394,3199
1508404311871491201,154,1508404311871042172,plot_matl,0.25,-2000.0,0.215322881937,-0.0277484338731,-0.0346771217883,-76.3052062988,0.349065840244,0.0742214769125,-0.00366181717254,0.215382665396,0.00562388123944,0.00562388123944,-0.00651034060866,-0.0289081130177,-90.2329559326,-90.2329559326,-56.7753829956,99.3523406982,1977,2009,2126,2018,2018,2662,3309,3336,3140,3291,3006,2970,3051,3087,3166,2969,3399,3392,3241,3294,2959,3279,3313,3035,0.010077122,1.540006494,1.551876788,0.453785598278,4500.0,0.423287332058,0.0101589886472,-0.0304982792586,137.242263794,0.0,6000.0,-0.0036619331222,-0.00654312130064,-0.0036619331222,24.0180168152,0.349065840244,0.0240919683129,-0.00155212171376,0.308413654566,0.00602759001777,0.00602759001777,0.00066534022335,-0.0445462726057,112.619178772,112.619178772,0.163705870509,62.8408927917,1992,1990,2557,2024,2024,2940,3430,3431,3252,3369,3096,3050,3160,3147,3242,2862,3415,3423,3259,3374,3147,3358,3394,3199
1508404311881325594,155,1508404311880966284,plot_matl,0.25,-2000.0,0.215311169624,-0.0275728423148,-0.0346888378263,-75.3600158691,0.349065840244,0.0742214769125,-0.00366181717254,0.215382665396,0.00562388123944,0.00562388123944,-0.00651034060866,-0.0289081130177,-90.2329559326,-90.2329559326,-56.7753829956,99.3523406982,2051,2085,2126,2018,2018,2662,3309,3336,3140,3291,3006,2970,3051,3087,3167,2970,3397,3392,3242,3295,2959,3280,3312,3035,0.009923295,1.549930411,1.538110725,0.453785598278,4500.0,0.421937853098,-0.0159692578018,-0.0318477600813,143.314926147,0.0,6000.0,-0.0036619331222,-0.00654312130064,-0.0036619331222,24.0180168152,0.349065840244,0.0240919683129,-0.00155212171376,0.308413654566,0.00602759001777,0.00602759001777,0.00066534022335,-0.0445462726057,112.619178772,112.619178772,0.163705870509,62.8408927917,2052,2047,2557,2024,2024,2940,3430,3431,3252,3369,3096,3050,3160,3147,3242,2862,3416,3425,3258,3375,3148,3357,3393,3201
1508404311891361190,156,1508404311890971865,plot_matl,0.25,-2000.0,0.215200215578,-0.0253149308264,-0.0347997844219,-75.6872634888,0.349065840244,0.0742214769125,-0.00366181717254,0.215382665396,0.00562388123944,0.00562388123944,-0.00651034060866,-0.0289081130177,-90.2329559326,-90.2329559326,-56.7753829956,99.3523406982,2010,2050,2126,2018,2018,2661,3311,3337,3138,3289,3005,2969,3051,3087,3167,2970,3397,3392,3242,3295,2959,3280,3312,3035,0.010005993,1.559936614,1.560934908,0.453785598278,4500.0,0.423287332058,0.0107035767287,-0.0304982792586,137.242263794,0.0,6000.0,-0.00367173738778,0.00705184275284,-0.00367173738778,19.9145431519,0.349065840244,0.0240919683129,-0.00155212171376,0.308413654566,0.00602759001777,0.00602759001777,0.00066534022335,-0.0445462726057,112.619178772,112.619178772,0.163705870509,62.8408927917,2019,2017,2557,2025,2025,2941,3432,3431,3252,3369,3096,3052,3160,3147,3242,2862,3416,3425,3258,3375,3148,3357,3393,3201
1508404311901381510,157,1508404311901038566,plot_matl,0.25,-2000.0,0.215211391449,0.0123702753335,-0.0347886048257,-66.6907196045,0.349065840244,0.0742214769125,-0.00366181717254,0.215382665396,0.00562388123944,0.00562388123944,-0.00651034060866,-0.0289081130177,-90.2329559326,-90.2329559326,-56.7753829956,99.3523406982,1987,2017,2126,2018,2018,2661,3311,3337,3138,3289,3005,2969,3049,3088,3168,2969,3400,3392,3242,3295,2959,3282,3312,3035,0.010066816,1.570003484,1.580490112,0.453785598278,4500.0,0.423287332058,0.0112315639853,-0.0304982792586,137.242263794,0.0,6000.0,-0.0036825533025,-0.00615121331066,-0.0036825533025,23.8981571198,0.349065840244,0.0240919683129,-0.00155212171376,0.308413654566,0.00602759001777,0.00602759001777,0.00066534022335,-0.0445462726057,112.619178772,112.619178772,0.163705870509,62.8408927917,2000,2000,2557,2025,2025,2941,3432,3431,3252,3369,3096,3052,3157,3148,3242,2862,3415,3423,3259,3374,3150,3357,3393,3201
1508404311911440434,158,1508404311911002979,plot_matl,0.25,-2000.0,0.215211391449,0.0123702753335,-0.0347886048257,-66.6907196045,0.349065840244,0.0742214769125,-0.0036825533025,0.215211391449,0.00561578199267,0.00561578199267,-0.00615121331066,0.0123702753335,-90.4043502808,-90.4043502808,-56.5507659912,99.6755218506,2038,2082,2126,2018,2018,2663,3309,3338,3140,3291,3005,2969,3049,3088,3168,2969,3400,3392,3242,3295,2959,3282,3313,3036,0.009963701,1.579967607,1.574264758,0.453785598278,4500.0,0.423287332058,0.0112315639853,-0.0304982792586,137.242263794,0.0,6000.0,-0.0036825533025,-0.00615121331066,-0.0036825533025,23.8981571198,0.349065840244,0.0240919683129,-0.00155664840713,0.308246135712,0.00352710206062,0.00352710206062,0.000765899952967,0.0205721184611,112.980278015,112.980278015,1.03244769573,62.6346931458,2038,2043,2557,2030,2030,2941,3430,3433,3251,3370,3096,3052,3157,3148,3242,2862,3415,3423,3259,3374,3150,3357,3394,3198
1508404311921407399,159,1508404311920975295,plot_matl,0.25,-2000.0,0.215184539557,0.0133376307786,-0.0348154604435,-63.0634002686,0.349065840244,0.0742214769125,-0.0036825533025,0.215211391449,0.00561578199267,0.00561578199267,-0.00615121331066,0.0123702753335,-90.4043502808,-90.4043502808,-56.5507659912,99.6755218506,2038,2082,2126,2018,2018,2663,3309,3338,3140,3291,3005,2969,3049,3088,3168,2969,3400,3392,3242,3295,2959,3282,3313,3036,0.009971074,1.589939397,1.585400766,0.453785598278,4500.0,0.421937853098,-0.0146569469944,-0.0318477600813,143.314926147,0.0,6000.0,-0.00369694828987,0.0077148322016,-0.00369694828987,17.3441905975,0.349065840244,0.0240919683129,-0.00155664840713,0.308246135712,0.00352710206062,0.00352710206062,0.000765899952967,0.0205721184611,112.980278015,112.980278015,1.03244769573,62.6346931458,2038,2043,2557,2030,2030,2941,3430,3433,3251,3370,3096,3052,3157,3148,3242,2862,3415,3423,3259,3374,3150,3357,3394,3198
1508404311931458930,160,1508404311930976657,plot_matl,0.25,-2000.0,0.215184539557,0.0133376307786,-0.0348154604435,-63.0634002686,0.349065840244,0.0742214769125,-0.0036825533025,0.215211391449,0.00561578199267,0.00561578199267,-0.00615121331066,0.0123702753335,-90.4043502808,-90.4043502808,-56.5507659912,99.6755218506,2038,2082,2126,2018,2018,2663,3309,3338,3140,3291,3005,2969,3049,3088,3168,2969,3400,3392,3242,3295,2959,3282,3313,3036,0.010001763,1.599941265,1.60028208,0.453785598278,4500.0,0.421937853098,-0.0146569469944,-0.0318477600813,143.314926147,0.0,6000.0,-0.00369694828987,0.0077148322016,-0.00369694828987,17.3441905975,0.349065840244,0.0240919683129,-0.00155664840713,0.308246135712,0.00352710206062,0.00352710206062,0.000765899952967,0.0205721184611,112.980278015,112.980278015,1.03244769573,62.6346931458,2038,2043,2557,2030,2030,2941,3430,3433,3251,3370,3096,3052,3157,3148,3242,2862,3415,3423,3259,3374,3150,3357,3394,3198
1508404311941367591,161,1508404311941037391,plot_matl,0.25,-2000.0,0.215345621109,-0.0277127735317,-0.034654378891,-76.1679916382,0.349065840244,0.0742214769125,-0.0036825533025,0.215211391449,0.00561578199267,0.00561578199267,-0.00615121331066,0.0123702753335,-90.4043502808,-90.4043502808,-56.5507659912,99.6755218506,1992,2018,2126,2018,2018,2663,3309,3338,3140,3291,3008,2977,3057,3099,3180,2982,3415,3408,3253,3307,2959,3282,3313,3036,0.010059739,1.61000157,1.619617979,0.453785598278,4500.0,0.423287332058,0.0138373058289,-0.0304982792586,137.242263794,0.0,6000.0,-0.00368106458336,0.0072394949384,-0.00368106458336,19.8925571442,0.349065840244,0.0240919683129,-0.00155664840713,0.308246135712,0.00352710206062,0.00352710206062,0.000765899952967,0.0205721184611,112.980278015,112.980278015,1.03244769573,62.6346931458,2000,1998,2557,2030,2030,2941,3430,3433,3251,3370,3100,3058,3166,3159,3255,2875,3428,3438,3274,3387,3150,3357,3394,3198
1508404311951352086,162,1508404311951018797,plot_matl,0.25,-2000.0,0.215345621109,-0.0277127735317,-0.034654378891,-76.1679916382,0.349065840244,0.0728719979525,-0.00375168933533,0.215497791767,-0.00640858337283,-0.00640858337283,-0.00558090535924,0.0453424081206,-90.3361434937,-90.3361434937,-56.9266624451,99.6841201782,2062,2088,2127,2018,2018,2668,3319,3361,3140,3291,3008,2977,3057,3099,3180,2982,3415,3408,3253,3307,2969,3292,3322,3046,0.009980946,1.619983028,1.616913252,0.453785598278,4500.0,0.423287332058,0.0138373058289,-0.0304982792586,137.242263794,0.0,6000.0,-0.00368106458336,0.0072394949384,-0.00368106458336,19.8925571442,0.349065840244,0.0240919683129,-0.00155489519238,0.308724731207,0.00596635229886,0.00596635229886,0.00062360818265,0.0154036991298,112.81072998,112.81072998,1.0975933075,62.6609115601,2055,2054,2557,2024,2024,2946,3441,3453,3251,3370,3100,3058,3166,3159,3255,2875,3428,3438,3274,3387,3157,3368,3402,3208
1508404311961338906,163,1508404311960972341,plot_matl,0.25,-2000.0,0.215537875891,0.00609151739627,-0.0344621241093,-66.1341552734,0.349065840244,0.0728719979525,-0.00375168933533,0.215497791767,-0.00640858337283,-0.00640858337283,-0.00558090535924,0.0453424081206,-90.3361434937,-90.3361434937,-56.9266624451,99.6841201782,1989,2039,2127,2018,2018,2668,3319,3361,3161,3314,3027,2989,3066,3104,3182,2981,3414,3406,3253,3307,2969,3292,3322,3046,0.009954045,1.629936789,1.622509335,0.453785598278,4500.0,0.421937853098,-0.0135050881654,-0.0318477600813,143.314926147,0.0,6000.0,-0.00372802047059,0.0075747827068,-0.00372802047059,17.3579959869,0.349065840244,0.0240919683129,-0.00155489519238,0.308724731207,0.00596635229886,0.00596635229886,0.00062360818265,0.0154036991298,112.81072998,112.81072998,1.0975933075,62.6609115601,2005,2016,2557,2024,2024,2946,3441,3453,3272,3390,3115,3069,3174,3163,3256,2876,3425,3434,3274,3387,3157,3368,3402,3208
1508404311971501407,164,1508404311971042276,plot_matl,0.25,-2000.0,0.215558841825,0.00559999560937,-0.0344411544502,-67.6533126831,0.349065840244,0.0728719979525,-0.00375168933533,0.215497791767,-0.00640858337283,-0.00640858337283,-0.00558090535924,0.0453424081206,-90.3361434937,-90.3361434937,-56.9266624451,99.6841201782,2056,2106,2126,2016,2016,2669,3319,3361,3161,3314,3027,2989,3066,3104,3182,2981,3414,3406,3253,3307,2969,3290,3322,3043,0.010070023,1.640007275,1.651483772,0.453785598278,4500.0,0.423287332058,0.0132633130997,-0.0304982792586,137.242263794,0.0,6000.0,-0.00374448741786,-0.0055128368549,-0.00374448741786,23.8907413483,0.349065840244,0.0240919683129,-0.00155489519238,0.308724731207,0.00596635229886,0.00596635229886,0.00062360818265,0.0154036991298,112.81072998,112.81072998,1.0975933075,62.6609115601,2052,2059,2557,2023,2023,2947,3441,3453,3272,3390,3115,3069,3174,3163,3256,2876,3425,3434,3269,3391,3159,3367,3404,3210
1508404311981340837,165,1508404311980986198,plot_matl,0.25,-2000.0,0.21557110548,0.00528802489862,-0.0344288945198,-67.6363983154,0.349065840244,0.0728719979525,-0.00375168933533,0.215497791767,-0.00640858337283,-0.00640858337283,-0.00558090535924,0.0453424081206,-90.3361434937,-90.3361434937,-56.9266624451,99.6841201782,2034,2076,2126,2016,2016,2669,3314,3344,3145,3299,3012,2975,3053,3093,3171,2973,3414,3406,3253,3307,2969,3290,3322,3043,0.009943351,1.649950781,1.640652915,0.453785598278,4500.0,0.423287332058,0.014257744886,-0.0304982792586,137.242263794,0.0,6000.0,-0.00370325823314,0.00719073880464,-0.00370325823314,19.8855476379,0.349065840244,0.0240919683129,-0.00155489519238,0.308724731207,0.00596635229886,0.00596635229886,0.00062360818265,0.0154036991298,112.81072998,112.81072998,1.0975933075,62.6609115601,2033,2033,2557,2023,2023,2947,3437,3436,3256,3375,3102,3056,3163,3152,3248,2867,3425,3434,3269,3391,3159,3367,3404,3210
