%time,field.header.seq,field.header.stamp,field.header.frame_id,field.FFJ4_set_point,field.FFJ4_position_gain,field.FFJ4_process_value,field.FFJ4_process_value_dot,field.FFJ4_error,field.FFJ4_command,field.FFJ1,field.FFJ2,field.FFJ3,field.FFJ4,field.FFJ1_dot,field.FFJ2_dot,field.FFJ3_dot,field.FFJ4_dot,field.FFJ1_tao,field.FFJ2_tao,field.FFJ3_tao,field.FFJ4_tao,field.pac0,field.pac1,field.pdc0,field.tac0,field.tdc0,field.el0,field.el1,field.el2,field.el3,field.el4,field.el5,field.el6,field.el7,field.el8,field.el9,field.el10,field.el11,field.el12,field.el13,field.el14,field.el15,field.el16,field.el17,field.el18,field.dt,field.time,field.test_time2,field.FFJ0_set_point,field.FFJ0_position_gain,field.FFJ0_process_value,field.FFJ0_process_value_dot,field.FFJ0_error,field.FFJ0_command,field.FFJ3_set_point,field.FFJ3_position_gain,field.FFJ3_process_value,field.FFJ3_process_value_dot,field.FFJ3_error,field.FFJ3_command,field.MFJ1,field.MFJ2,field.MFJ3,field.MFJ4,field.MFJ1_dot,field.MFJ2_dot,field.MFJ3_dot,field.MFJ4_dot,field.MFJ1_tao,field.MFJ2_tao,field.MFJ3_tao,field.MFJ4_tao,field.Mpac0,field.Mpac1,field.Mpdc0,field.Mtac0,field.Mtdc0,field.Mel0,field.Mel1,field.Mel2,field.Mel3,field.Mel4,field.Mel5,field.Mel6,field.Mel7,field.Mel8,field.Mel9,field.Mel10,field.Mel11,field.Mel12,field.Mel13,field.Mel14,field.Mel15,field.Mel16,field.Mel17,field.Mel18
1508403535675564742,112,1508403535675365579,plot_matl,-0.300000011921,-3000.0,-0.265404075384,0.00110002874862,0.0345959104598,104.046295166,0.349065840244,0.0674740672112,-0.0110168848187,-0.265406638384,0.00238746264949,0.00238746264949,0.00783742778003,0.00115131039638,4.4788403511,4.4788403511,-0.232428655028,-109.493789673,1969,2015,2114,2017,2017,2793,3341,3357,3168,3301,3022,2964,3060,3068,3160,2858,3361,3359,3186,3263,2904,3276,3301,3022,0.009993541,1.119987632,1.119276592,0.401425719261,4500.0,0.416539907455,0.00507120788097,0.0151141919196,-68.0138626099,0.0,6000.0,-0.01101342123,0.00777428690344,-0.01101342123,63.8309860229,0.349065840244,0.0289103612304,-0.032657623291,0.303628116846,0.00914367847145,0.00914367847145,-8.37224724819e-05,-0.00996658857912,165.687942505,165.687942505,-247.108215332,-69.2685470581,1984,1990,2634,2040,2040,3055,3443,3439,3291,3374,3118,3006,3145,3095,3222,2722,3380,3396,3224,3354,3121,3342,3384,3192
1508403535685552414,113,1508403535685367004,plot_matl,-0.300000011921,-3000.0,-0.265415668488,0.00133608235046,0.0345843322575,104.084030151,0.349065840244,0.0674740672112,-0.0110175851732,-0.265411794186,0.00243200687692,0.00243200687692,0.00784552749246,0.00125814846251,4.39223051071,4.39223051071,-0.256034970284,-109.65813446,1987,2017,2116,2021,2021,2794,3341,3356,3168,3301,3022,2964,3060,3068,3160,2858,3361,3359,3186,3263,2906,3277,3303,3023,0.0100014,1.129988988,1.1301582,0.401425719261,4500.0,0.416539907455,0.00516530731693,0.0151141919196,-68.0138626099,0.0,6000.0,-0.0110143460333,0.00778311863542,-0.0110143460333,63.702003479,0.349065840244,0.0289103612304,-0.0326455123723,0.303816884756,0.00921005569398,0.00921005569398,-0.000324684486259,-0.0137260127813,165.744384766,165.744384766,-247.056518555,-69.4060440063,2001,2001,2635,2040,2040,3057,3440,3439,3291,3374,3118,3006,3145,3095,3222,2722,3380,3396,3224,3354,3121,3342,3383,3191
1508403535695550573,114,1508403535695372046,plot_matl,-0.300000011921,-3000.0,-0.265414595604,0.00131522666197,0.0345854088664,104.072273254,0.349065840244,0.0674740672112,-0.0109963770956,-0.265410780907,0.00293341232464,0.00293341232464,-0.00601226277649,0.00123846204951,4.32122135162,4.32122135162,-0.139277651906,-109.200431824,1997,2028,2116,2021,2021,2794,3341,3356,3170,3297,3020,2964,3060,3070,3160,2860,3361,3358,3186,3263,2906,3277,3303,3023,0.010005492,1.139994535,1.140626088,0.401425719261,4500.0,0.416539907455,0.00623047305271,0.0151141919196,-68.0138626099,0.0,6000.0,-0.011005259119,0.00759027944878,-0.011005259119,63.7728157043,0.349065840244,0.0289103612304,-0.032663218677,0.303693652153,0.00844763964415,0.00844763964415,-0.0153089994565,-0.0112410727888,165.823226929,165.823226929,-246.960968018,-69.7217254639,2001,2002,2635,2040,2040,3057,3440,3439,3290,3376,3118,3007,3144,3093,3221,2722,3378,3397,3224,3354,3121,3342,3383,3191
1508403535705503215,115,1508403535705369313,plot_matl,-0.300000011921,-3000.0,-0.265413731337,0.00130107894074,0.0345862656832,104.072288513,0.349065840244,0.0688235536218,-0.0109885176644,-0.265415728092,0.0162431783974,0.0162431783974,0.00724737485871,0.00134103151504,4.34207725525,4.34207725525,-0.165162801743,-109.132247925,2003,2029,2115,2020,2020,2796,3341,3356,3170,3297,3020,2964,3060,3070,3160,2860,3361,3358,3184,3265,2905,3275,3302,3023,0.009996379,1.149991008,1.149583585,0.401425719261,4500.0,0.416539907455,0.00612409133464,0.0151141919196,-68.0138626099,0.0,6000.0,-0.0109969899058,0.00742177525535,-0.0109969899058,63.7619628906,0.349065840244,0.0289103612304,-0.0326629281044,0.303759723902,0.00811150670052,0.00811150670052,2.8976073736e-05,-0.0744248181581,165.855361938,165.855361938,-247.034362793,-69.6156234741,2014,2006,2635,2038,2038,3058,3440,3439,3290,3376,3118,3007,3144,3093,3221,2722,3378,3397,3226,3354,3119,3341,3382,3192
1508403535715537148,116,1508403535715368846,plot_matl,-0.300000011921,-3000.0,-0.26541224122,0.00127169385087,0.0345877446234,104.072555542,0.349065840244,0.0674740672112,-0.0110078677535,-0.265420168638,0.00218179286458,0.00218179286458,-0.00579674588516,-0.00454395310953,4.3193397522,4.3193397522,0.0823241397738,-109.953315735,2009,2046,2115,2020,2020,2796,3342,3356,3172,3300,3020,2965,3059,3067,3163,2860,3361,3358,3184,3265,2905,3275,3302,3023,0.009999563,1.159990782,1.159949308,0.401425719261,4500.0,0.416539907455,0.00408457871526,0.0151141919196,-68.0138626099,0.0,6000.0,-0.0110034244135,-0.00588396145031,-0.0110034244135,67.8143615723,0.349065840244,0.0289103612304,-0.0326626934111,0.303646892309,0.008401023224,0.008401023224,2.3733564376e-05,-0.0102799450979,165.738571167,165.738571167,-247.099884033,-69.5958175659,2014,2021,2635,2038,2038,3058,3442,3439,3289,3375,3118,3005,3143,3093,3222,2721,3378,3397,3226,3354,3119,3341,3382,3192
1508403535725519934,117,1508403535725371371,plot_matl,-0.300000011921,-3000.0,-0.265416681767,0.00135318061803,0.0345833301544,104.091926575,0.349065840244,0.0661245882511,-0.011047099717,-0.265412807465,-0.0108350422233,-0.0108350422233,0.0084124635905,0.00127542263363,4.40069770813,4.40069770813,0.213832363486,-109.567565918,2015,2071,2116,2020,2020,2796,3342,3356,3172,3300,3020,2965,3059,3067,3163,2860,3364,3360,3185,3264,2907,3275,3303,3026,0.01000224,1.169993046,1.17026208,0.401425719261,4500.0,0.415190428495,-0.0218864008784,0.0137647101656,-61.9411964417,0.0,6000.0,-0.0110456384718,-0.00503664091229,-0.0110456384718,67.8595428467,0.349065840244,0.0289103612304,-0.032689537853,0.303560972214,0.0103826094419,0.0103826094419,0.000567439186852,-0.00852271728218,165.685073853,165.685073853,-247.008728027,-69.7174911499,2018,2031,2635,2040,2040,3058,3442,3439,3289,3375,3118,3005,3143,3093,3222,2721,3379,3397,3225,3353,3120,3341,3384,3191
1508403535735603707,118,1508403535735370678,plot_matl,-0.300000011921,-3000.0,-0.265415459871,0.0013311363291,0.0345845520496,104.096832275,0.349065840244,0.0674740672112,-0.0110671464354,-0.265423208475,0.00226818490773,0.00226818490773,0.00880828220397,-0.00448706373572,4.42821598053,4.42821598053,0.375314354897,-109.91053009,2024,2058,2116,2020,2020,2795,3340,3355,3173,3301,3021,2964,3058,3069,3163,2860,3364,3360,3185,3264,2907,3275,3303,3026,0.010000157,1.17999287,1.180018526,0.401425719261,4500.0,0.417889386415,0.032056491822,0.0164636727422,-74.0865249634,0.0,6000.0,-0.0110799157992,-0.00434989668429,-0.0110799157992,67.878326416,0.349065840244,0.0265011657029,-0.032671444118,0.303587645292,-0.0126810139045,-0.0126810139045,0.000183000214747,-0.0709280744195,165.859176636,165.859176636,-247.1144104,-69.5481872559,2020,2027,2635,2040,2040,3057,3441,3438,3290,3374,3121,3004,3143,3093,3222,2721,3379,3397,3225,3353,3120,3341,3384,3191
1508403535745605409,119,1508403535745375269,plot_matl,-0.300000011921,-3000.0,-0.26541352272,0.00129431439564,0.0345864705741,104.072807312,0.349065840244,0.0674740672112,-0.0110731543973,-0.265409916639,0.00183793180622,0.00183793180622,-0.00448883278295,0.00122087856289,4.49733114243,4.49733114243,0.417711555958,-109.497337341,2035,2065,2116,2020,2020,2795,3340,3355,3173,3301,3021,2964,3058,3069,3161,2857,3363,3361,3184,3265,2906,3276,3302,3025,0.010004509,1.189997384,1.190536571,0.401425719261,4500.0,0.415190428495,-0.0227982625365,0.0137647101656,-61.9411964417,0.0,6000.0,-0.0110593987629,-0.00476602232084,-0.0110593987629,67.7969055176,0.349065840244,0.0265011657029,-0.032655198127,0.303616523743,-0.0121400570497,-0.0121400570497,-0.000142584176501,-0.0097006270662,165.884719849,165.884719849,-247.045791626,-69.2618865967,2029,2031,2635,2040,2040,3057,3441,3438,3290,3374,3121,3004,3143,3093,3221,2717,3378,3396,3224,3353,3120,3341,3383,3191
1508403535755625208,120,1508403535755379736,plot_matl,-0.300000011921,-3000.0,-0.265413403511,0.00128820701502,0.0345865860581,104.039642334,0.349065840244,0.0674740672112,-0.0110766403377,-0.26541531086,0.00176348979585,0.00176348979585,-0.00442523136735,0.00133099907544,4.4430680275,4.4430680275,0.558461666107,-109.322463989,2036,2068,2116,2024,2024,2798,3339,3354,3170,3301,3024,2965,3058,3069,3161,2857,3363,3361,3184,3265,2906,3276,3302,3025,0.010004407,1.200001584,1.20052884,0.401425719261,4500.0,0.415190428495,-0.0235130097717,0.0137647101656,-61.9411964417,0.0,6000.0,-0.0110764279962,-0.00441999174654,-0.0110764279962,67.6545562744,0.349065840244,0.0289103612304,-0.0326563678682,0.303569823503,0.0112964706495,0.0112964706495,-0.00011662345787,-0.00893160514534,165.676773071,165.676773071,-247.07421875,-69.1418991089,2041,2036,2636,2041,2041,3058,3438,3440,3291,3375,3119,3006,3143,3093,3221,2717,3378,3396,3224,3353,3120,3341,3383,3191
1508403535765587103,121,1508403535765373822,plot_matl,-0.300000011921,-3000.0,-0.265412092209,0.00126419297885,0.0345879159868,104.066360474,0.349065840244,0.0661245882511,-0.0110805183649,-0.265408486128,-0.0114608351141,-0.0114608351141,-0.00434089358896,0.00119204854127,4.39999103546,4.39999103546,0.577632427216,-109.770233154,2023,2050,2116,2024,2024,2798,3339,3354,3170,3301,3024,2965,3060,3069,3163,2856,3359,3361,3186,3262,2906,3274,3302,3025,0.009993627,1.209995707,1.209228867,0.401425719261,4500.0,0.415190428495,-0.0226545277983,0.0137647101656,-61.9411964417,0.0,6000.0,-0.0110674817115,-0.00460361037403,-0.0110674817115,67.7791748047,0.349065840244,0.0265011657029,-0.0326853469014,0.303702890873,-0.011950599961,-0.011950599961,0.000463532458525,-0.0116826323792,165.765365601,165.765365601,-247.066192627,-68.9598388672,2019,2022,2636,2041,2041,3058,3438,3440,3291,3375,3119,3006,3145,3093,3223,2718,3379,3397,3225,3357,3118,3341,3383,3191
1508403535775581507,122,1508403535775387704,plot_matl,-0.300000011921,-3000.0,-0.265412092209,0.00126419297885,0.0345879159868,104.066360474,0.349065840244,0.0661245882511,-0.0110805183649,-0.265408486128,-0.0114608351141,-0.0114608351141,-0.00434089358896,0.00119204854127,4.39999103546,4.39999103546,0.577632427216,-109.770233154,2026,2067,2115,2025,2025,2796,3339,3356,3171,3298,3024,2965,3060,3069,3163,2856,3359,3361,3186,3262,2906,3274,3305,3025,0.010013875,1.220009552,1.22169275,0.401425719261,4500.0,0.416539907455,0.00426597241312,0.0151141919196,-68.0138626099,0.0,6000.0,-0.0110583724454,0.00863461382687,-0.0110583724454,63.5691719055,0.349065840244,0.0265011657029,-0.0326853469014,0.303702890873,-0.011950599961,-0.011950599961,0.000463532458525,-0.0116826323792,165.765365601,165.765365601,-247.066192627,-68.9598388672,2037,2037,2635,2041,2041,3056,3440,3439,3290,3375,3119,3006,3145,3093,3223,2718,3379,3397,3225,3357,3118,3341,3382,3190
1508403535785616874,123,1508403535785375849,plot_matl,-0.300000011921,-3000.0,-0.265411585569,0.00125708582345,0.0345884263515,104.090270996,0.349065840244,0.0674740672112,-0.011071914807,-0.265413761139,0.00201138667762,0.00201138667762,-0.00451690563932,-0.00467340787873,4.36267852783,4.36267852783,0.831710755825,-109.227325439,2026,2067,2115,2025,2025,2796,3339,3356,3171,3298,3024,2965,3060,3069,3163,2856,3359,3361,3186,3262,2906,3274,3305,3025,0.009987383,1.229997682,1.228448109,0.401425719261,4500.0,0.416539907455,0.00426597241312,0.0151141919196,-68.0138626099,0.0,6000.0,-0.0110583724454,0.00863461382687,-0.0110583724454,63.5691719055,0.349065840244,0.0265011657029,-0.0326810404658,0.303711026907,-0.0114840632305,-0.0114840632305,0.000379387114663,-0.0117814335972,165.761489868,165.761489868,-246.914794922,-69.0985794067,2037,2037,2635,2041,2041,3056,3440,3439,3290,3375,3119,3006,3145,3093,3223,2718,3379,3397,3225,3357,3118,3341,3382,3190
1508403535795485887,124,1508403535795367165,plot_matl,-0.300000011921,-3000.0,-0.265423923731,0.00153552030679,0.0345760807395,104.092956543,0.349065840244,0.0674740672112,-0.0110748596489,-0.265419155359,0.00214332784526,0.00214332784526,-0.00445478223264,0.00144403602462,4.33429718018,4.33429718018,0.732182741165,-108.874351501,2009,2046,2115,2025,2025,2796,3339,3356,3171,3298,3025,2971,3064,3072,3163,2861,3366,3360,3188,3267,2906,3274,3305,3025,0.009990785,1.23998874,1.23885734,0.401425719261,4500.0,0.416539907455,0.00437351688743,0.0151141919196,-68.0138626099,0.0,6000.0,-0.0110648069531,-0.00466527882963,-0.0110648069531,67.799118042,0.349065840244,0.0289103612304,-0.0326908752322,0.303661227226,0.0116753121838,0.0116753121838,0.000580487132538,-0.0107454610988,165.844299316,165.844299316,-246.995101929,-69.5127182007,2014,2013,2635,2041,2041,3056,3440,3439,3290,3375,3123,3009,3149,3098,3224,2723,3380,3399,3228,3356,3118,3341,3382,3190
1508403535805569784,125,1508403535805375447,plot_matl,-0.300000011921,-3000.0,-0.265421003103,0.0014670874225,0.0345789976418,104.079086304,0.349065840244,0.0661245882511,-0.0110481949523,-0.265419572592,-0.0119100501761,-0.0119100501761,0.00843087490648,0.00143795006443,4.22413539886,4.22413539886,0.984061062336,-109.546066284,1998,2040,2116,2024,2024,2795,3341,3356,3173,3302,3022,2965,3058,3070,3163,2861,3364,3358,3188,3267,2905,3276,3306,3026,0.010008671,1.249997088,1.251083875,0.401425719261,4500.0,0.416539907455,0.00295939156786,0.0151141919196,-68.0138626099,0.0,6000.0,-0.0110566392541,0.00860171020031,-0.0110566392541,63.8072395325,0.349065840244,0.0289103612304,-0.0326686277986,0.303588926792,0.0119474707171,0.0119474707171,0.000132902132464,-0.00926237180829,165.706069946,165.706069946,-246.929412842,-69.6394424438,2011,2013,2636,2037,2037,3057,3442,3440,3290,3375,3120,3004,3144,3094,3220,2724,3381,3398,3228,3356,3122,3342,3384,3191
1508403535815564349,126,1508403535815369699,plot_matl,-0.300000011921,-3000.0,-0.265421003103,0.0014670874225,0.0345789976418,104.079086304,0.349065840244,0.0661245882511,-0.0110481949523,-0.265419572592,-0.0119100501761,-0.0119100501761,0.00843087490648,0.00143795006443,4.22413539886,4.22413539886,0.984061062336,-109.546066284,1998,2040,2116,2024,2024,2795,3341,3356,3173,3302,3022,2965,3058,3070,3163,2861,3364,3358,3188,3267,2905,3276,3306,3026,0.009995773,1.2599921,1.259467398,0.401425719261,4500.0,0.416539907455,0.00295939156786,0.0151141919196,-68.0138626099,0.0,6000.0,-0.0110566392541,0.00860171020031,-0.0110566392541,63.8072395325,0.349065840244,0.0289103612304,-0.0326686277986,0.303588926792,0.0119474707171,0.0119474707171,0.000132902132464,-0.00926237180829,165.706069946,165.706069946,-246.929412842,-69.6394424438,2011,2013,2636,2037,2037,3057,3442,3440,3290,3375,3120,3004,3144,3094,3220,2724,3381,3398,3228,3356,3122,3342,3384,3191
1508403535825458975,127,1508403535825370850,plot_matl,-0.300000011921,-3000.0,-0.265415549278,-0.00461940700188,0.0345844626427,102.573257446,0.349065840244,0.0674740672112,-0.0110935242847,-0.265415757895,0.00282106245868,0.00282106245868,-0.00484439171851,0.00135943072382,4.32001161575,4.32001161575,1.17878425121,-109.638412476,2006,2027,2116,2027,2027,2803,3341,3356,3173,3302,3022,2965,3058,3070,3163,2861,3364,3358,3184,3265,2908,3291,3320,3042,0.009999197,1.269992413,1.269898019,0.401425719261,4500.0,0.416539907455,0.0055691730231,0.0151141919196,-68.0138626099,0.0,6000.0,-0.0110769839957,-0.00524030951783,-0.0110769839957,67.8691635132,0.349065840244,0.0265011657029,-0.0326872356236,0.304015934467,-0.0130470311269,-0.0130470311269,0.000431085732998,-0.0182553716004,165.747283936,165.747283936,-246.530685425,-69.7502975464,1995,1997,2637,2036,2036,3066,3442,3440,3290,3375,3120,3004,3144,3094,3220,2724,3381,3398,3226,3354,3121,3360,3399,3211
1508403535835494154,128,1508403535835367114,plot_matl,-0.300000011921,-3000.0,-0.265424817801,0.00154358707368,0.0345751792192,104.110992432,0.349065840244,0.0674740672112,-0.0110719548538,-0.265419065952,0.00329693662934,0.00329693662934,-0.00513995811343,0.00142639386468,4.29912567139,4.29912567139,1.12360072136,-109.473587036,2001,2041,2116,2027,2027,2803,3349,3365,3178,3306,3027,2971,3065,3073,3167,2864,3364,3358,3184,3265,2908,3291,3320,3042,0.009995944,1.279988648,1.279480832,0.401425719261,4500.0,0.416539907455,0.00603144662455,0.0151141919196,-68.0138626099,0.0,6000.0,-0.011067234911,-0.00528407748789,-0.011067234911,67.8606414795,0.349065840244,0.0265011657029,-0.0326698534191,0.303962022066,-0.0137973260134,-0.0137973260134,9.96508460958e-05,-0.0171246491373,165.742752075,165.742752075,-246.853057861,-69.5492324829,2008,2007,2637,2036,2036,3066,3450,3445,3297,3381,3124,3009,3150,3097,3225,2724,3381,3398,3226,3354,3121,3360,3399,3211
1508403535845553195,129,1508403535845374704,plot_matl,-0.300000011921,-3000.0,-0.265422314405,0.00148849945981,0.0345776900649,104.083869934,0.349065840244,0.0674740672112,-0.0110894776881,-0.265422284603,0.00319332373329,0.00319332373329,-0.004678953439,0.0014880457893,4.26444959641,4.26444959641,1.14363408089,-109.682113647,1967,2025,2117,2021,2021,2803,3349,3365,3178,3306,3027,2971,3065,3073,3167,2864,3367,3365,3188,3267,2909,3277,3304,3027,0.010008055,1.289996397,1.291039095,0.401425719261,4500.0,0.416539907455,0.00635530473664,0.0151141919196,-68.0138626099,0.0,6000.0,-0.0110723022372,0.0083553949371,-0.0110723022372,63.7892684937,0.349065840244,0.0289103612304,-0.0326551906765,0.303865283728,0.0108234873042,0.0108234873042,-0.000187548546819,-0.0151031594723,165.673919678,165.673919678,-247.10597229,-69.202041626,1977,1988,2638,2038,2038,3066,3450,3445,3297,3381,3124,3009,3150,3097,3225,2724,3382,3401,3229,3360,3124,3345,3385,3195
1508403535855517778,130,1508403535855371337,plot_matl,-0.300000011921,-3000.0,-0.265425592661,0.00154600420501,0.0345744080842,104.062507629,0.349065840244,0.0674740672112,-0.0111027061939,-0.265430986881,0.00261399918236,0.00261399918236,0.0091049913317,0.00165285763796,4.37700462341,4.37700462341,1.03346562386,-109.177879333,1989,2042,2117,2021,2021,2797,3344,3359,3174,3303,3023,2967,3061,3070,3167,2864,3367,3365,3188,3267,2909,3277,3304,3027,0.009996413,1.299993194,1.29953369,0.401425719261,4500.0,0.416539907455,0.00566636165604,0.0151141919196,-68.0138626099,0.0,6000.0,-0.0111007653177,-0.0043920991011,-0.0111007653177,67.6881484985,0.349065840244,0.0289103612304,-0.0326563604176,0.303889930248,0.00935256388038,0.00935256388038,-0.000153523971676,-0.0156259909272,165.617996216,165.617996216,-247.338287354,-68.8006591797,2002,2014,2638,2038,2038,3061,3444,3441,3293,3377,3121,3005,3144,3093,3225,2724,3382,3401,3229,3360,3124,3345,3385,3195
1508403535865507715,131,1508403535865369110,plot_matl,-0.300000011921,-3000.0,-0.265433073044,-0.00427942350507,0.0345669202507,102.647254944,0.349065840244,0.0674740672112,-0.0111156087369,-0.265432208776,0.00237604486756,0.00237604486756,-0.00398774538189,0.00167900405359,4.38154554367,4.38154554367,0.70895588398,-109.335014343,2002,2057,2117,2021,2021,2797,3344,3359,3174,3303,3023,2967,3061,3070,3163,2859,3363,3362,3187,3264,2909,3276,3304,3024,0.009997326,1.309990657,1.309649706,0.401425719261,4500.0,0.416539907455,0.00514397071674,0.0151141919196,-68.0138626099,0.0,6000.0,-0.0111007392406,-0.00431659445167,-0.0111007392406,67.8170928955,0.349065840244,0.0289103612304,-0.0326431244612,0.303860366344,0.00989552028477,0.00989552028477,-0.000412572670029,-0.0767805725336,165.617675781,165.617675781,-247.392990112,-68.5473251343,2015,2027,2638,2038,2038,3061,3444,3441,3293,3377,3121,3005,3144,3093,3221,2720,3381,3398,3229,3356,3120,3342,3382,3193
1508403535875461137,132,1508403535875366101,plot_matl,-0.300000011921,-3000.0,-0.265434026718,-0.00425794906914,0.0345659591258,102.720321655,0.349065840244,0.0674740672112,-0.0111251967028,-0.265439152718,0.00146563339513,0.00146563339513,-0.00372078223154,-0.00415431614965,4.38616943359,4.38616943359,0.698169827461,-108.862869263,1998,2050,2118,2020,2020,2801,3342,3358,3174,3302,3025,2964,3061,3070,3163,2859,3363,3362,3187,3264,2909,3276,3304,3024,0.009996506,1.319987395,1.319538792,0.401425719261,4500.0,0.416539907455,0.0037176546175,0.0151141919196,-68.0138626099,0.0,6000.0,-0.0111110638827,-0.00402880739421,-0.0111110638827,67.736946106,0.349065840244,0.0289103612304,-0.0326732434332,0.3038367033,0.0107238497585,0.0107238497585,0.000213286170037,-0.0144109902903,165.75994873,165.75994873,-247.539840698,-68.4513549805,1999,2008,2638,2038,2038,3060,3441,3440,3291,3377,3121,3003,3144,3093,3221,2720,3381,3398,3229,3356,3120,3342,3382,3193
1508403535885567095,133,1508403535885369038,plot_matl,-0.300000011921,-3000.0,-0.265434443951,0.00172658450902,0.0345655456185,104.110794067,0.349065840244,0.0674740672112,-0.0111448783427,-0.26542788744,0.000947400345467,0.000947400345467,-0.00326994038187,0.00159384007566,4.35472536087,4.35472536087,0.527527630329,-109.297325134,2046,2063,2118,2020,2020,2801,3342,3358,3174,3302,3025,2964,3061,3070,3164,2857,3363,3360,3186,3264,2905,3275,3304,3024,0.010003386,1.329990772,1.330450338,0.401425719261,4500.0,0.416539907455,0.00260098860599,0.0151141919196,-68.0138626099,0.0,6000.0,-0.0111322989687,-0.00354228052311,-0.0111322989687,67.787437439,0.349065840244,0.0265011657029,-0.0326711423695,0.303709954023,-0.0123708071187,-0.0123708071187,0.000174703935045,-0.0118041252717,165.77130127,165.77130127,-247.657821655,-68.5068359375,2039,2038,2638,2038,2038,3060,3441,3440,3291,3377,3121,3003,3146,3091,3221,2717,3377,3397,3226,3355,3120,3342,3382,3193
1508403535895452307,134,1508403535895367351,plot_matl,-0.300000011921,-3000.0,-0.265434443951,0.00172658450902,0.0345655456185,104.110794067,0.349065840244,0.0674740672112,-0.0111448783427,-0.26542788744,0.000947400345467,0.000947400345467,-0.00326994038187,0.00159384007566,4.35472536087,4.35472536087,0.527527630329,-109.297325134,2046,2063,2118,2020,2020,2801,3342,3358,3174,3302,3025,2964,3061,3070,3164,2857,3363,3360,3186,3264,2905,3275,3304,3024,0.009997807,1.339988805,1.339706138,0.401425719261,4500.0,0.416539907455,0.0011836704798,0.0151141919196,-68.0138626099,0.0,6000.0,-0.0111322989687,-0.00354228052311,-0.0111322989687,67.787437439,0.349065840244,0.0265011657029,-0.0326711423695,0.303709954023,-0.0123708071187,-0.0123708071187,0.000174703935045,-0.0118041252717,165.77130127,165.77130127,-247.657821655,-68.5068359375,2039,2038,2638,2038,2038,3060,3441,3440,3291,3377,3121,3003,3146,3091,3221,2717,3377,3397,3226,3355,3120,3342,3382,3193
1508403535905475437,135,1508403535905371569,plot_matl,-0.300000011921,-3000.0,-0.265406996012,-0.00480405660346,0.0345929972827,102.62727356,0.349065840244,0.0674740672112,-0.0111278584227,-0.265408158302,0.000469751976198,0.000469751976198,-0.00353797036223,0.00119378685486,4.17948579788,4.17948579788,0.198609620333,-108.431930542,2024,2054,2118,2020,2020,2800,3344,3357,3176,3301,3026,2963,3059,3068,3161,2857,3362,3359,3184,3263,2905,3275,3304,3024,0.010004644,1.349993293,1.35062694,0.401425719261,4500.0,0.416539907455,0.000440648233052,0.0151141919196,-68.0138626099,0.0,6000.0,-0.0111277215183,-0.00354835693724,-0.0111277215183,67.7835998535,0.349065840244,0.0313195586205,-0.0326680019498,0.303734481335,0.0353405475616,0.0353405475616,0.000117056231829,0.0496383346617,165.637649536,165.637649536,-247.74079895,-68.7143554688,2026,2025,2638,2038,2038,3061,3442,3439,3292,3375,3120,3003,3144,3090,3221,2715,3378,3398,3226,3355,3120,3342,3383,3193
1508403535915514779,136,1508403535915364525,plot_matl,-0.300000011921,-3000.0,-0.265406966209,0.00116747617722,0.0345930308104,104.059646606,0.349065840244,0.0674740672112,-0.011122030206,-0.265414208174,0.000590611365624,0.000590611365624,-0.00363516807556,-0.00466219615191,4.30933523178,4.30933523178,0.303966224194,-108.830619812,2037,2071,2117,2018,2018,2799,3342,3358,3176,3301,3026,2963,3059,3068,3161,2857,3362,3359,3184,3263,2905,3275,3305,3024,0.009992453,1.359986056,1.358973608,0.401425719261,4500.0,0.416539907455,0.00185744394548,0.0151141919196,-68.0138626099,0.0,6000.0,-0.0111350063235,-0.00337958848104,-0.0111350063235,67.7870025635,0.349065840244,0.0265011657029,-0.0326668471098,0.303572267294,-0.0118474876508,-0.0118474876508,9.58585806075e-05,-0.00893107429147,165.850280762,165.850280762,-247.806121826,-68.7389602661,2044,2049,2638,2040,2040,3061,3442,3442,3292,3375,3120,3003,3144,3090,3221,2715,3378,3398,3226,3355,3120,3342,3385,3191
1508403535925483915,137,1508403535925369706,plot_matl,-0.300000011921,-3000.0,-0.265412390232,0.0012775012292,0.0345876179636,104.068809509,0.349065840244,0.0674740672112,-0.01114165131,-0.265418797731,0.000483502837596,0.000483502837596,-0.00321644335054,0.00140787835699,4.32799434662,4.32799434662,0.0929708629847,-108.066970825,2033,2061,2117,2018,2018,2799,3342,3358,3173,3300,3023,2964,3061,3070,3162,2857,3363,3361,3184,3263,2905,3275,3305,3024,0.01000543,1.369991443,1.37074391,0.401425719261,4500.0,0.416539907455,0.00104844430462,0.0151141919196,-68.0138626099,0.0,6000.0,-0.0111286761239,-0.00348697067238,-0.0111286761239,67.7845306396,0.349065840244,0.0265011657029,-0.0326659008861,0.303708076477,-0.0110282618552,-0.0110282618552,7.84823787399e-05,-0.0116442367435,165.796569824,165.796569824,-247.878768921,-68.8221054077,2039,2036,2638,2040,2040,3061,3442,3442,3292,3375,3120,3005,3144,3092,3222,2717,3379,3397,3226,3355,3120,3342,3385,3191
1508403535935526082,138,1508403535935369308,plot_matl,-0.300000011921,-3000.0,-0.265410989523,0.0012499736622,0.0345890112221,104.047790527,0.349065840244,0.0674740672112,-0.0111092682928,-0.265423536301,0.000635229283944,0.000635229283944,0.00955716334283,-0.00447501428425,4.31872415543,4.31872415543,0.041785530746,-108.527420044,2020,2083,2117,2021,2021,2797,3342,3358,3173,3300,3023,2964,3061,3070,3162,2857,3363,3361,3184,3263,2905,3273,3301,3024,0.009999598,1.379991002,1.379944524,0.401425719261,4500.0,0.416539907455,0.00136168568861,0.0151141919196,-68.0138626099,0.0,6000.0,-0.0111218253151,0.00980081874877,-0.0111218253151,63.9452362061,0.349065840244,0.0289103612304,-0.0326802581549,0.303715914488,0.0143810305744,0.0143810305744,-0.0149753428996,-0.0117503870279,165.873443604,165.873443604,-247.848526001,-68.8196258545,2039,2056,2638,2043,2043,3060,3442,3442,3292,3375,3120,3005,3144,3092,3222,2717,3379,3397,3224,3354,3120,3343,3385,3190
1508403535945520254,139,1508403535945369175,plot_matl,-0.300000011921,-3000.0,-0.265421301126,0.00144666153938,0.0345786847174,104.087051392,0.349065840244,0.0674740672112,-0.0111092682928,-0.265423536301,0.000635229283944,0.000635229283944,0.00955716334283,-0.00447501428425,4.31872415543,4.31872415543,0.041785530746,-108.527420044,2034,2081,2117,2021,2021,2797,3343,3354,3172,3301,3023,2966,3060,3070,3163,2859,3363,3361,3184,3263,2905,3273,3301,3024,0.009999805,1.389991049,1.389972895,0.401425719261,4500.0,0.416539907455,0.00112616631668,0.0151141919196,-68.0138626099,0.0,6000.0,-0.0111183356494,-0.00367983919568,-0.0111183356494,67.7905273438,0.349065840244,0.0289103612304,-0.0326802581549,0.303715914488,0.0143810305744,0.0143810305744,-0.0149753428996,-0.0117503870279,165.873443604,165.873443604,-247.848526001,-68.8196258545,2047,2056,2638,2043,2043,3060,3440,3440,3292,3375,3121,3004,3144,3093,3222,2719,3379,3397,3224,3354,3120,3343,3385,3190
1508403535955501008,140,1508403535955365081,plot_matl,-0.300000011921,-3000.0,-0.26543071866,-0.00433836411685,0.0345692671835,102.666900635,0.349065840244,0.0674740672112,-0.0111092682928,-0.265423536301,0.000635229283944,0.000635229283944,0.00955716334283,-0.00447501428425,4.31872415543,4.31872415543,0.041785530746,-108.527420044,2047,2077,2117,2019,2019,2797,3343,3354,3172,3301,3023,2966,3060,3070,3163,2859,3360,3361,3186,3263,2906,3274,3305,3023,0.009995368,1.399986574,1.39935152,0.401425719261,4500.0,0.417889386415,0.0281729865819,0.0164636727422,-74.0865249634,0.0,6000.0,-0.0111263934523,-0.00350348767824,-0.0111263934523,67.7876205444,0.349065840244,0.0289103612304,-0.0326802581549,0.303715914488,0.0143810305744,0.0143810305744,-0.0149753428996,-0.0117503870279,165.873443604,165.873443604,-247.848526001,-68.8196258545,2052,2053,2636,2041,2041,3060,3440,3440,3292,3375,3121,3004,3144,3093,3222,2719,3379,3397,3226,3354,3121,3343,3382,3191
1508403535965528447,141,1508403535965369363,plot_matl,-0.300000011921,-3000.0,-0.265448629856,-0.003975645639,0.0345513559878,102.70199585,0.349065840244,0.0674740672112,-0.0111092682928,-0.265423536301,0.000635229283944,0.000635229283944,0.00955716334283,-0.00447501428425,4.31872415543,4.31872415543,0.041785530746,-108.527420044,2051,2059,2117,2019,2019,2796,3342,3358,3171,3298,3022,2964,3058,3070,3163,2859,3360,3361,3186,3263,2906,3274,3305,3023,0.010004739,1.409991252,1.410668199,0.401425719261,4500.0,0.416539907455,0.00076482683653,0.0151141919196,-68.0138626099,0.0,6000.0,-0.0111328531057,0.0100669134408,-0.0111328531057,63.7586212158,0.349065840244,0.0289103612304,-0.0326802581549,0.303715914488,0.0143810305744,0.0143810305744,-0.0149753428996,-0.0117503870279,165.873443604,165.873443604,-247.848526001,-68.8196258545,2055,2041,2636,2041,2041,3058,3440,3440,3290,3375,3119,3003,3145,3094,3222,2719,3379,3397,3226,3354,3121,3343,3382,3191
1508403535975523440,142,1508403535975366277,plot_matl,-0.300000011921,-3000.0,-0.265448629856,-0.003975645639,0.0345513559878,102.70199585,0.349065840244,0.0674740672112,-0.0111202737316,-0.265446692705,0.000353025912773,0.000353025912773,-0.00361271388829,0.0019638184458,4.3363904953,4.3363904953,-0.18226274848,-107.920166016,2057,2070,2117,2019,2019,2796,3342,3358,3171,3298,3022,2964,3058,3070,3164,2857,3365,3360,3186,3264,2906,3274,3304,3025,0.009996544,1.419988036,1.419509248,0.401425719261,4500.0,0.415190428495,-0.0266801584512,0.0137647101656,-61.9411964417,0.0,6000.0,-0.0111275855452,-0.00346446037292,-0.0111275855452,67.7710800171,0.349065840244,0.0289103612304,-0.0326692089438,0.303898960352,0.0119048161432,0.0119048161432,0.000123622463434,-0.0154977431521,165.531707764,165.531707764,-248.02104187,-69.0118103027,2052,2045,2636,2041,2041,3058,3440,3440,3290,3375,3119,3003,3145,3094,3221,2720,3380,3396,3225,3353,3122,3340,3383,3190
1508403535985578322,143,1508403535985374104,plot_matl,-0.300000011921,-3000.0,-0.265470981598,-0.00352106569335,0.034529030323,102.759315491,0.349065840244,0.0674740672112,-0.0111202737316,-0.265446692705,0.000353025912773,0.000353025912773,-0.00361271388829,0.0019638184458,4.3363904953,4.3363904953,-0.18226274848,-107.920166016,2043,2067,2117,2021,2021,2795,3341,3357,3172,3301,3022,2964,3058,3070,3164,2857,3365,3360,3186,3264,2906,3274,3304,3025,0.010007703,1.429995535,1.431101529,0.401425719261,4500.0,0.416539907455,0.000932984694373,0.0151141919196,-68.0138626099,0.0,6000.0,-0.0110977757722,-0.00405295193195,-0.0110977757722,67.7645187378,0.349065840244,0.0289103612304,-0.0326692089438,0.303898960352,0.0119048161432,0.0119048161432,0.000123622463434,-0.0154977431521,165.531707764,165.531707764,-248.02104187,-69.0118103027,2041,2043,2637,2043,2043,3056,3440,3438,3292,3374,3118,3003,3145,3094,3221,2720,3380,3396,3225,3353,3122,3340,3383,3190
1508403535995509226,144,1508403535995367928,plot_matl,-0.300000011921,-3000.0,-0.265470981598,-0.00352106569335,0.034529030323,102.759315491,0.349065840244,0.0674740672112,-0.0111202737316,-0.265446692705,0.000353025912773,0.000353025912773,-0.00361271388829,0.0019638184458,4.3363904953,4.3363904953,-0.18226274848,-107.920166016,2043,2067,2117,2021,2021,2795,3341,3357,3172,3301,3022,2964,3058,3070,3164,2857,3365,3360,3186,3264,2906,3274,3304,3025,0.009993424,1.439989418,1.439053056,0.401425719261,4500.0,0.416539907455,0.000932984694373,0.0151141919196,-68.0138626099,0.0,6000.0,-0.0110977757722,-0.00405295193195,-0.0110977757722,67.7645187378,0.349065840244,0.0289103612304,-0.0326692089438,0.303898960352,0.0119048161432,0.0119048161432,0.000123622463434,-0.0154977431521,165.531707764,165.531707764,-248.02104187,-69.0118103027,2041,2043,2637,2043,2043,3056,3440,3438,3292,3374,3118,3003,3145,3094,3221,2720,3380,3396,3225,3353,3122,3340,3383,3190
1508403536005496996,145,1508403536005368605,plot_matl,-0.300000011921,-3000.0,-0.265470296144,-0.00353207020089,0.0345296896994,102.742042542,0.349065840244,0.0674740672112,-0.0111202737316,-0.265446692705,0.000353025912773,0.000353025912773,-0.00361271388829,0.0019638184458,4.3363904953,4.3363904953,-0.18226274848,-107.920166016,2020,2064,2117,2021,2021,2795,3341,3357,3172,3301,3022,2964,3059,3069,3161,2857,3363,3359,3186,3264,2906,3276,3304,3025,0.010001246,1.44999063,1.45018067,0.401425719261,4500.0,0.416539907455,0.000703433295712,0.0151141919196,-68.0138626099,0.0,6000.0,-0.0111318137497,-0.00335023971274,-0.0111318137497,67.7853164673,0.349065840244,0.0289103612304,-0.0326692089438,0.303898960352,0.0119048161432,0.0119048161432,0.000123622463434,-0.0154977431521,165.531707764,165.531707764,-248.02104187,-69.0118103027,2030,2039,2637,2043,2043,3056,3440,3438,3292,3374,3118,3003,3143,3095,3220,2718,3378,3398,3227,3353,3119,3343,3383,3190
1508403536015596251,146,1508403536015399947,plot_matl,-0.300000011921,-3000.0,-0.265480846167,-0.00331910792738,0.0345191657543,102.760726929,0.349065840244,0.0674740672112,-0.0111248865724,-0.26546677947,0.000104159385955,0.000104159385955,-0.00349420914426,-0.00360335176811,4.22927999496,4.22927999496,0.668059766293,-106.681228638,2009,2048,2116,2024,2024,2797,3341,3354,3171,3298,3023,2963,3059,3069,3161,2857,3362,3358,3190,3270,2906,3276,3303,3023,0.010031956,1.460022509,1.464665576,0.401425719261,4500.0,0.416539907455,0.00152843154501,0.0151141919196,-68.0138626099,0.0,6000.0,-0.0111370487139,-0.00323548563756,-0.0111370487139,67.7859268188,0.349065840244,0.0289103612304,-0.0326487608254,0.303915947676,0.0102871572599,0.0102871572599,-0.00027211944689,-0.0158709213138,165.546081543,165.546081543,-248.047424316,-69.1115570068,2015,2025,2636,2041,2041,3058,3442,3437,3290,3374,3119,3004,3147,3091,3221,2716,3378,3396,3230,3360,3119,3343,3384,3192
1508403536025502818,147,1508403536025366955,plot_matl,-0.300000011921,-3000.0,-0.265474587679,-0.00344658829272,0.034525424242,102.748138428,0.349065840244,0.0674740672112,-0.0111248865724,-0.26546677947,0.000104159385955,0.000104159385955,-0.00349420914426,-0.00360335176811,4.22927999496,4.22927999496,0.668059766293,-106.681228638,2001,2058,2117,2023,2023,2803,3345,3359,3171,3298,3023,2963,3059,3069,3161,2857,3362,3358,3190,3270,2911,3280,3308,3029,0.009965753,1.469988648,1.464965691,0.401425719261,4500.0,0.416539907455,0.000136556191137,0.0151141919196,-68.0138626099,0.0,6000.0,-0.011092916131,-0.00400368217379,-0.011092916131,67.7903137207,0.349065840244,0.0289103612304,-0.0326487608254,0.303915947676,0.0102871572599,0.0102871572599,-0.00027211944689,-0.0158709213138,165.546081543,165.546081543,-248.047424316,-69.1115570068,2011,2022,2637,2039,2039,3063,3443,3442,3290,3374,3119,3004,3147,3091,3221,2716,3378,3396,3230,3360,3124,3347,3387,3195
1508403536035540121,148,1508403536035370708,plot_matl,-0.300000011921,-3000.0,-0.265468090773,0.00240118708462,0.034531917423,104.207588196,0.349065840244,0.0674740672112,-0.0111248865724,-0.26546677947,0.000104159385955,0.000104159385955,-0.00349420914426,-0.00360335176811,4.22927999496,4.22927999496,0.668059766293,-106.681228638,1997,2053,2117,2023,2023,2803,3345,3359,3175,3303,3024,2967,3061,3070,3163,2855,3365,3359,3190,3270,2911,3280,3308,3029,0.01000375,1.479992461,1.480555,0.401425719261,4500.0,0.416539907455,0.000162436976098,0.0151141919196,-68.0138626099,0.0,6000.0,-0.0110706901178,-0.00447881733999,-0.0110706901178,67.8731765747,0.349065840244,0.0289103612304,-0.0326487608254,0.303915947676,0.0102871572599,0.0102871572599,-0.00027211944689,-0.0158709213138,165.546081543,165.546081543,-248.047424316,-69.1115570068,2006,2025,2637,2039,2039,3063,3443,3442,3293,3375,3121,3005,3146,3093,3221,2715,3378,3398,3230,3360,3124,3347,3387,3195
1508403536045827004,149,1508403536045441790,plot_matl,-0.300000011921,-3000.0,-0.2654517591,0.00207610568032,0.0345482304692,104.164535522,0.349065840244,0.0674740672112,-0.0111248865724,-0.26546677947,0.000104159385955,0.000104159385955,-0.00349420914426,-0.00360335176811,4.22927999496,4.22927999496,0.668059766293,-106.681228638,2016,2042,2117,2023,2023,2800,3345,3359,3175,3303,3024,2967,3061,3070,3163,2855,3365,3359,3187,3265,2905,3275,3305,3025,0.010073156,1.490064658,1.500900244,0.401425719261,4500.0,0.415190428495,-0.0265535544604,0.0137647101656,-61.9411964417,0.0,6000.0,-0.0110506843776,0.00852095708251,-0.0110506843776,63.647857666,0.349065840244,0.0289103612304,-0.0326487608254,0.303915947676,0.0102871572599,0.0102871572599,-0.00027211944689,-0.0158709213138,165.546081543,165.546081543,-248.047424316,-69.1115570068,2017,2016,2637,2044,2044,3062,3443,3442,3293,3375,3121,3005,3146,3093,3221,2715,3378,3398,3225,3355,3120,3342,3383,3191
1508403536055799139,150,1508403536055425843,plot_matl,-0.300000011921,-3000.0,-0.265437871218,0.00179789145477,0.0345621183515,104.116744995,0.349065840244,0.0674740672112,-0.0110552459955,-0.265455365181,0.000339107209584,0.000339107209584,-0.00480286916718,-0.00382368336432,4.14663887024,4.14663887024,0.25797739625,-109.152488708,2016,2047,2117,2023,2023,2800,3342,3357,3175,3301,3023,2966,3060,3069,3163,2856,3365,3359,3187,3265,2905,3275,3305,3025,0.00998276,1.500048155,1.497414,0.401425719261,4500.0,0.415190428495,-0.0281904861331,0.0137647101656,-61.9411964417,0.0,6000.0,-0.0110332379118,0.00815891288221,-0.0110332379118,63.7616615295,0.349065840244,0.0265011657029,-0.0326538458467,0.303817272186,-0.0155414231122,-0.0155414231122,-0.000177829875611,-0.0136491898447,165.562774658,165.562774658,-248.105163574,-68.7440795898,2018,2015,2637,2044,2044,3062,3442,3438,3291,3374,3120,3004,3146,3091,3221,2716,3378,3398,3225,3355,3120,3342,3383,3191
1508403536065853927,151,1508403536065401246,plot_matl,-0.300000011921,-3000.0,-0.26542699337,0.00157595355995,0.0345730036497,104.112922668,0.349065840244,0.0674740672112,-0.0110552459955,-0.265455365181,0.000339107209584,0.000339107209584,-0.00480286916718,-0.00382368336432,4.14663887024,4.14663887024,0.25797739625,-109.152488708,2014,2054,2117,2021,2021,2800,3342,3357,3175,3301,3023,2966,3060,3069,3163,2856,3362,3361,3185,3264,2907,3274,3305,3024,0.009975283,1.510023768,1.506267733,0.401425719261,4500.0,0.415190428495,-0.0264321919531,0.0137647101656,-61.9411964417,0.0,6000.0,-0.0110335694626,-0.00528659485281,-0.0110335694626,67.8620681763,0.349065840244,0.0265011657029,-0.0326538458467,0.303817272186,-0.0155414231122,-0.0155414231122,-0.000177829875611,-0.0136491898447,165.562774658,165.562774658,-248.105163574,-68.7440795898,2023,2027,2636,2043,2043,3062,3442,3438,3291,3374,3120,3004,3146,3091,3221,2716,3378,3398,3226,3356,3119,3341,3383,3191
1508403536075818436,152,1508403536075423957,plot_matl,-0.300000011921,-3000.0,-0.26542699337,0.00157595355995,0.0345730036497,104.112922668,0.349065840244,0.0674740672112,-0.0110552459955,-0.265455365181,0.000339107209584,0.000339107209584,-0.00480286916718,-0.00382368336432,4.14663887024,4.14663887024,0.25797739625,-109.152488708,2014,2054,2117,2021,2021,2800,3342,3357,3175,3301,3023,2966,3060,3069,3163,2856,3362,3361,3185,3264,2907,3274,3305,3024,0.010021894,1.520046258,1.523327888,0.401425719261,4500.0,0.415190428495,-0.0264321919531,0.0137647101656,-61.9411964417,0.0,6000.0,-0.0110335694626,-0.00528659485281,-0.0110335694626,67.8620681763,0.349065840244,0.0265011657029,-0.0326538458467,0.303817272186,-0.0155414231122,-0.0155414231122,-0.000177829875611,-0.0136491898447,165.562774658,165.562774658,-248.105163574,-68.7440795898,2023,2027,2636,2043,2043,3062,3442,3438,3291,3374,3120,3004,3146,3091,3221,2716,3378,3398,3226,3356,3119,3341,3383,3191
1508403536085846458,153,1508403536085426867,plot_matl,-0.300000011921,-3000.0,-0.26542943716,0.00162325520068,0.034570556134,104.098297119,0.349065840244,0.0674740672112,-0.0110552459955,-0.265455365181,0.000339107209584,0.000339107209584,-0.00480286916718,-0.00382368336432,4.14663887024,4.14663887024,0.25797739625,-109.152488708,2028,2052,2117,2021,2021,2800,3341,3358,3172,3300,3022,2965,3075,3086,3163,2856,3362,3361,3185,3264,2907,3274,3305,3024,0.01000304,1.530049459,1.53046512,0.401425719261,4500.0,0.415190428495,-0.025541856885,0.0137647101656,-61.9411964417,0.0,6000.0,-0.0110555905849,0.00857131835073,-0.0110555905849,63.7787246704,0.349065840244,0.0265011657029,-0.0326538458467,0.303817272186,-0.0155414231122,-0.0155414231122,-0.000177829875611,-0.0136491898447,165.562774658,165.562774658,-248.105163574,-68.7440795898,2036,2030,2636,2043,2043,3060,3440,3438,3293,3374,3121,3004,3161,3109,3221,2716,3378,3398,3226,3356,3119,3341,3383,3191
1508403536095851639,154,1508403536095415596,plot_matl,-0.300000011921,-3000.0,-0.265421360731,-0.00451553473249,0.0345786549151,102.65599823,0.349065840244,0.0661245882511,-0.011011027731,-0.265422910452,-0.0130383484066,-0.0130383484066,-0.0058256816119,0.00149137014523,4.11800765991,4.11800765991,0.045424003154,-107.645690918,2020,2066,2117,2021,2021,2800,3341,3358,3172,3300,3022,2965,3075,3086,3174,2870,3375,3373,3195,3271,2913,3284,3309,3030,0.009988178,1.540038092,1.538179412,0.401425719261,4500.0,0.416539907455,0.00124828331172,0.0151141919196,-68.0138626099,0.0,6000.0,-0.011006789282,-0.0059144445695,-0.011006789282,67.7856369019,0.349065840244,0.0289103612304,-0.0326731950045,0.30391895771,0.00744735682383,0.00744735682383,0.000227516182349,-0.0188176948577,165.648025513,165.648025513,-247.52947998,-68.9460830688,2027,2029,2636,2043,2043,3060,3440,3438,3293,3374,3121,3004,3161,3109,3234,2730,3390,3408,3236,3364,3128,3348,3389,3196
1508403536105736843,155,1508403536105418429,plot_matl,-0.300000011921,-3000.0,-0.265418916941,0.00141001935117,0.0345810912549,104.079460144,0.349065840244,0.0688235536218,-0.0110160186887,-0.265426278114,0.0138582410291,0.0138582410291,-0.00571325235069,-0.00441642990336,4.20120954514,4.20120954514,0.36353468895,-106.986320496,2025,2052,2116,2023,2023,2800,3345,3360,3174,3303,3026,2968,3075,3086,3174,2870,3375,3373,3195,3271,2913,3284,3309,3030,0.01000191,1.550040713,1.55029605,0.401425719261,4500.0,0.416539907455,0.00104970193934,0.0151141919196,-68.0138626099,0.0,6000.0,-0.0109987929463,-0.00606486480683,-0.0109987929463,67.7841873169,0.349065840244,0.0265011657029,-0.0326851978898,0.303949207067,-0.0173566490412,-0.0173566490412,0.000474297063192,-0.0188808999956,165.595916748,165.595916748,-247.687042236,-68.9797744751,2025,2023,2636,2039,2039,3062,3445,3444,3296,3379,3124,3005,3161,3109,3234,2730,3390,3408,3236,3364,3128,3348,3389,3196
1508403536115839985,156,1508403536115400168,plot_matl,-0.300000011921,-3000.0,-0.265428125858,-0.00437986152247,0.0345718711615,102.650161743,0.349065840244,0.0688235536218,-0.0110160186887,-0.265426278114,0.0138582410291,0.0138582410291,-0.00571325235069,-0.00441642990336,4.20120954514,4.20120954514,0.36353468895,-106.986320496,2023,2052,2116,2023,2023,2800,3345,3360,3174,3303,3026,2968,3062,3070,3165,2862,3365,3363,3188,3266,2908,3275,3309,3030,0.0099826,1.560023091,1.5572856,0.401425719261,4500.0,0.416539907455,-0.000182789124665,0.0151141919196,-68.0138626099,0.0,6000.0,-0.0110527686775,-0.0049631013535,-0.0110527686775,67.8095703125,0.349065840244,0.0265011657029,-0.0326851978898,0.303949207067,-0.0173566490412,-0.0173566490412,0.000474297063192,-0.0188808999956,165.595916748,165.595916748,-247.687042236,-68.9797744751,2030,2024,2636,2039,2039,3062,3445,3444,3296,3379,3124,3005,3147,3094,3223,2722,3380,3400,3229,3355,3122,3345,3389,3196
1508403536125504302,157,1508403536125375819,plot_matl,-0.300000011921,-3000.0,-0.265424579382,-0.00445205532014,0.034575406462,102.695373535,0.349065840244,0.0688235536218,-0.0110160186887,-0.265426278114,0.0138582410291,0.0138582410291,-0.00571325235069,-0.00441642990336,4.20120954514,4.20120954514,0.36353468895,-106.986320496,2016,2057,2117,2022,2022,2797,3341,3358,3171,3303,3026,2968,3062,3070,3165,2862,3365,3363,3188,3266,2908,3275,3307,3025,0.009973516,1.569997601,1.565842012,0.401425719261,4500.0,0.415190428495,-0.0264370962977,0.0137647101656,-61.9411964417,0.0,6000.0,-0.011060135439,-0.00480295252055,-0.011060135439,67.7390518188,0.349065840244,0.0265011657029,-0.0326851978898,0.303949207067,-0.0173566490412,-0.0173566490412,0.000474297063192,-0.0188808999956,165.595916748,165.595916748,-247.687042236,-68.9797744751,2017,2026,2638,2043,2043,3060,3442,3439,3293,3375,3124,3005,3147,3094,3223,2722,3380,3400,3229,3355,3122,3345,3385,3192
1508403536135518040,158,1508403536135369787,plot_matl,-0.300000011921,-3000.0,-0.265422284603,0.00147596106399,0.0345777273178,104.097114563,0.349065840244,0.0688235536218,-0.0110160186887,-0.265426278114,0.0138582410291,0.0138582410291,-0.00571325235069,-0.00441642990336,4.20120954514,4.20120954514,0.36353468895,-106.986320496,2014,2052,2117,2022,2022,2797,3341,3358,3171,3303,3022,2966,3058,3071,3163,2859,3362,3361,3187,3265,2908,3275,3307,3025,0.009993348,1.579991446,1.578948984,0.401425719261,4500.0,0.415190428495,-0.0244674552232,0.0137647101656,-61.9411964417,0.0,6000.0,-0.0110803162679,-0.00439626770094,-0.0110803162679,67.8242797852,0.349065840244,0.0265011657029,-0.0326851978898,0.303949207067,-0.0173566490412,-0.0173566490412,0.000474297063192,-0.0188808999956,165.595916748,165.595916748,-247.687042236,-68.9797744751,2017,2027,2638,2043,2043,3060,3442,3439,3293,3375,3121,3005,3146,3093,3222,2720,3378,3398,3227,3354,3122,3345,3385,3192
1508403536145746128,159,1508403536145385189,plot_matl,-0.300000011921,-3000.0,-0.265436112881,0.0017512148479,0.0345638915896,104.099769592,0.349065840244,0.0674740672112,-0.0110666854307,-0.265423834324,0.00130822556093,0.00130822556093,0.00875494815409,-0.00446660956368,4.21862268448,4.21862268448,0.560696780682,-106.919830322,2015,2062,2117,2021,2021,2799,3342,3356,3171,3303,3022,2966,3058,3071,3163,2859,3362,3361,3187,3265,2907,3274,3304,3025,0.010018556,1.590008453,1.592950404,0.401425719261,4500.0,0.416539907455,0.00227491674013,0.0151141919196,-68.0138626099,0.0,6000.0,-0.0110458862036,-0.00504769291729,-0.0110458862036,67.7430496216,0.349065840244,0.0289103612304,-0.0326963067055,0.304044127464,0.00729679549113,0.00729679549113,0.000705848389771,-0.0197324827313,165.429229736,165.429229736,-247.303512573,-68.7076187134,2007,2018,2638,2043,2043,3060,3441,3439,3293,3375,3121,3005,3146,3093,3222,2720,3378,3398,3227,3354,3119,3342,3383,3194
1508403536155568399,160,1508403536155375796,plot_matl,-0.300000011921,-3000.0,-0.265447854996,-0.00399011280388,0.034552142024,102.738975525,0.349065840244,0.0674740672112,-0.0110666854307,-0.265423834324,0.00130822556093,0.00130822556093,0.00875494815409,-0.00446660956368,4.21862268448,4.21862268448,0.560696780682,-106.919830322,2003,2045,2117,2021,2021,2799,3342,3356,3173,3301,3023,2965,3060,3070,3162,2857,3363,3361,3187,3265,2907,3274,3304,3025,0.009987555,1.599997727,1.5980088,0.401425719261,4500.0,0.415190428495,-0.0248708501458,0.0137647101656,-61.9411964417,0.0,6000.0,-0.0110913394019,-0.00413004308939,-0.0110913394019,67.7378997803,0.349065840244,0.0289103612304,-0.0326963067055,0.304044127464,0.00729679549113,0.00729679549113,0.000705848389771,-0.0197324827313,165.429229736,165.429229736,-247.303512573,-68.7076187134,2006,2016,2638,2043,2043,3060,3441,3439,3291,3377,3121,3003,3146,3093,3220,2716,3379,3396,3227,3354,3119,3342,3383,3194
1508403536165557473,161,1508403536165381524,plot_matl,-0.300000011921,-3000.0,-0.26544624567,-0.00402364926413,0.0345537625253,102.674102783,0.349065840244,0.0674740672112,-0.0110666854307,-0.265423834324,0.00130822556093,0.00130822556093,0.00875494815409,-0.00446660956368,4.21862268448,4.21862268448,0.560696780682,-106.919830322,2023,2044,2117,2025,2025,2798,3342,3356,3173,3301,3023,2965,3060,3070,3162,2857,3363,3361,3185,3264,2907,3276,3303,3025,0.010005827,1.61000333,1.610938147,0.401425719261,4500.0,0.416539907455,0.00200270139612,0.0151141919196,-68.0138626099,0.0,6000.0,-0.0110808108002,0.00908932089806,-0.0110808108002,63.6954879761,0.349065840244,0.0289103612304,-0.0326963067055,0.304044127464,0.00729679549113,0.00729679549113,0.000705848389771,-0.0197324827313,165.429229736,165.429229736,-247.303512573,-68.7076187134,2018,2014,2638,2039,2039,3060,3441,3439,3291,3377,3121,3003,3146,3093,3220,2716,3379,3396,3227,3354,3119,3342,3384,3190
1508403536175514914,162,1508403536175370583,plot_matl,-0.300000011921,-3000.0,-0.265428751707,0.00159629655536,0.0345712527633,104.076797485,0.349065840244,0.0674740672112,-0.0110666854307,-0.265423834324,0.00130822556093,0.00130822556093,0.00875494815409,-0.00446660956368,4.21862268448,4.21862268448,0.560696780682,-106.919830322,2018,2034,2117,2025,2025,2798,3343,3356,3173,3302,3024,2964,3061,3069,3160,2856,3363,3361,3185,3264,2907,3276,3303,3025,0.009988969,1.619992401,1.618212978,0.401425719261,4500.0,0.416539907455,0.00259506329894,0.0151141919196,-68.0138626099,0.0,6000.0,-0.0110960518941,-0.00401483429596,-0.0110960518941,67.7166213989,0.349065840244,0.0289103612304,-0.0326963067055,0.304044127464,0.00729679549113,0.00729679549113,0.000705848389771,-0.0197324827313,165.429229736,165.429229736,-247.303512573,-68.7076187134,2013,2010,2638,2039,2039,3060,3442,3438,3293,3378,3119,3004,3145,3091,3222,2716,3379,3396,3227,3354,3119,3342,3384,3190
1508403536185537224,163,1508403536185376125,plot_matl,-0.300000011921,-3000.0,-0.265425503254,0.00152577646077,0.0345745012164,104.065757751,0.349065840244,0.0674740672112,-0.0110605079681,-0.265436887741,0.00107465253677,0.00107465253677,-0.00475248973817,-0.00420873472467,4.2126994133,4.2126994133,0.189295291901,-106.83114624,2012,2037,2117,2025,2025,2798,3343,3356,3173,3302,3024,2964,3061,3069,3160,2856,3363,3360,3185,3265,2906,3276,3303,3025,0.010005561,1.629998342,1.630906443,0.401425719261,4500.0,0.416539907455,0.00306055881083,0.0151141919196,-68.0138626099,0.0,6000.0,-0.011083827354,-0.00425664801151,-0.011083827354,67.6923141479,0.349065840244,0.0289103612304,-0.032704744488,0.304048985243,0.00858458131552,0.00858458131552,0.000875654281117,-0.0195744428784,165.616668701,165.616668701,-247.388031006,-68.400390625,2017,2015,2637,2039,2039,3060,3442,3438,3293,3378,3119,3004,3145,3091,3222,2716,3378,3397,3225,3353,3120,3342,3385,3191
1508403536195549562,164,1508403536195375600,plot_matl,-0.300000011921,-3000.0,-0.265422195196,0.00146277644671,0.0345778129995,104.08757019,0.349065840244,0.0674740672112,-0.0110605079681,-0.265436887741,0.00107465253677,0.00107465253677,-0.00475248973817,-0.00420873472467,4.2126994133,4.2126994133,0.189295291901,-106.83114624,2008,2035,2117,2025,2025,2798,3342,3357,3174,3300,3023,2964,3061,3070,3160,2856,3363,3360,3185,3265,2906,3276,3303,3025,0.009999377,1.639997694,1.639897828,0.401425719261,4500.0,0.416539907455,0.00250567845069,0.0151141919196,-68.0138626099,0.0,6000.0,-0.0110856043175,0.00919427070767,-0.0110856043175,63.7588005066,0.349065840244,0.0289103612304,-0.032704744488,0.304048985243,0.00858458131552,0.00858458131552,0.000875654281117,-0.0195744428784,165.616668701,165.616668701,-247.388031006,-68.400390625,2024,2018,2637,2039,2039,3060,3443,3440,3292,3377,3121,3005,3146,3091,3222,2716,3378,3397,3225,3353,3120,3342,3385,3191
1508403536205552355,165,1508403536205378590,plot_matl,-0.300000011921,-3000.0,-0.265419721603,0.00141510553658,0.0345802716911,104.070587158,0.349065840244,0.0674740672112,-0.0110605079681,-0.265436887741,0.00107465253677,0.00107465253677,-0.00475248973817,-0.00420873472467,4.2126994133,4.2126994133,0.189295291901,-106.83114624,2003,2039,2117,2025,2025,2798,3342,3357,3174,3300,3023,2964,3061,3070,3162,2857,3362,3360,3186,3267,2907,3273,3304,3026,0.010002523,1.650000492,1.650416295,0.401425719261,4500.0,0.417889386415,0.0282560456544,0.0164636727422,-74.0865249634,0.0,6000.0,-0.0111127616838,-0.00368156214245,-0.0111127616838,67.747177124,0.349065840244,0.0289103612304,-0.032704744488,0.304048985243,0.00858458131552,0.00858458131552,0.000875654281117,-0.0195744428784,165.616668701,165.616668701,-247.388031006,-68.400390625,2014,2017,2637,2039,2039,3060,3443,3440,3292,3377,3121,3005,3146,3091,3222,2717,3379,3396,3223,3356,3120,3342,3385,3190
1508403536215545672,166,1508403536215375854,plot_matl,-0.300000011921,-3000.0,-0.265428066254,0.00158769520931,0.034571941942,104.096511841,0.349065840244,0.0674740672112,-0.0110605079681,-0.265436887741,0.00107465253677,0.00107465253677,-0.00475248973817,-0.00420873472467,4.2126994133,4.2126994133,0.189295291901,-106.83114624,2007,2050,2118,2023,2023,2799,3339,3357,3174,3300,3024,2964,3061,3070,3162,2857,3362,3360,3186,3267,2907,3273,3304,3026,0.009997581,1.659997898,1.659598446,0.401425719261,4500.0,0.416539907455,-0.000168730126461,0.0151141919196,-68.0138626099,0.0,6000.0,-0.0111328745261,-0.00327738234773,-0.0111328745261,67.7812042236,0.349065840244,0.0289103612304,-0.032704744488,0.304048985243,0.00858458131552,0.00858458131552,0.000875654281117,-0.0195744428784,165.616668701,165.616668701,-247.388031006,-68.400390625,2022,2024,2638,2041,2041,3058,3441,3440,3292,3375,3120,3004,3146,3091,3222,2717,3379,3396,3223,3356,3120,3342,3385,3190
1508403536225600606,167,1508403536225405341,plot_matl,-0.300000011921,-3000.0,-0.265424132347,0.00151098251808,0.0345758534968,104.091285706,0.349065840244,0.0674740672112,-0.0110947769135,-0.265429973602,0.00148085108958,0.00148085108958,-0.00403654482216,-0.00435422407463,4.36319160461,4.36319160461,0.555872023106,-107.113349915,2018,2062,2118,2023,2023,2799,3339,3357,3174,3300,3024,2964,3059,3067,3163,2858,3363,3359,3187,3265,2906,3276,3304,3026,0.010029383,1.670027128,1.674906961,0.401425719261,4500.0,0.416539907455,-0.00110728701111,0.0151141919196,-68.0138626099,0.0,6000.0,-0.0111159486696,-0.00362241500989,-0.0111159486696,67.7875823975,0.349065840244,0.0337287560105,-0.0327472127974,0.30427184701,0.0576077438891,0.0576077438891,0.0017191299703,-0.0235602967441,165.353820801,165.353820801,-247.021652222,-68.3421707153,2032,2033,2638,2041,2041,3058,3441,3440,3292,3375,3120,3004,3146,3091,3221,2718,3378,3398,3224,3354,3121,3342,3385,3190
1508403536235614784,168,1508403536235379416,plot_matl,-0.300000011921,-3000.0,-0.265442669392,0.00171219289768,0.034557338804,104.1328125,0.349065840244,0.0674740672112,-0.0110947769135,-0.265429973602,0.00148085108958,0.00148085108958,-0.00403654482216,-0.00435422407463,4.36319160461,4.36319160461,0.555872023106,-107.113349915,2018,2062,2118,2023,2023,2799,3339,3357,3174,3300,3024,2964,3059,3067,3163,2858,3363,3359,3187,3265,2906,3276,3304,3026,0.009973715,1.680001166,1.67558412,0.401425719261,4500.0,0.416539907455,-0.000590808398556,0.0151141919196,-68.0138626099,0.0,6000.0,-0.0111487228423,-0.0029657385312,-0.0111487228423,67.7995529175,0.349065840244,0.0337287560105,-0.0327472127974,0.30427184701,0.0576077438891,0.0576077438891,0.0017191299703,-0.0235602967441,165.353820801,165.353820801,-247.021652222,-68.3421707153,2032,2033,2638,2041,2041,3058,3441,3440,3292,3375,3120,3004,3146,3091,3221,2718,3378,3398,3224,3354,3121,3342,3385,3190
1508403536245612931,169,1508403536245374739,plot_matl,-0.300000011921,-3000.0,-0.265431135893,0.00151254865341,0.0345688611269,104.103393555,0.349065840244,0.0674740672112,-0.0110947769135,-0.265429973602,0.00148085108958,0.00148085108958,-0.00403654482216,-0.00435422407463,4.36319160461,4.36319160461,0.555872023106,-107.113349915,2041,2064,2118,2023,2023,2807,3352,3365,3179,3309,3024,2964,3059,3067,3163,2858,3363,3359,3187,3265,2906,3276,3302,3024,0.009995161,1.689996507,1.689182209,0.401425719261,4500.0,0.416539907455,-0.00147926027421,0.0151141919196,-68.0138626099,0.0,6000.0,-0.0111388163641,-0.00316651561297,-0.0111388163641,67.7839813232,0.349065840244,0.0337287560105,-0.0327472127974,0.30427184701,0.0576077438891,0.0576077438891,0.0017191299703,-0.0235602967441,165.353820801,165.353820801,-247.021652222,-68.3421707153,2043,2037,2637,2039,2039,3069,3450,3445,3298,3381,3120,3004,3146,3091,3221,2718,3378,3398,3224,3354,3121,3342,3382,3191
1508403536255538519,170,1508403536255373742,plot_matl,-0.300000011921,-3000.0,-0.265421926975,0.00135103461798,0.0345780737698,104.086494446,0.349065840244,0.0674740672112,-0.0110947769135,-0.265429973602,0.00148085108958,0.00148085108958,-0.00403654482216,-0.00435422407463,4.36319160461,4.36319160461,0.555872023106,-107.113349915,2045,2077,2118,2023,2023,2807,3352,3365,3179,3309,3029,2968,3064,3071,3165,2861,3367,3361,3189,3266,2906,3276,3302,3024,0.010000513,1.699996237,1.70008721,0.401425719261,4500.0,0.416539907455,-0.000276316917734,0.0151141919196,-68.0138626099,0.0,6000.0,-0.0111546320841,-0.00284553389065,-0.0111546320841,67.7833251953,0.349065840244,0.0337287560105,-0.0327472127974,0.30427184701,0.0576077438891,0.0576077438891,0.0017191299703,-0.0235602967441,165.353820801,165.353820801,-247.021652222,-68.3421707153,2054,2050,2637,2039,2039,3069,3450,3445,3298,3381,3127,3009,3148,3097,3222,2721,3381,3399,3229,3354,3121,3342,3382,3191
1508403536265849115,171,1508403536265390159,plot_matl,-0.300000011921,-3000.0,-0.265425443649,0.00143005989958,0.0345745496452,104.082847595,0.349065840244,0.0674740672112,-0.0111036645249,-0.265429288149,-0.000339867779985,-0.000339867779985,0.00955863669515,-0.00436280108988,4.52864456177,4.52864456177,0.448952317238,-108.251480103,2049,2072,2117,2023,2023,2798,3342,3359,3179,3309,3029,2968,3064,3071,3165,2861,3367,3361,3189,3266,2909,3279,3304,3025,0.010017045,1.710012841,1.712914695,0.401425719261,4500.0,0.416539907455,0.000703940168023,0.0151141919196,-68.0138626099,0.0,6000.0,-0.0111085493118,0.00963550619781,-0.0111085493118,63.8415184021,0.349065840244,0.0289103612304,-0.0327145084739,0.303937882185,0.0104470364749,0.0104470364749,0.00106625724584,-0.0784046649933,165.613250732,165.613250732,-247.070281982,-68.5793304443,2047,2047,2636,2038,2038,3060,3442,3441,3298,3381,3127,3009,3148,3097,3222,2721,3381,3399,3229,3354,3122,3345,3385,3191
1508403536275868257,172,1508403536275401784,plot_matl,-0.300000011921,-3000.0,-0.265425443649,0.00143005989958,0.0345745496452,104.082847595,0.349065840244,0.0674740672112,-0.0111036645249,-0.265429288149,-0.000339867779985,-0.000339867779985,0.00955863669515,-0.00436280108988,4.52864456177,4.52864456177,0.448952317238,-108.251480103,2027,2077,2117,2023,2023,2798,3342,3359,3172,3302,3025,2965,3060,3070,3162,2858,3362,3361,3189,3266,2909,3279,3304,3025,0.010012702,1.720025268,1.722184744,0.401425719261,4500.0,0.416539907455,0.000703940168023,0.0151141919196,-68.0138626099,0.0,6000.0,-0.0111085493118,0.00963550619781,-0.0111085493118,63.8415184021,0.349065840244,0.0289103612304,-0.0327145084739,0.303937882185,0.0104470364749,0.0104470364749,0.00106625724584,-0.0784046649933,165.613250732,165.613250732,-247.070281982,-68.5793304443,2035,2053,2636,2038,2038,3060,3442,3441,3290,3377,3121,3005,3146,3092,3220,2719,3379,3396,3229,3354,3122,3345,3385,3191
