%time,field.header.seq,field.header.stamp,field.header.frame_id,field.FFJ4_set_point,field.FFJ4_position_gain,field.FFJ4_process_value,field.FFJ4_process_value_dot,field.FFJ4_error,field.FFJ4_command,field.FFJ1,field.FFJ2,field.FFJ3,field.FFJ4,field.FFJ1_dot,field.FFJ2_dot,field.FFJ3_dot,field.FFJ4_dot,field.FFJ1_tao,field.FFJ2_tao,field.FFJ3_tao,field.FFJ4_tao,field.pac0,field.pac1,field.pdc0,field.tac0,field.tdc0,field.el0,field.el1,field.el2,field.el3,field.el4,field.el5,field.el6,field.el7,field.el8,field.el9,field.el10,field.el11,field.el12,field.el13,field.el14,field.el15,field.el16,field.el17,field.el18,field.dt,field.time,field.test_time2,field.FFJ0_set_point,field.FFJ0_position_gain,field.FFJ0_process_value,field.FFJ0_process_value_dot,field.FFJ0_error,field.FFJ0_command,field.FFJ3_set_point,field.FFJ3_position_gain,field.FFJ3_process_value,field.FFJ3_process_value_dot,field.FFJ3_error,field.FFJ3_command,field.MFJ1,field.MFJ2,field.MFJ3,field.MFJ4,field.MFJ1_dot,field.MFJ2_dot,field.MFJ3_dot,field.MFJ4_dot,field.MFJ1_tao,field.MFJ2_tao,field.MFJ3_tao,field.MFJ4_tao,field.Mpac0,field.Mpac1,field.Mpdc0,field.Mtac0,field.Mtdc0,field.Mel0,field.Mel1,field.Mel2,field.Mel3,field.Mel4,field.Mel5,field.Mel6,field.Mel7,field.Mel8,field.Mel9,field.Mel10,field.Mel11,field.Mel12,field.Mel13,field.Mel14,field.Mel15,field.Mel16,field.Mel17,field.Mel18
1508403097641075249,93,1508403097640848879,plot_matl,-0.349065840244,-5000.0,-0.337453424931,0.00447047641501,0.0116124143824,59.1788444519,0.349065840244,0.0701730325818,-0.00945536419749,-0.337456285954,-0.00972389988601,-0.00972389988601,0.00304114748724,-0.00144510541577,23.1107959747,23.1107959747,-0.123036645353,-143.078109741,2022,2064,2111,2021,2021,2812,3353,3369,3191,3316,3041,2976,3071,3079,3175,2865,3371,3367,3194,3273,2914,3288,3313,3037,0.009958932,0.929973879,0.926180676,0.401425719261,4500.0,0.420588374138,0.00756334606558,0.0191626362503,-86.2318572998,0.0,6000.0,-0.0094613917172,0.00316107203253,-0.0094613917172,55.7617301941,0.349065840244,0.0313195586205,-0.0340678580105,0.300820916891,0.0311167538166,0.0311167538166,-0.00225579249673,-0.0150586748496,161.329574585,161.329574585,-258.149902344,-78.8049545288,2027,2038,2642,2037,2037,3052,3444,3444,3294,3379,3123,3001,3146,3097,3222,2743,3387,3402,3233,3357,3127,3344,3385,3195
1508403097651037680,94,1508403097650851688,plot_matl,-0.349065840244,-5000.0,-0.337461411953,-0.00134456739761,0.0116044394672,57.727558136,0.349065840244,0.0715225115418,-0.00944013614208,-0.337452083826,0.00322324247099,0.00322324247099,0.00272698723711,0.00444364501163,23.0568599701,23.0568599701,0.00276590907015,-142.051651001,2020,2058,2110,2023,2023,2807,3352,3365,3188,3314,3041,2976,3071,3079,3175,2865,3371,3367,3194,3273,2914,3288,3314,3038,0.010002891,0.939976687,0.940271754,0.401425719261,4500.0,0.420588374138,0.00672098295763,0.0191626362503,-86.2318572998,0.0,6000.0,-0.00944599602371,0.00284310523421,-0.00944599602371,55.8933067322,0.349065840244,0.0289103612304,-0.0340633019805,0.300854891539,0.00683599896729,0.00683599896729,-0.00236501032487,0.0461241602898,161.345489502,161.345489502,-257.939239502,-78.79737854,2024,2034,2642,2032,2032,3052,3442,3440,3291,3378,3123,3001,3146,3097,3222,2743,3387,3402,3233,3357,3127,3344,3387,3196
1508403097661135429,95,1508403097660848821,plot_matl,-0.349065840244,-5000.0,-0.337452679873,-0.00151975743938,0.0116131734103,57.7006530762,0.349065840244,0.0701730325818,-0.00942703988403,-0.3374556005,-0.00970738753676,-0.00970738753676,0.00246348837391,-0.00146125070751,22.9737548828,22.9737548828,0.0306463837624,-142.404800415,2017,2066,2110,2023,2023,2807,3352,3365,3188,3314,3042,2978,3071,3081,3173,2864,3369,3366,3192,3271,2914,3288,3314,3038,0.010007716,0.949982962,0.95073302,0.401425719261,4500.0,0.420588374138,0.00706645520404,0.0191626362503,-86.2318572998,0.0,6000.0,-0.0094320261851,0.00256212358363,-0.0094320261851,55.8167800903,0.349065840244,0.0289103612304,-0.0340698435903,0.30087864399,0.00597734330222,0.00597734330222,-0.00223171431571,-0.0161845199764,161.240020752,161.240020752,-258.022613525,-78.6018676758,2021,2027,2642,2032,2032,3052,3442,3440,3291,3378,3121,3000,3143,3095,3223,2741,3384,3400,3232,3358,3127,3344,3387,3196
1508403097671310165,96,1508403097670915474,plot_matl,-0.349065840244,-5000.0,-0.337450385094,-0.00157230952755,0.0116154691204,57.6888465881,0.349065840244,0.0715225115418,-0.00946547929198,-0.337453335524,0.00394005374983,0.00394005374983,-0.0101751815528,-0.0015132293338,22.8007793427,22.8007793427,-0.0857075676322,-142.609909058,2020,2041,2111,2019,2019,2810,3354,3369,3188,3314,3042,2978,3071,3081,3173,2864,3369,3366,3192,3271,2914,3284,3312,3036,0.010056782,0.960041169,0.965451072,0.401425719261,4500.0,0.420588374138,0.0076610497199,0.0191626362503,-86.2318572998,0.0,6000.0,-0.00945821404457,0.00309897749685,-0.00945821404457,55.7866706848,0.349065840244,0.0289103612304,-0.0340477637947,0.300889909267,0.00622154446319,0.00622154446319,-0.0026696450077,-0.0165167376399,161.120498657,161.120498657,-257.988311768,-78.6728668213,2019,2018,2642,2036,2036,3053,3443,3439,3291,3378,3121,3000,3143,3095,3223,2741,3384,3400,3232,3358,3126,3344,3386,3194
1508403097681356760,97,1508403097680897589,plot_matl,-0.349065840244,-5000.0,-0.337459504604,-0.00139312422834,0.011606358923,57.6685562134,0.349065840244,0.0715225115418,-0.00948348361999,-0.337456315756,0.00395903689787,0.00395903689787,0.00363722583279,0.00451795430854,22.772644043,22.772644043,-0.113805152476,-142.916732788,2010,2045,2111,2019,2019,2810,3354,3369,3189,3314,3043,2976,3071,3079,3174,2863,3369,3363,3192,3271,2914,3284,3312,3036,0.009982152,0.970023451,0.968268744,0.401425719261,4500.0,0.420588374138,0.00769706768915,0.0191626362503,-86.2318572998,0.0,6000.0,-0.00947791151702,0.00351803703234,-0.00947791151702,55.7205581665,0.349065840244,0.0289103612304,-0.0340447202325,0.300852298737,0.00553630664945,0.00553630664945,-0.00273977615871,0.0460877008736,161.135314941,161.135314941,-257.921417236,-78.802444458,2012,2018,2642,2036,2036,3053,3443,3439,3292,3378,3121,2999,3144,3093,3223,2739,3382,3400,3232,3358,3126,3344,3386,3194
1508403097691221442,98,1508403097690865209,plot_matl,-0.349065840244,-5000.0,-0.337461858988,-0.00134958676063,0.0116039998829,57.6961402893,0.349065840244,0.0715225115418,-0.00946368277073,-0.337458699942,0.00327316951007,0.00327316951007,-0.0101806716993,0.00456146011129,22.8515281677,22.8515281677,-0.318681061268,-143.000793457,2009,2040,2110,2022,2022,2812,3354,3369,3189,3314,3043,2976,3071,3079,3174,2863,3369,3363,3190,3272,2913,3284,3314,3039,0.009966768,0.97999055,0.976743264,0.401425719261,4500.0,0.419238895178,-0.0204501412809,0.0178131535649,-80.1591949463,0.0,6000.0,-0.00945672113448,0.00309932767414,-0.00945672113448,55.809677124,0.349065840244,0.0313195586205,-0.0340416803956,0.300989598036,0.0297232698649,0.0297232698649,-0.00279727578163,0.0433042570949,161.034851074,161.034851074,-258.069763184,-78.6893310547,2005,2009,2642,2039,2039,3054,3443,3439,3292,3378,3121,2999,3144,3093,3223,2739,3382,3400,3231,3358,3126,3344,3385,3197
1508403097701288152,99,1508403097700869453,plot_matl,-0.349065840244,-5000.0,-0.33746317029,0.004649002105,0.0116026932374,59.1523704529,0.349065840244,0.0715225115418,-0.00947097595781,-0.337465643883,0.00316716963425,0.00316716963425,-0.0100211938843,-0.00127491983585,22.9545459747,22.9545459747,-0.262064754963,-143.079666138,1999,2041,2110,2022,2022,2812,3355,3369,3189,3315,3042,2976,3069,3080,3173,2862,3369,3363,3190,3272,2913,3284,3314,3039,0.010003753,0.989995014,0.990371547,0.401425719261,4500.0,0.420588374138,0.00658440962434,0.0191626362503,-86.2318572998,0.0,6000.0,-0.00946443807334,-0.0101544959471,-0.00946443807334,59.8965759277,0.349065840244,0.0265011657029,-0.0339984223247,0.300879269838,-0.0194949060678,-0.0194949060678,0.0116429710761,-0.0163684543222,161.209594727,161.209594727,-258.137756348,-78.6682357788,2001,2009,2642,2039,2039,3054,3440,3440,3293,3378,3122,2998,3142,3093,3222,2737,3382,3400,3231,3358,3126,3344,3385,3197
1508403097711197851,100,1508403097710867428,plot_matl,-0.349065840244,-5000.0,-0.337463736534,-0.00131438160315,0.0116021111608,57.7031211853,0.349065840244,0.0715225115418,-0.00947509519756,-0.337460368872,0.00281548174098,0.00281548174098,0.00349868275225,0.00459358515218,23.0309638977,23.0309638977,-0.383004933596,-143.224746704,1990,2043,2111,2027,2027,2812,3355,3369,3189,3315,3042,2976,3069,3080,3173,2862,3369,3366,3191,3271,2913,3289,3314,3038,0.009997684,0.999992843,0.9997684,0.401425719261,4500.0,0.421937853098,0.0331041179597,0.0205121170729,-92.3045272827,0.0,6000.0,-0.00946917477995,0.00337334838696,-0.00946917477995,55.8325805664,0.349065840244,0.0265011657029,-0.034031573683,0.300852835178,-0.0181423109025,-0.0181423109025,-0.00303192809224,0.0461735129356,161.02684021,161.02684021,-258.286315918,-78.7818603516,2006,2012,2643,2037,2037,3054,3440,3440,3293,3378,3122,2998,3142,3093,3222,2737,3383,3401,3233,3359,3125,3344,3385,3195
1508403097721240744,101,1508403097720879118,plot_matl,-0.349065840244,-5000.0,-0.337460458279,-0.00139117974322,0.01160540618,57.731842041,0.349065840244,0.0715225115418,-0.00946908444166,-0.337463140488,0.00283958320506,0.00283958320506,0.00336859072559,-0.00133666023612,23.0674343109,23.0674343109,-0.502905845642,-143.210327148,2004,2029,2111,2027,2027,2811,3355,3368,3190,3313,3043,2975,3071,3081,3173,2862,3369,3366,3191,3271,2913,3289,3314,3038,0.010012712,1.010005812,1.011283912,0.401425719261,4500.0,0.419238895178,-0.0219073239714,0.0178131535649,-80.1591949463,0.0,6000.0,-0.00947587843984,0.00350598827936,-0.00947587843984,55.9212112427,0.349065840244,0.0265011657029,-0.0340165048838,0.300813168287,-0.0170825216919,-0.0170825216919,0.0120221618563,-0.0150264026597,161.029953003,161.029953003,-258.369506836,-78.7636184692,2018,2010,2643,2037,2037,3054,3440,3441,3292,3379,3123,2999,3143,3092,3222,2737,3383,3401,3233,3359,3125,3344,3385,3195
1508403097731240341,102,1508403097730869996,plot_matl,-0.349065840244,-5000.0,-0.337462186813,-0.00135623535607,0.0116036655381,57.7166404724,0.349065840244,0.0728719979525,-0.009476990439,-0.337464869022,0.0161579661071,0.0161579661071,-0.00990124791861,-0.0013014706783,23.0219402313,23.0219402313,-0.384441137314,-143.130874634,2010,2045,2111,2027,2027,2811,3355,3368,3190,3313,3043,2975,3071,3081,3172,2863,3368,3365,3194,3271,2914,3285,3316,3038,0.009989169,1.019995697,1.018895238,0.401425719261,4500.0,0.419238895178,-0.0214162897319,0.0178131535649,-80.1591949463,0.0,6000.0,-0.0094698369503,0.00338515732437,-0.0094698369503,55.8736381531,0.349065840244,0.0289103612304,-0.0340464599431,0.300777643919,0.00548743503168,0.00548743503168,-0.00271638669074,-0.0144956056029,161.131454468,161.131454468,-258.126342773,-78.77368927,2017,2016,2643,2037,2037,3054,3440,3441,3292,3379,3123,2999,3143,3092,3222,2738,3386,3401,3232,3358,3126,3344,3386,3196
1508403097741231892,103,1508403097740866006,plot_matl,-0.349065840244,-5000.0,-0.337468951941,-0.00122111139353,0.0115968883038,57.6781768799,0.349065840244,0.0715225115418,-0.00945782847703,-0.337471246719,0.00354216340929,0.00354216340929,0.00313136237673,-0.00117485225201,23.408575058,23.408575058,-0.238126412034,-142.834640503,2026,2050,2111,2023,2023,2809,3353,3368,3187,3316,3043,2974,3071,3081,3172,2863,3368,3365,3194,3271,2914,3285,3316,3038,0.00999586,1.029991703,1.02957358,0.401425719261,4500.0,0.420588374138,0.00683197798207,0.0191626362503,-86.2318572998,0.0,6000.0,-0.00945115741342,0.00299305841327,-0.00945115741342,55.7580032349,0.349065840244,0.0289103612304,-0.0340436883271,0.300766795874,0.00798655953258,0.00798655953258,-0.00277787889354,0.0476032234728,161.288085938,161.288085938,-258.030303955,-78.9262466431,2029,2028,2643,2035,2035,3053,3442,3442,3292,3376,3123,2998,3143,3092,3222,2738,3386,3401,3232,3358,3126,3344,3386,3196
1508403097751023904,104,1508403097750834238,plot_matl,-0.349065840244,-5000.0,-0.337463855743,-0.0013289921917,0.011601999402,57.7011909485,0.349065840244,0.0715225115418,-0.00945487152785,-0.337460279465,0.00459176301956,0.00459176301956,0.003060818417,0.00457806373015,23.6711463928,23.6711463928,-0.176137626171,-143.24331665,2023,2050,2111,2023,2023,2809,3353,3368,3187,3316,3043,2974,3071,3080,3173,2864,3370,3365,3192,3271,2913,3286,3316,3038,0.009966803,1.039959358,1.036547512,0.401425719261,4500.0,0.419238895178,-0.0182408671826,0.0178131535649,-80.1591949463,0.0,6000.0,-0.00946108624339,-0.01023122482,-0.00946108624339,59.7672653198,0.349065840244,0.0289103612304,-0.0340132936835,0.300744622946,0.010463452898,0.010463452898,-0.00339652225375,-0.0138113936409,161.15838623,161.15838623,-258.234527588,-78.8878250122,2028,2027,2643,2035,2035,3053,3442,3442,3292,3376,3123,2998,3141,3092,3220,2740,3383,3402,3232,3356,3125,3343,3386,3196
1508403097761232264,105,1508403097760865488,plot_matl,-0.349065840244,-5000.0,-0.337453514338,-0.00152149191126,0.0116123277694,57.6627655029,0.349065840244,0.0701730325818,-0.00946633890271,-0.337456345558,-0.00761183071882,-0.00761183071882,-0.0101477317512,-0.001464237459,23.657617569,23.657617569,-0.151833146811,-143.479476929,2041,2062,2112,2023,2023,2810,3352,3369,3188,3312,3043,2974,3071,3080,3173,2864,3370,3365,3192,3271,2913,3286,3314,3037,0.010032568,1.049991635,1.05341964,0.401425719261,4500.0,0.419238895178,-0.0163464359939,0.0178131535649,-80.1591949463,0.0,6000.0,-0.00945903267711,-0.0102847935632,-0.00945903267711,60.1128120422,0.349065840244,0.0313195586205,-0.0340163297951,0.300738692284,0.0346603617072,0.0346603617072,-0.00334890303202,-0.0136256990954,161.12399292,161.12399292,-258.120239258,-78.8958740234,2041,2039,2643,2038,2038,3051,3443,3442,3291,3379,3123,2998,3141,3092,3220,2740,3383,3402,3232,3356,3125,3343,3385,3195
1508403097771044210,106,1508403097770851985,plot_matl,-0.349065840244,-5000.0,-0.337451547384,-0.00156738550868,0.01161429286,57.7092857361,0.349065840244,0.0715225115418,-0.00947062950581,-0.337448567152,0.00664111040533,0.00664111040533,0.00338442018256,-0.00162253784947,23.6135082245,23.6135082245,-0.2523047328,-143.508224487,2047,2071,2112,2023,2023,2810,3352,3369,3188,3312,3042,2976,3072,3080,3171,2865,3368,3366,3190,3272,2913,3286,3314,3037,0.009983309,1.059976602,1.058230754,0.401425719261,4500.0,0.419238895178,-0.0134457508102,0.0178131535649,-80.1591949463,0.0,6000.0,-0.00947756785899,0.00352409319021,-0.00947756785899,55.8411216736,0.349065840244,0.0289103612304,-0.0340337827802,0.300739109516,0.0106358323246,0.0106358323246,-0.00299205374904,0.0482910275459,161.06111145,161.06111145,-258.143371582,-78.6249542236,2048,2048,2643,2038,2038,3051,3443,3442,3291,3379,3123,3000,3143,3092,3222,2742,3385,3401,3233,3359,3125,3343,3385,3195
1508403097781209259,107,1508403097780925171,plot_matl,-0.349065840244,-5000.0,-0.337460398674,-0.00138399051502,0.0116054648533,57.7067909241,0.349065840244,0.0701730325818,-0.00946531165391,-0.337463080883,-0.0074343723245,-0.0074343723245,-0.0101422891021,-0.00132937869057,23.6900348663,23.6900348663,-0.211235776544,-143.174667358,2032,2075,2110,2024,2024,2811,3354,3368,3188,3312,3042,2976,3072,3080,3171,2865,3368,3366,3190,3272,2912,3287,3316,3038,0.01007492,1.070050892,1.07801644,0.401425719261,4500.0,0.420588374138,0.0123466607183,0.0191626362503,-86.2318572998,0.0,6000.0,-0.00945864245296,0.00314229517244,-0.00945864245296,55.8392181396,0.349065840244,0.0289103612304,-0.0340319126844,0.300729393959,0.00957809947431,0.00957809947431,-0.00301083200611,-0.0133217452094,161.15184021,161.15184021,-258.077484131,-78.4027557373,2038,2041,2643,2040,2040,3052,3442,3441,3291,3379,3123,3000,3143,3092,3222,2742,3385,3401,3233,3359,3126,3343,3385,3194
1508403097791295952,108,1508403097790863690,plot_matl,-0.349065840244,-5000.0,-0.337456166744,-0.00146930129267,0.0116096697748,57.6932067871,0.349065840244,0.0701730325818,-0.00944769009948,-0.337459027767,-0.00708474358544,-0.00708474358544,0.00292561366223,-0.00141190865543,23.6407928467,23.6407928467,-0.31449458003,-143.008682251,2031,2073,2110,2024,2024,2811,3354,3368,3189,3314,3042,2977,3071,3081,3172,2863,3370,3366,3190,3272,2912,3287,3316,3038,0.00993852,1.079989477,1.07336016,0.401425719261,4500.0,0.421937853098,0.0397652946413,0.0205121170729,-92.3045272827,0.0,6000.0,-0.00945359095931,0.00304453680292,-0.00945359095931,55.7996444702,0.349065840244,0.0289103612304,-0.0339898057282,0.300723999739,0.00958754215389,0.00958754215389,-0.00386355561204,-0.0131826773286,161.159957886,161.159957886,-258.5105896,-78.4381484985,2037,2049,2643,2040,2040,3052,3442,3441,3293,3378,3123,2998,3143,3093,3223,2741,3385,3400,3233,3359,3126,3343,3385,3194
1508403097801283796,109,1508403097800921024,plot_matl,-0.349065840244,-5000.0,-0.337463766336,-0.00131489185151,0.0116020813584,57.6951255798,0.349065840244,0.0701730325818,-0.00943397264928,-0.337466359138,-0.0075472430326,-0.0075472430326,0.0026533943601,-0.00126290426124,23.4421539307,23.4421539307,-0.187877908349,-142.318313599,2025,2071,2110,2022,2022,2810,3354,3368,3189,3314,3042,2977,3071,3081,3172,2863,3370,3366,3191,3272,2911,3286,3313,3037,0.010057284,1.090047111,1.096243956,0.401425719261,4500.0,0.421937853098,0.039376553148,0.0205121170729,-92.3045272827,0.0,6000.0,-0.00943938363343,-0.0106639619917,-0.00943938363343,59.8273658752,0.349065840244,0.0240919683129,-0.0339825712144,0.30077162385,-0.0380351357162,-0.0380351357162,-0.00401354627684,-0.0141065074131,161.097763062,161.097763062,-258.236633301,-78.3365325928,2035,2035,2642,2039,2039,3052,3442,3441,3293,3378,3123,2998,3143,3093,3223,2741,3385,3400,3230,3358,3124,3344,3386,3194
1508403097811170552,110,1508403097810903119,plot_matl,-0.349065840244,-5000.0,-0.337447881699,0.00433907937258,0.0116179827601,59.117515564,0.349065840244,0.0701730325818,-0.00944589823484,-0.337451040745,-0.00786640122533,-0.00786640122533,0.0029077923391,-0.00157303898595,23.2977371216,23.2977371216,-0.244532644749,-142.328872681,2030,2077,2110,2022,2022,2810,3353,3369,3190,3314,3043,2976,3070,3078,3171,2862,3370,3366,3191,3272,2911,3286,3313,3037,0.009980855,1.1000286,1.09789405,0.401425719261,4500.0,0.420588374138,0.0108876917511,0.0191626362503,-86.2318572998,0.0,6000.0,-0.00945175904781,-0.0103975338861,-0.00945175904781,59.7921829224,0.349065840244,0.0265011657029,-0.0339912995696,0.300814837217,-0.0129897072911,-0.0129897072911,-0.00384068116546,-0.0149502595887,161.295715332,161.295715332,-258.165527344,-78.4351119995,2033,2040,2642,2039,2039,3052,3442,3442,3293,3376,3124,2999,3143,3093,3222,2737,3385,3400,3230,3358,3124,3344,3386,3194
1508403097821252002,111,1508403097820873479,plot_matl,-0.349065840244,-5000.0,-0.33745148778,-0.00156076927669,0.011614353396,57.6917724609,0.349065840244,0.0701730325818,-0.00945572368801,-0.33745443821,-0.00765091832727,-0.00765091832727,-0.010319438763,-0.0015011918731,23.2749385834,23.2749385834,-0.218543574214,-142.361206055,1996,2046,2111,2023,2023,2810,3353,3369,3190,3314,3043,2976,3070,3078,3171,2862,3369,3369,3189,3271,2914,3287,3315,3039,0.009971023,1.109999431,1.106783553,0.401425719261,4500.0,0.419238895178,-0.0153736285865,0.0178131535649,-80.1591949463,0.0,6000.0,-0.00944826100022,0.00295185903087,-0.00944826100022,55.7955093384,0.349065840244,0.0289103612304,-0.033998131752,0.300630241632,0.0101743293926,0.0101743293926,-0.00369216804393,-0.0112154167145,161.173431396,161.173431396,-257.956939697,-78.5172653198,2003,2010,2643,2038,2038,3052,3442,3442,3293,3376,3124,2999,3143,3093,3222,2737,3382,3400,3232,3358,3125,3344,3385,3196
1508403097831288348,112,1508403097830890381,plot_matl,-0.349065840244,-5000.0,-0.337465465069,-0.00127920357045,0.0116003844887,57.6957397461,0.349065840244,0.0701730325818,-0.00946342200041,-0.337462007999,-0.0070182881318,-0.0070182881318,0.00325491954572,0.00462792161852,23.1950054169,23.1950054169,-0.141882747412,-142.248413086,1996,2046,2111,2023,2023,2810,3353,3369,3190,3314,3043,2976,3070,3078,3171,2862,3369,3369,3189,3271,2914,3287,3315,3039,0.01001579,1.120016088,1.12176848,0.401425719261,4500.0,0.420588374138,0.0126457447186,0.0191626362503,-86.2318572998,0.0,6000.0,-0.00945660471916,0.00311491824687,-0.00945660471916,55.8103561401,0.349065840244,0.0289103612304,-0.0340169370174,0.300478518009,0.00962233822793,0.00962233822793,-0.00331291533075,-0.00813152641058,161.103179932,161.103179932,-257.934020996,-78.5207366943,2003,2010,2643,2038,2038,3052,3442,3442,3293,3376,3124,2999,3143,3093,3222,2737,3382,3400,3232,3358,3125,3344,3385,3196
1508403097841191547,113,1508403097840871773,plot_matl,-0.349065840244,-5000.0,-0.337466627359,-0.00125449150801,0.0115992231295,57.6928443909,0.349065840244,0.0701730325818,-0.00946342200041,-0.337462007999,-0.0070182881318,-0.0070182881318,0.00325491954572,0.00462792161852,23.1950054169,23.1950054169,-0.141882747412,-142.248413086,2024,2052,2111,2023,2023,2811,3351,3368,3189,3315,3044,2976,3073,3078,3171,2862,3369,3369,3189,3271,2914,3287,3315,3039,0.009982525,1.12999766,1.128025325,0.401425719261,4500.0,0.420588374138,0.0127836922184,0.0191626362503,-86.2318572998,0.0,6000.0,-0.00945660471916,0.00311491824687,-0.00945660471916,55.8103561401,0.349065840244,0.0289103612304,-0.0340169370174,0.300478518009,0.00962233822793,0.00962233822793,-0.00331291533075,-0.00813152641058,161.103179932,161.103179932,-257.934020996,-78.5207366943,2028,2025,2643,2038,2038,3054,3443,3439,3292,3377,3124,2999,3142,3093,3222,2737,3382,3400,3232,3358,3125,3344,3385,3196
1508403097851010787,114,1508403097850873336,plot_matl,-0.349065840244,-5000.0,-0.337466627359,-0.00125449150801,0.0115992231295,57.6928443909,0.349065840244,0.0715225115418,-0.00947153288871,-0.33746907115,0.00640580430627,0.00640580430627,-0.010003997013,-0.0012051849626,22.9465332031,22.9465332031,-0.0623829178512,-142.370101929,2014,2049,2111,2023,2023,2811,3351,3368,3189,3315,3044,2976,3073,3078,3173,2862,3365,3365,3189,3273,2914,3286,3312,3038,0.009998431,1.139998421,1.139821134,0.401425719261,4500.0,0.420588374138,0.0127836922184,0.0191626362503,-86.2318572998,0.0,6000.0,-0.00946465879679,0.00328137446195,-0.00946465879679,55.8013534546,0.349065840244,0.0289103612304,-0.03401729092,0.300467044115,0.0100286826491,0.0100286826491,0.0120399510488,-0.00790171418339,161.038894653,161.038894653,-258.014862061,-78.626991272,2027,2029,2643,2038,2038,3054,3443,3439,3292,3377,3124,2999,3142,3093,3221,2738,3383,3403,3231,3359,3124,3344,3386,3194
1508403097861212543,115,1508403097860867155,plot_matl,-0.349065840244,-5000.0,-0.33748242259,-0.00136586860754,0.0115834213793,57.6918983459,0.349065840244,0.0701730325818,-0.00942343380302,-0.337485134602,-0.0068126716651,-0.0068126716651,0.00244631734677,-0.00128601945471,23.189661026,23.189661026,-0.297368109226,-141.94909668,2019,2070,2110,2024,2024,2810,3353,3392,3207,3331,3054,2987,3073,3078,3173,2862,3365,3365,3189,3273,2914,3286,3312,3038,0.009994926,1.149992807,1.14941649,0.401425719261,4500.0,0.419238895178,-0.0144713427871,0.0178131535649,-80.1591949463,0.0,6000.0,-0.0094309411943,0.00259820953943,-0.0094309411943,55.8081474304,0.349065840244,0.0265011657029,-0.0340378805995,0.300436675549,-0.0147703392431,-0.0147703392431,-0.00280502345413,-0.0114871645346,160.932052612,160.932052612,-258.037567139,-78.3494949341,2031,2039,2642,2038,2038,3053,3442,3461,3311,3393,3136,3012,3142,3093,3221,2738,3383,3403,3231,3359,3124,3344,3386,3194
1508403097871184932,116,1508403097870850139,plot_matl,-0.349065840244,-5000.0,-0.337490856647,-0.00111865752842,0.0115750059485,57.6944923401,0.349065840244,0.0715225115418,-0.00942603405565,-0.337487310171,0.00725336791947,0.00725336791947,0.00250182347372,-0.00117060227785,23.107629776,23.107629776,-0.270206004381,-142.134811401,2030,2064,2110,2024,2024,2810,3353,3392,3207,3331,3054,2987,3082,3088,3183,2870,3379,3374,3197,3279,2919,3291,3312,3038,0.009982113,1.159975403,1.157925108,0.401425719261,4500.0,0.419238895178,-0.0118484059349,0.0178131535649,-80.1591949463,0.0,6000.0,-0.0094199962914,0.0023771810811,-0.0094199962914,55.8238258362,0.349065840244,0.0265011657029,-0.0340229868889,0.300479054451,-0.0147685678676,-0.0147685678676,-0.00312321586534,-0.0115814674646,160.844696045,160.844696045,-258.1847229,-78.329284668,2038,2039,2642,2038,2038,3053,3442,3461,3311,3393,3136,3012,3155,3102,3232,2746,3393,3409,3238,3363,3131,3349,3386,3194
1508403097881247299,117,1508403097880894127,plot_matl,-0.349065840244,-5000.0,-0.337476044893,-0.00135131983552,0.0115898167714,57.6978378296,0.349065840244,0.0715225115418,-0.00942603405565,-0.337487310171,0.00725336791947,0.00725336791947,0.00250182347372,-0.00117060227785,23.107629776,23.107629776,-0.270206004381,-142.134811401,2018,2039,2111,2020,2020,2812,3356,3373,3191,3316,3054,2987,3082,3088,3183,2870,3379,3374,3197,3279,2919,3291,3318,3043,0.010043965,1.170019428,1.175143905,0.401425719261,4500.0,0.420588374138,0.014617215842,0.0191626362503,-86.2318572998,0.0,6000.0,-0.0094222901389,0.00242810347117,-0.0094222901389,55.8225975037,0.349065840244,0.0265011657029,-0.0340229868889,0.300479054451,-0.0147685678676,-0.0147685678676,-0.00312321586534,-0.0115814674646,160.844696045,160.844696045,-258.1847229,-78.329284668,2010,2010,2642,2038,2038,3056,3444,3445,3295,3382,3136,3012,3155,3102,3232,2746,3393,3409,3238,3363,3131,3349,3389,3198
1508403097891044538,118,1508403097890866059,plot_matl,-0.349065840244,-5000.0,-0.337485641241,-0.00110603496432,0.011580215767,57.6850242615,0.349065840244,0.0715225115418,-0.0094281360507,-0.337479114532,0.00714310631156,0.00714310631156,0.00254606944509,-0.00127290375531,23.2356643677,23.2356643677,-0.155111148953,-142.545135498,2046,2067,2111,2020,2020,2812,3356,3373,3191,3316,3043,2977,3074,3081,3173,2863,3371,3366,3194,3271,2919,3291,3318,3043,0.009972857,1.179992007,1.176797126,0.401425719261,4500.0,0.420588374138,0.013938174583,0.0191626362503,-86.2318572998,0.0,6000.0,-0.00943688023835,-0.0107029471546,-0.00943688023835,59.9280853271,0.349065840244,0.0265011657029,-0.0340092778206,0.300355821848,-0.0151297515258,-0.0151297515258,-0.00341105810367,-0.00844625290483,160.867462158,160.867462158,-257.973083496,-78.554069519,2039,2029,2642,2038,2038,3056,3444,3445,3295,3382,3124,3000,3144,3094,3223,2740,3385,3404,3233,3360,3131,3349,3389,3198
1508403097901174598,119,1508403097900898692,plot_matl,-0.349065840244,-5000.0,-0.337493479252,-0.000905523425899,0.0115723675117,57.6838722229,0.349065840244,0.0701730325818,-0.00946700014174,-0.337495535612,-0.00671784579754,-0.00671784579754,-0.0100987674668,-0.00085309863789,23.5034770966,23.5034770966,-0.13236476481,-141.82913208,2044,2069,2111,2022,2022,2811,3352,3370,3191,3316,3043,2977,3074,3081,3173,2863,3371,3366,3194,3271,2914,3286,3314,3038,0.010032743,1.19002468,1.193896417,0.401425719261,4500.0,0.419238895178,-0.0142613453791,0.0178131535649,-80.1591949463,0.0,6000.0,-0.00945001933724,-0.0104427970946,-0.00945001933724,59.9445877075,0.349065840244,0.0289103612304,-0.0340545289218,0.300353288651,0.00981555320323,0.00981555320323,-0.00251846876927,-0.0693565383554,160.98274231,160.98274231,-257.952575684,-78.4798965454,2045,2039,2642,2035,2035,3054,3443,3441,3295,3382,3124,3000,3144,3094,3223,2740,3385,3404,3233,3360,3125,3345,3386,3197
1508403097911123306,120,1508403097910863196,plot_matl,-0.349065840244,-5000.0,-0.337488949299,-0.00096453767037,0.0115769123659,57.6914825439,0.349065840244,0.0701730325818,-0.00946700014174,-0.337495535612,-0.00671784579754,-0.00671784579754,-0.0100987674668,-0.00085309863789,23.5034770966,23.5034770966,-0.13236476481,-141.82913208,2011,2055,2111,2022,2022,2811,3352,3370,3187,3316,3042,2976,3071,3080,3172,2863,3370,3367,3194,3271,2914,3286,3314,3038,0.009962784,1.199988521,1.19553408,0.401425719261,4500.0,0.420588374138,0.0130244782194,0.0191626362503,-86.2318572998,0.0,6000.0,-0.00944552384317,0.00289073144086,-0.00944552384317,55.8100700378,0.349065840244,0.0289103612304,-0.0340545289218,0.300353288651,0.00981555320323,0.00981555320323,-0.00251846876927,-0.0693565383554,160.98274231,160.98274231,-257.952575684,-78.4798965454,2017,2017,2642,2035,2035,3054,3443,3441,3292,3378,3124,3001,3145,3093,3223,2738,3386,3401,3233,3360,3125,3345,3386,3197
1508403097921232442,121,1508403097920927345,plot_matl,-0.349065840244,-5000.0,-0.33748587966,-0.000994773698039,0.0115799782798,57.6896972656,0.349065840244,0.0715225115418,-0.00943473633379,-0.337482690811,0.00625970726833,0.00625970726833,0.00268202950247,-0.00105403666385,23.1870880127,23.1870880127,-0.841898858547,-142.504806519,2026,2069,2111,2020,2020,2812,3352,3370,3187,3316,3042,2976,3071,3080,3172,2863,3370,3367,3192,3269,2913,3286,3314,3037,0.010065583,1.210053623,1.217935543,0.401425719261,4500.0,0.419238895178,-0.0150792039931,0.0178131535649,-80.1591949463,0.0,6000.0,-0.00944299343973,0.00284953531809,-0.00944299343973,55.8007278442,0.349065840244,0.0265011657029,-0.0340715683997,0.300474405289,-0.016505530104,-0.016505530104,-0.00219643581659,0.0525969341397,161.023391724,161.023391724,-257.597412109,-78.3194198608,2027,2039,2643,2038,2038,3054,3443,3441,3292,3378,3124,3001,3145,3093,3223,2738,3386,3401,3232,3360,3125,3345,3388,3195
1508403097931200757,122,1508403097930895117,plot_matl,-0.349065840244,-5000.0,-0.33748871088,-0.000916829914786,0.0115771433339,57.6903038025,0.349065840244,0.0715225115418,-0.00942347943783,-0.337491035461,0.00633544847369,0.00633544847369,0.00245551601984,-0.000863437540829,22.9973678589,22.9973678589,-0.692866742611,-142.369506836,2012,2068,2111,2020,2020,2812,3354,3368,3187,3314,3042,2977,3070,3080,3170,2862,3370,3367,3192,3269,2913,3286,3314,3037,0.009964708,1.220020049,1.215694376,0.401425719261,4500.0,0.420588374138,0.0128970285878,0.0191626362503,-86.2318572998,0.0,6000.0,-0.00941752456129,0.00233290251344,-0.00941752456129,55.8066902161,0.349065840244,0.0289103612304,-0.0340778715909,0.300508350134,0.00864850357175,0.00864850357175,-0.00206676451489,-0.00976030435413,161.083282471,161.083282471,-257.50390625,-78.4801635742,2018,2033,2643,2038,2038,3054,3442,3441,3293,3378,3122,2999,3144,3093,3224,2737,3386,3401,3232,3360,3125,3345,3388,3195
1508403097941196977,123,1508403097940899473,plot_matl,-0.349065840244,-5000.0,-0.337485492229,-0.000962553196587,0.0115803461522,57.6890830994,0.349065840244,0.0715225115418,-0.00942347943783,-0.337491035461,0.00633544847369,0.00633544847369,0.00245551601984,-0.000863437540829,22.9973678589,22.9973678589,-0.692866742611,-142.369506836,2006,2062,2111,2023,2023,2812,3354,3368,3187,3314,3042,2977,3070,3080,3170,2862,3371,3366,3191,3273,2913,3284,3312,3039,0.010004924,1.2300247,1.230605652,0.401425719261,4500.0,0.420588374138,0.0125312320888,0.0191626362503,-86.2318572998,0.0,6000.0,-0.00944379717112,0.00286505301483,-0.00944379717112,55.7979660034,0.349065840244,0.0289103612304,-0.0340778715909,0.300508350134,0.00864850357175,0.00864850357175,-0.00206676451489,-0.00976030435413,161.083282471,161.083282471,-257.50390625,-78.4801635742,2011,2020,2643,2035,2035,3054,3442,3441,3293,3378,3122,2999,3144,3093,3224,2737,3385,3403,3231,3359,3125,3345,3385,3194
1508403097951318614,124,1508403097950891811,plot_matl,-0.349065840244,-5000.0,-0.337493360043,-0.000788590754382,0.0115724988282,57.6889801025,0.349065840244,0.0715225115418,-0.00944498553872,-0.337495416403,0.00700488919392,0.00700488919392,0.00288331881166,-0.000742680684198,23.0094776154,23.0094776154,-0.771616816521,-142.376190186,2012,2044,2111,2023,2023,2810,3353,3368,3187,3313,3042,2976,3071,3078,3170,2862,3371,3366,3191,3273,2913,3284,3312,3039,0.010002892,1.240027659,1.240358608,0.401425719261,4500.0,0.419238895178,-0.0135037656873,0.0178131535649,-80.1591949463,0.0,6000.0,-0.00945379212499,0.00306155602448,-0.00945379212499,55.8005065918,0.349065840244,0.0265011657029,-0.0340786166489,0.300373524427,-0.0162170808762,-0.0162170808762,-0.00205347966403,-0.00671764090657,160.843154907,160.843154907,-257.242004395,-78.6620407104,2017,2021,2643,2035,2035,3053,3440,3440,3292,3377,3122,3000,3143,3094,3224,2737,3385,3403,3231,3359,3125,3345,3385,3194
1508403097961128393,125,1508403097960881734,plot_matl,-0.349065840244,-5000.0,-0.337499797344,-0.000645631342195,0.0115660494193,57.6891746521,0.349065840244,0.0715225115418,-0.00945574231446,-0.337495684624,0.00721008097753,0.00721008097753,0.00310206739232,-0.000722596247215,23.1839885712,23.1839885712,-0.634460449219,-142.680374146,2015,2050,2111,2023,2023,2810,3353,3368,3187,3313,3042,2976,3071,3078,3174,2862,3369,3367,3190,3272,2912,3287,3315,3037,0.009979843,1.250007566,1.247480375,0.401425719261,4500.0,0.419238895178,-0.0125177539885,0.0178131535649,-80.1591949463,0.0,6000.0,-0.00945144239813,0.00301751727238,-0.00945144239813,55.8070373535,0.349065840244,0.0289103612304,-0.0340701192617,0.300430119038,0.00840072985739,0.00840072985739,-0.00222986191511,-0.00771111622453,160.915634155,160.915634155,-257.433441162,-78.5354385376,2017,2022,2643,2035,2035,3053,3440,3440,3292,3377,3122,3000,3143,3094,3222,2740,3385,3402,3232,3357,3125,3345,3385,3195
1508403097971083951,126,1508403097970880421,plot_matl,-0.349065840244,-5000.0,-0.337494790554,-0.000736548972782,0.011571045965,57.6911125183,0.349065840244,0.0715225115418,-0.009441123344,-0.33749678731,0.00738272583112,0.00738272583112,-0.0106175485998,-0.000693963083904,23.3003730774,23.3003730774,-0.640059351921,-142.505661011,2003,2039,2111,2027,2027,2811,3354,3368,3189,3313,3043,2975,3071,3078,3174,2862,3369,3367,3190,3272,2912,3287,3315,3037,0.009996782,1.260005375,1.259594532,0.401425719261,4500.0,0.419238895178,-0.0126897897571,0.0178131535649,-80.1591949463,0.0,6000.0,-0.00943566579372,0.00269561377354,-0.00943566579372,55.8135261536,0.349065840244,0.0289103612304,-0.0340477563441,0.30043014884,0.00904877949506,0.00904877949506,-0.00267509743571,-0.00761871598661,160.814529419,160.814529419,-257.303161621,-78.369934082,2013,2015,2643,2040,2040,3054,3441,3442,3291,3378,3123,3000,3143,3094,3222,2740,3385,3402,3232,3357,3125,3345,3385,3195
1508403097981294546,127,1508403097980886075,plot_matl,-0.349065840244,-5000.0,-0.337500989437,-0.000603253953159,0.0115648712963,57.6925468445,0.349065840244,0.0715225115418,-0.009441123344,-0.33749678731,0.00738272583112,0.00738272583112,-0.0106175485998,-0.000693963083904,23.3003730774,23.3003730774,-0.640059351921,-142.505661011,2006,2058,2111,2027,2027,2811,3354,3368,3189,3313,3043,2975,3073,3078,3174,2863,3368,3369,3191,3274,2914,3286,3315,3037,0.010006952,1.270011902,1.270882904,0.401425719261,4500.0,0.419238895178,-0.0129118598998,0.0178131535649,-80.1591949463,0.0,6000.0,-0.00944694597274,0.00293274736032,-0.00944694597274,55.8302497864,0.349065840244,0.0289103612304,-0.0340477563441,0.30043014884,0.00904877949506,0.00904877949506,-0.00267509743571,-0.00761871598661,160.814529419,160.814529419,-257.303161621,-78.369934082,2015,2021,2643,2040,2040,3054,3441,3442,3291,3378,3123,3000,3143,3093,3222,2739,3383,3402,3233,3357,3125,3344,3385,3195
1508403097991241189,128,1508403097990867812,plot_matl,-0.349065840244,-5000.0,-0.337489485741,-0.000828983611427,0.0115763619542,57.6884880066,0.349065840244,0.0715225115418,-0.009441123344,-0.33749678731,0.00738272583112,0.00738272583112,-0.0106175485998,-0.000693963083904,23.3003730774,23.3003730774,-0.640059351921,-142.505661011,2019,2056,2112,2025,2025,2811,3352,3368,3190,3315,3043,2975,3073,3078,3174,2863,3368,3369,3191,3274,2914,3286,3315,3039,0.009981051,1.279993148,1.277574528,0.401425719261,4500.0,0.420588374138,0.0137162441388,0.0191626362503,-86.2318572998,0.0,6000.0,-0.00945609156042,0.00311880442314,-0.00945609156042,55.7955780029,0.349065840244,0.0289103612304,-0.0340477563441,0.30043014884,0.00904877949506,0.00904877949506,-0.00267509743571,-0.00761871598661,160.814529419,160.814529419,-257.303161621,-78.369934082,2027,2026,2643,2037,2037,3053,3442,3443,3293,3378,3123,3000,3143,3093,3222,2739,3383,3402,3233,3357,3125,3344,3385,3193
1508403098001254322,129,1508403098000871204,plot_matl,-0.349065840244,-5000.0,-0.337496638298,-0.000678795448039,0.0115692168474,57.6997680664,0.349065840244,0.0715225115418,-0.009441123344,-0.33749678731,0.00738272583112,0.00738272583112,-0.0106175485998,-0.000693963083904,23.3003730774,23.3003730774,-0.640059351921,-142.505661011,2017,2054,2112,2025,2025,2811,3352,3368,3190,3315,3043,2974,3071,3079,3172,2861,3370,3367,3192,3272,2914,3286,3315,3039,0.010004072,1.289997387,1.290525288,0.401425719261,4500.0,0.420588374138,0.0131846582517,0.0191626362503,-86.2318572998,0.0,6000.0,-0.00944115873426,0.00282018724829,-0.00944115873426,55.8617858887,0.349065840244,0.0289103612304,-0.0340477563441,0.30043014884,0.00904877949506,0.00904877949506,-0.00267509743571,-0.00761871598661,160.814529419,160.814529419,-257.303161621,-78.369934082,2025,2028,2643,2037,2037,3053,3442,3443,3293,3378,3124,2999,3142,3093,3222,2736,3383,3400,3232,3356,3125,3344,3385,3193
1508403098011224915,130,1508403098010875096,plot_matl,-0.349065840244,-5000.0,-0.337502479553,-0.000555684557185,0.0115633597597,57.6892776489,0.349065840244,0.0701730325818,-0.00944579578936,-0.337498515844,-0.00689300289378,-0.00689300289378,0.00291148200631,-0.000639240839519,22.8454437256,22.8454437256,-0.701978266239,-142.944381714,2017,2052,2111,2026,2026,2814,3351,3369,3190,3315,3043,2974,3071,3079,3172,2861,3370,3367,3192,3272,2913,3285,3312,3039,0.010003481,1.300001014,1.30045253,0.401425719261,4500.0,0.419238895178,-0.0140030588955,0.0178131535649,-80.1591949463,0.0,6000.0,-0.00942706782371,0.00253091729246,-0.00942706782371,55.8114471436,0.349065840244,0.0289103612304,-0.0340869948268,0.300488054752,0.0101536503062,0.0101536503062,-0.00188772031106,-0.00860694702715,161.039672852,161.039672852,-257.520141602,-78.0817260742,2015,2022,2643,2039,2039,3054,3441,3441,3293,3378,3124,2999,3142,3093,3222,2736,3383,3400,3232,3356,3126,3344,3387,3194
1508403098021333079,131,1508403098020862918,plot_matl,-0.349065840244,-5000.0,-0.337502479553,-0.000555684557185,0.0115633597597,57.6892776489,0.349065840244,0.0701730325818,-0.00944579578936,-0.337498515844,-0.00689300289378,-0.00689300289378,0.00291148200631,-0.000639240839519,22.8454437256,22.8454437256,-0.701978266239,-142.944381714,2017,2052,2111,2026,2026,2814,3351,3369,3190,3315,3043,2974,3071,3079,3172,2861,3370,3367,3192,3272,2913,3285,3312,3039,0.009986253,1.309988289,1.308199143,0.401425719261,4500.0,0.419238895178,-0.0140030588955,0.0178131535649,-80.1591949463,0.0,6000.0,-0.00942706782371,0.00253091729246,-0.00942706782371,55.8114471436,0.349065840244,0.0289103612304,-0.0340869948268,0.300488054752,0.0101536503062,0.0101536503062,-0.00188772031106,-0.00860694702715,161.039672852,161.039672852,-257.520141602,-78.0817260742,2015,2022,2643,2039,2039,3054,3441,3441,3293,3378,3124,2999,3142,3093,3222,2736,3383,3400,3232,3356,3126,3344,3387,3194
1508403098031248791,132,1508403098030983269,plot_matl,-0.349065840244,-5000.0,-0.337475568056,-0.00109497935046,0.0115902675316,57.6934700012,0.349065840244,0.0701730325818,-0.00944579578936,-0.337498515844,-0.00689300289378,-0.00689300289378,0.00291148200631,-0.000639240839519,22.8454437256,22.8454437256,-0.701978266239,-142.944381714,2020,2035,2111,2025,2025,2814,3351,3369,3191,3314,3041,2976,3070,3079,3174,2861,3369,3367,3191,3270,2912,3285,3314,3038,0.010122456,1.320109878,1.336164192,0.401425719261,4500.0,0.420588374138,0.0135114816949,0.0191626362503,-86.2318572998,0.0,6000.0,-0.0094481036067,0.00296265096404,-0.0094481036067,55.8089179993,0.349065840244,0.0289103612304,-0.0340869948268,0.300488054752,0.0101536503062,0.0101536503062,-0.00188772031106,-0.00860694702715,161.039672852,161.039672852,-257.520141602,-78.0817260742,2021,2015,2643,2035,2035,3054,3441,3441,3294,3379,3123,2999,3143,3093,3223,2736,3383,3401,3230,3357,3124,3346,3387,3194
1508403098041329473,133,1508403098040892713,plot_matl,-0.349065840244,-5000.0,-0.337454140186,-0.00152471521869,0.0116117214784,57.6937980652,0.349065840244,0.0701730325818,-0.00944579578936,-0.337498515844,-0.00689300289378,-0.00689300289378,0.00291148200631,-0.000639240839519,22.8454437256,22.8454437256,-0.701978266239,-142.944381714,2013,2045,2111,2025,2025,2814,3353,3370,3189,3316,3044,2974,3072,3078,3173,2861,3369,3367,3191,3270,2912,3285,3314,3038,0.009907765,1.330018785,1.317732745,0.401425719261,4500.0,0.420588374138,0.0130082443357,0.0191626362503,-86.2318572998,0.0,6000.0,-0.00944691710174,-0.0104886312038,-0.00944691710174,59.8520469666,0.349065840244,0.0289103612304,-0.0340869948268,0.300488054752,0.0101536503062,0.0101536503062,-0.00188772031106,-0.00860694702715,161.039672852,161.039672852,-257.520141602,-78.0817260742,2026,2023,2643,2035,2035,3054,3443,3441,3293,3379,3125,2999,3144,3092,3224,2734,3383,3401,3230,3357,3124,3346,3387,3194
1508403098051306520,134,1508403098050877898,plot_matl,-0.349065840244,-5000.0,-0.337457537651,-0.00145408022217,0.0116083212197,57.6947174072,0.349065840244,0.0715225115418,-0.00945106241852,-0.337452888489,0.00612596236169,0.00612596236169,0.00302369939163,-0.00155016651843,23.0727481842,23.0727481842,-0.658597111702,-142.902130127,2017,2041,2112,2026,2026,2814,3353,3370,3189,3316,3044,2974,3072,3078,3173,2861,3369,3367,3191,3273,2913,3285,3315,3039,0.009984283,1.34000366,1.337893922,0.401425719261,4500.0,0.419238895178,-0.0135404812172,0.0178131535649,-80.1591949463,0.0,6000.0,-0.00944476388395,0.00289091817103,-0.00944476388395,55.8046989441,0.349065840244,0.0265011657029,-0.0340877696872,0.30043938756,-0.0155471051112,-0.0155471051112,-0.0018813383067,-0.0693062245846,161.164520264,161.164520264,-257.408111572,-78.1898803711,2023,2022,2643,2036,2036,3054,3443,3441,3293,3379,3125,2999,3144,3092,3224,2734,3383,3402,3230,3359,3124,3343,3385,3195
1508403098061393932,135,1508403098060933138,plot_matl,-0.349065840244,-5000.0,-0.337459772825,-0.00140886288136,0.0116060823202,57.7015037537,0.349065840244,0.0715225115418,-0.00945106241852,-0.337452888489,0.00612596236169,0.00612596236169,0.00302369939163,-0.00155016651843,23.0727481842,23.0727481842,-0.658597111702,-142.902130127,2002,2032,2112,2026,2026,2811,3354,3369,3188,3313,3041,2975,3070,3079,3173,2861,3369,3367,3191,3273,2913,3285,3315,3039,0.010055299,1.350059155,1.357465365,0.401425719261,4500.0,0.419238895178,-0.0129989897832,0.0178131535649,-80.1591949463,0.0,6000.0,-0.00945504382253,0.00309796910733,-0.00945504382253,55.8235359192,0.349065840244,0.0265011657029,-0.0340877696872,0.30043938756,-0.0155471051112,-0.0155471051112,-0.0018813383067,-0.0693062245846,161.164520264,161.164520264,-257.408111572,-78.1898803711,2010,2010,2643,2036,2036,3054,3443,3442,3294,3378,3124,2998,3141,3092,3224,2734,3383,3402,3230,3359,3124,3343,3385,3195
1508403098071461003,136,1508403098070941706,plot_matl,-0.349065840244,-5000.0,-0.337456315756,-0.00147635163739,0.0116095421836,57.6941261292,0.349065840244,0.0715225115418,-0.00945106241852,-0.337452888489,0.00612596236169,0.00612596236169,0.00302369939163,-0.00155016651843,23.0727481842,23.0727481842,-0.658597111702,-142.902130127,2005,2039,2112,2026,2026,2811,3354,3369,3188,3313,3041,2975,3070,3079,3173,2862,3369,3367,3191,3271,2913,3286,3316,3040,0.010008914,1.360067583,1.361212304,0.401425719261,4500.0,0.419238895178,-0.0111439554021,0.0178131535649,-80.1591949463,0.0,6000.0,-0.00942737795413,0.00253604026511,-0.00942737795413,55.8043327332,0.349065840244,0.0265011657029,-0.0340877696872,0.30043938756,-0.0155471051112,-0.0155471051112,-0.0018813383067,-0.0693062245846,161.164520264,161.164520264,-257.408111572,-78.1898803711,2017,2018,2643,2036,2036,3054,3443,3442,3294,3378,3124,2998,3141,3092,3221,2737,3385,3402,3231,3358,3126,3344,3384,3195
1508403098081283700,137,1508403098080872268,plot_matl,-0.349065840244,-5000.0,-0.337453007698,-0.00153936969582,0.0116128567606,57.7028045654,0.349065840244,0.0715225115418,-0.00945106241852,-0.337452888489,0.00612596236169,0.00612596236169,0.00302369939163,-0.00155016651843,23.0727481842,23.0727481842,-0.658597111702,-142.902130127,2014,2054,2111,2026,2026,2813,3352,3368,3188,3313,3042,2973,3070,3079,3173,2862,3369,3367,3191,3271,2913,3286,3316,3040,0.009929224,1.36999836,1.360303688,0.401425719261,4500.0,0.419238895178,-0.0105534158647,0.0178131535649,-80.1591949463,0.0,6000.0,-0.0094178840518,0.00233695306815,-0.0094178840518,55.8208045959,0.349065840244,0.0265011657029,-0.0340877696872,0.30043938756,-0.0155471051112,-0.0155471051112,-0.0018813383067,-0.0693062245846,161.164520264,161.164520264,-257.408111572,-78.1898803711,2017,2027,2643,2037,2037,3054,3441,3440,3292,3378,3123,2997,3141,3092,3221,2737,3385,3402,3231,3358,3126,3344,3384,3195
1508403098091310809,138,1508403098090874191,plot_matl,-0.349065840244,-5000.0,-0.337450236082,0.00437962217256,0.0116156153381,59.1286659241,0.349065840244,0.0701730325818,-0.0094111179933,-0.337457448244,-0.00549115007743,-0.00549115007743,0.00219989335164,-0.00144908740185,23.2495918274,23.2495918274,-1.05173254013,-142.584320068,2019,2061,2111,2026,2026,2813,3352,3368,3188,3313,3042,2973,3070,3078,3173,2862,3369,3367,3191,3273,2914,3285,3316,3040,0.010001632,1.380000153,1.380225216,0.401425719261,4500.0,0.420588374138,0.0166815593839,0.0191626362503,-86.2318572998,0.0,6000.0,-0.00940956920385,0.00216873036698,-0.00940956920385,55.809928894,0.349065840244,0.0289103612304,-0.0340813063085,0.300437510014,0.0107665099204,0.0107665099204,-0.00200587767176,-0.00738938339055,161.256973267,161.256973267,-257.166473389,-78.6401519775,2027,2034,2643,2037,2037,3054,3441,3440,3292,3378,3123,2997,3142,3092,3223,2738,3384,3401,3231,3356,3125,3343,3384,3195
1508403098101197755,139,1508403098100897242,plot_matl,-0.349065840244,-5000.0,-0.337450236082,0.00437962217256,0.0116156153381,59.1286659241,0.349065840244,0.0701730325818,-0.0094111179933,-0.337457448244,-0.00549115007743,-0.00549115007743,0.00219989335164,-0.00144908740185,23.2495918274,23.2495918274,-1.05173254013,-142.584320068,2016,2062,2112,2025,2025,2811,3354,3370,3188,3316,3042,2973,3070,3078,3173,2862,3369,3367,3191,3273,2914,3285,3316,3037,0.010021798,1.390022853,1.393029922,0.401425719261,4500.0,0.420588374138,0.0166815593839,0.0191626362503,-86.2318572998,0.0,6000.0,-0.00940956920385,0.00216873036698,-0.00940956920385,55.809928894,0.349065840244,0.0289103612304,-0.0340813063085,0.300437510014,0.0107665099204,0.0107665099204,-0.00200587767176,-0.00738938339055,161.256973267,161.256973267,-257.166473389,-78.6401519775,2028,2030,2644,2036,2036,3053,3442,3440,3293,3378,3123,2997,3142,3092,3223,2738,3384,3401,3231,3356,3125,3343,3386,3196
1508403098111228692,140,1508403098110905955,plot_matl,-0.349065840244,-5000.0,-0.337448000908,-0.0016405278584,0.0116178607568,57.6928520203,0.349065840244,0.0701730325818,-0.0094111179933,-0.337457448244,-0.00549115007743,-0.00549115007743,0.00219989335164,-0.00144908740185,23.2495918274,23.2495918274,-1.05173254013,-142.584320068,2028,2068,2112,2025,2025,2811,3354,3370,3188,3316,3041,2975,3071,3081,3172,2863,3369,3366,3190,3273,2914,3285,3316,3037,0.010008343,1.400031597,1.40116802,0.401425719261,4500.0,0.420588374138,0.0163969639689,0.0191626362503,-86.2318572998,0.0,6000.0,-0.00940341316164,-0.0113811772317,-0.00940341316164,59.8710517883,0.349065840244,0.0289103612304,-0.0340813063085,0.300437510014,0.0107665099204,0.0107665099204,-0.00200587767176,-0.00738938339055,161.256973267,161.256973267,-257.166473389,-78.6401519775,2027,2032,2644,2036,2036,3053,3442,3440,3293,3378,3125,3000,3144,3092,3222,2737,3384,3401,3232,3356,3125,3343,3386,3196
1508403098121410293,141,1508403098120927874,plot_matl,-0.349065840244,-5000.0,-0.337454795837,0.00447758985683,0.0116110583767,59.0922241211,0.349065840244,0.0701730325818,-0.0094111179933,-0.337457448244,-0.00549115007743,-0.00549115007743,0.00219989335164,-0.00144908740185,23.2495918274,23.2495918274,-1.05173254013,-142.584320068,2033,2061,2111,2022,2022,2812,3354,3369,3188,3316,3041,2975,3071,3081,3172,2863,3369,3366,3190,3273,2913,3287,3315,3038,0.010022414,1.410053901,1.413160374,0.401425719261,4500.0,0.419238895178,-0.010884668678,0.0178131535649,-80.1591949463,0.0,6000.0,-0.00942454952747,0.00246731890365,-0.00942454952747,55.8337745667,0.349065840244,0.0289103612304,-0.0340813063085,0.300437510014,0.0107665099204,0.0107665099204,-0.00200587767176,-0.00738938339055,161.256973267,161.256973267,-257.166473389,-78.6401519775,2027,2033,2643,2040,2040,3055,3443,3442,3293,3378,3125,3000,3144,3092,3222,2737,3384,3401,3232,3356,3124,3344,3386,3193
1508403098131353718,142,1508403098130869951,plot_matl,-0.349065840244,-5000.0,-0.337457567453,-0.00144348246977,0.0116082848981,57.6922950745,0.349065840244,0.0715225115418,-0.00941742956638,-0.337459117174,0.00771248340607,0.00771248340607,0.00232335552573,-0.00141175929457,23.1337299347,23.1337299347,-1.15329444408,-142.563812256,2028,2058,2111,2022,2022,2812,3354,3369,3189,3314,3043,2977,3070,3079,3171,2862,3368,3364,3190,3273,2913,3287,3315,3038,0.009941847,1.419995894,1.411742274,0.401425719261,4500.0,0.420588374138,0.0164283961058,0.0191626362503,-86.2318572998,0.0,6000.0,-0.00941426120698,0.00225946563296,-0.00941426120698,55.8022003174,0.349065840244,0.0289103612304,-0.034000582993,0.300567924976,0.010946511291,0.010946511291,-0.0036339610815,-0.00994388572872,161.015625,161.015625,-257.442871094,-78.4992980957,2023,2023,2643,2040,2040,3055,3443,3442,3295,3377,3123,2999,3141,3092,3222,2735,3383,3400,3232,3356,3124,3344,3386,3193
1508403098141344273,143,1508403098140889500,plot_matl,-0.349065840244,-5000.0,-0.337464749813,0.00467659393325,0.0116010960191,59.1011772156,0.349065840244,0.0715225115418,-0.00941742956638,-0.337459117174,0.00771248340607,0.00771248340607,0.00232335552573,-0.00141175929457,23.1337299347,23.1337299347,-1.15329444408,-142.563812256,2017,2055,2112,2021,2021,2814,3354,3369,3189,3314,3043,2977,3070,3079,3171,2862,3368,3364,3193,3272,2914,3286,3316,3038,0.010019047,1.430015577,1.432723721,0.401425719261,4500.0,0.420588374138,0.0153468102217,0.0191626362503,-86.2318572998,0.0,6000.0,-0.00940582435578,0.00208578724414,-0.00940582435578,55.8241271973,0.349065840244,0.0289103612304,-0.034000582993,0.300567924976,0.010946511291,0.010946511291,-0.0036339610815,-0.00994388572872,161.015625,161.015625,-257.442871094,-78.4992980957,2024,2024,2644,2038,2038,3056,3443,3442,3295,3377,3123,2999,3141,3092,3222,2735,3383,3400,3231,3359,3125,3343,3385,3196
1508403098151484690,144,1508403098150944388,plot_matl,-0.349065840244,-5000.0,-0.337465286255,-0.00128806917928,0.0116005744785,57.6948814392,0.349065840244,0.0715225115418,-0.00941742956638,-0.337459117174,0.00771248340607,0.00771248340607,0.00232335552573,-0.00141175929457,23.1337299347,23.1337299347,-1.15329444408,-142.563812256,2021,2049,2112,2021,2021,2814,3354,3367,3191,3314,3044,2975,3070,3079,3174,2862,3368,3364,3193,3272,2914,3286,3316,3038,0.010055049,1.440070225,1.447927056,0.401425719261,4500.0,0.420588374138,0.0139765692875,0.0191626362503,-86.2318572998,0.0,6000.0,-0.00939816143364,0.00193872780073,-0.00939816143364,55.8104782104,0.349065840244,0.0289103612304,-0.034000582993,0.300567924976,0.010946511291,0.010946511291,-0.0036339610815,-0.00994388572872,161.015625,161.015625,-257.442871094,-78.4992980957,2027,2021,2644,2038,2038,3056,3441,3440,3292,3377,3123,2999,3142,3092,3222,2736,3383,3400,3231,3359,3125,3343,3385,3196
1508403098161245770,145,1508403098160872478,plot_matl,-0.349065840244,-5000.0,-0.337460964918,-0.00137527927291,0.0116048734635,57.7045402527,0.349065840244,0.0715225115418,-0.00941742956638,-0.337459117174,0.00771248340607,0.00771248340607,0.00232335552573,-0.00141175929457,23.1337299347,23.1337299347,-1.15329444408,-142.563812256,2017,2056,2111,2024,2024,2814,3354,3367,3191,3314,3044,2975,3070,3079,3174,2862,3369,3366,3189,3273,2914,3288,3316,3038,0.009926711,1.449998354,1.439373095,0.401425719261,4500.0,0.419238895178,-0.0137514583766,0.0178131535649,-80.1591949463,0.0,6000.0,-0.00941590964794,0.00230815797113,-0.00941590964794,55.8283157349,0.349065840244,0.0289103612304,-0.034000582993,0.300567924976,0.010946511291,0.010946511291,-0.0036339610815,-0.00994388572872,161.015625,161.015625,-257.442871094,-78.4992980957,2017,2021,2644,2038,2038,3056,3441,3440,3292,3377,3123,2999,3142,3092,3222,2736,3382,3400,3231,3357,3126,3342,3386,3195
1508403098171261224,146,1508403098170891827,plot_matl,-0.349065840244,-5000.0,-0.33746278286,-0.00133495067712,0.0116030713543,57.6936645508,0.349065840244,0.0715225115418,-0.00940925255418,-0.33745905757,0.00610325112939,0.00610325112939,0.00217266264372,-0.00140988593921,22.9686965942,22.9686965942,-1.26499974728,-142.901535034,2006,2043,2111,2024,2024,2814,3354,3370,3192,3314,3042,2975,3069,3079,3174,2862,3369,3366,3189,3273,2914,3288,3316,3038,0.010018315,1.460017202,1.46267399,0.401425719261,4500.0,0.419238895178,-0.0146230850369,0.0178131535649,-80.1591949463,0.0,6000.0,-0.00942008011043,0.00238961540163,-0.00942008011043,55.8058166504,0.349065840244,0.0289103612304,-0.0340352728963,0.300616383553,0.0126922307536,0.0126922307536,-0.00294467038475,-0.010818971321,160.833068848,160.833068848,-257.1668396,-78.7529144287,2019,2013,2644,2038,2038,3056,3442,3440,3293,3379,3124,2999,3141,3092,3222,2736,3382,3400,3231,3357,3126,3342,3386,3195
1508403098181254307,147,1508403098180897198,plot_matl,-0.349065840244,-5000.0,-0.337464779615,-0.00129571463913,0.011601078324,57.6942901611,0.349065840244,0.0715225115418,-0.00940925255418,-0.33745905757,0.00610325112939,0.00610325112939,0.00217266264372,-0.00140988593921,22.9686965942,22.9686965942,-1.26499974728,-142.901535034,2015,2061,2111,2024,2024,2814,3354,3370,3192,3314,3042,2975,3069,3079,3172,2861,3367,3367,3190,3272,2913,3288,3313,3040,0.010005541,1.470022919,1.470814527,0.401425719261,4500.0,0.419238895178,-0.0129583887756,0.0178131535649,-80.1591949463,0.0,6000.0,-0.00945861916989,-0.0102652925998,-0.00945861916989,59.833114624,0.349065840244,0.0289103612304,-0.0340352728963,0.300616383553,0.0126922307536,0.0126922307536,-0.00294467038475,-0.010818971321,160.833068848,160.833068848,-257.1668396,-78.7529144287,2016,2027,2644,2038,2038,3056,3442,3440,3293,3379,3124,2999,3141,3092,3221,2737,3384,3400,3233,3356,3126,3343,3385,3197
1508403098191319690,148,1508403098190923622,plot_matl,-0.349065840244,-5000.0,-0.337454855442,-0.0014999078121,0.0116109820083,57.6828079224,0.349065840244,0.0715225115418,-0.00940925255418,-0.33745905757,0.00610325112939,0.00610325112939,0.00217266264372,-0.00140988593921,22.9686965942,22.9686965942,-1.26499974728,-142.901535034,2014,2056,2112,2025,2025,2812,3355,3369,3191,3316,3043,2975,3069,3079,3172,2861,3367,3367,3190,3272,2913,3288,3313,3040,0.010025817,1.480049238,1.483820916,0.401425719261,4500.0,0.419238895178,-0.0116299428046,0.0178131535649,-80.1591949463,0.0,6000.0,-0.00945624057204,-0.0103195672855,-0.00945624057204,59.9451065063,0.349065840244,0.0289103612304,-0.0340352728963,0.300616383553,0.0126922307536,0.0126922307536,-0.00294467038475,-0.010818971321,160.833068848,160.833068848,-257.1668396,-78.7529144287,2020,2025,2644,2034,2034,3053,3441,3440,3294,3377,3124,2999,3141,3092,3221,2737,3384,3400,3233,3356,3126,3343,3385,3197
1508403098201250471,149,1508403098200907544,plot_matl,-0.349065840244,-5000.0,-0.337446123362,0.00429712049663,0.0116197327152,59.101234436,0.349065840244,0.0715225115418,-0.00940925255418,-0.33745905757,0.00610325112939,0.00610325112939,0.00217266264372,-0.00140988593921,22.9686965942,22.9686965942,-1.26499974728,-142.901535034,2040,2056,2112,2025,2025,2812,3355,3369,3191,3316,3043,2975,3071,3079,3174,2863,3369,3367,3193,3273,2915,3285,3313,3040,0.009984594,1.490033862,1.487704506,0.401425719261,4500.0,0.419238895178,-0.0119757866487,0.0178131535649,-80.1591949463,0.0,6000.0,-0.00944140460342,0.00279855611734,-0.00944140460342,55.8312911987,0.349065840244,0.0289103612304,-0.0340352728963,0.300616383553,0.0126922307536,0.0126922307536,-0.00294467038475,-0.010818971321,160.833068848,160.833068848,-257.1668396,-78.7529144287,2036,2027,2644,2034,2034,3053,3441,3440,3294,3377,3124,2999,3142,3093,3222,2737,3385,3402,3233,3358,3125,3345,3385,3197
1508403098211395354,150,1508403098210921856,plot_matl,-0.349065840244,-5000.0,-0.337445497513,-0.00169053103309,0.0116203501821,57.6947631836,0.349065840244,0.0701730325818,-0.0094460407272,-0.337439388037,-0.00589794525877,-0.00589794525877,0.00288899545558,0.0041633695364,22.6357574463,22.6357574463,-1.21258103848,-143.056488037,2031,2059,2112,2027,2027,2811,3352,3369,3189,3315,3043,2975,3071,3079,3174,2863,3369,3367,3193,3273,2915,3285,3314,3038,0.010014186,1.500047822,1.5021279,0.401425719261,4500.0,0.420588374138,0.0149866091087,0.0191626362503,-86.2318572998,0.0,6000.0,-0.0094514451921,0.00300374557264,-0.0094514451921,55.8005180359,0.349065840244,0.0265011657029,-0.0341009199619,0.30080062151,-0.0101018752903,-0.0101018752903,-0.0016113887541,0.0472687967122,160.962783813,160.962783813,-257.009033203,-78.910987854,2035,2029,2644,2039,2039,3054,3442,3442,3292,3377,3124,2999,3142,3093,3222,2737,3385,3402,3233,3358,3125,3345,3385,3196
1508403098221291210,151,1508403098220875053,plot_matl,-0.349065840244,-5000.0,-0.337445497513,-0.00169053103309,0.0116203501821,57.6947631836,0.349065840244,0.0701730325818,-0.0094460407272,-0.337439388037,-0.00589794525877,-0.00589794525877,0.00288899545558,0.0041633695364,22.6357574463,22.6357574463,-1.21258103848,-143.056488037,2031,2059,2112,2027,2027,2811,3352,3369,3189,3315,3043,2975,3071,3079,3174,2863,3369,3367,3193,3273,2915,3285,3314,3038,0.009951519,1.51000077,1.502679369,0.401425719261,4500.0,0.420588374138,0.0149866091087,0.0191626362503,-86.2318572998,0.0,6000.0,-0.0094514451921,0.00300374557264,-0.0094514451921,55.8005180359,0.349065840244,0.0265011657029,-0.0341009199619,0.30080062151,-0.0101018752903,-0.0101018752903,-0.0016113887541,0.0472687967122,160.962783813,160.962783813,-257.009033203,-78.910987854,2035,2029,2644,2039,2039,3054,3442,3442,3292,3377,3124,2999,3142,3093,3222,2737,3385,3402,3233,3358,3125,3345,3385,3196
1508403098231426297,152,1508403098230883216,plot_matl,-0.349065840244,-5000.0,-0.337458759546,-0.0013933168957,0.0116070955992,57.696018219,0.349065840244,0.0701730325818,-0.0094460407272,-0.337439388037,-0.00589794525877,-0.00589794525877,0.00288899545558,0.0041633695364,22.6357574463,22.6357574463,-1.21258103848,-143.056488037,2046,2072,2112,2027,2027,2811,3352,3369,3189,3315,3041,2975,3071,3077,3172,2863,3383,3378,3202,3282,2915,3285,3314,3038,0.010009305,1.520009092,1.52141436,0.401425719261,4500.0,0.419238895178,-0.0164787191898,0.0178131535649,-80.1591949463,0.0,6000.0,-0.0094327237457,0.00262118782848,-0.0094327237457,55.8090019226,0.349065840244,0.0265011657029,-0.0341009199619,0.30080062151,-0.0101018752903,-0.0101018752903,-0.0016113887541,0.0472687967122,160.962783813,160.962783813,-257.009033203,-78.910987854,2043,2046,2644,2039,2039,3054,3442,3442,3292,3377,3125,2999,3142,3092,3221,2737,3396,3413,3243,3365,3125,3345,3385,3196
1508403098241107919,153,1508403098240858654,plot_matl,-0.349065840244,-5000.0,-0.337455451488,-0.00146382430103,0.0116104017943,57.7040176392,0.349065840244,0.0701730325818,-0.0094460407272,-0.337439388037,-0.00589794525877,-0.00589794525877,0.00288899545558,0.0041633695364,22.6357574463,22.6357574463,-1.21258103848,-143.056488037,2039,2077,2111,2023,2023,2814,3358,3371,3189,3315,3041,2975,3071,3077,3172,2863,3383,3378,3202,3282,2921,3293,3322,3044,0.00997303,1.529983928,1.52587359,0.401425719261,4500.0,0.419238895178,-0.0149607146159,0.0178131535649,-80.1591949463,0.0,6000.0,-0.00943213980645,0.00260738446377,-0.00943213980645,55.8254814148,0.349065840244,0.0265011657029,-0.0341009199619,0.30080062151,-0.0101018752903,-0.0101018752903,-0.0016113887541,0.0472687967122,160.962783813,160.962783813,-257.009033203,-78.910987854,2042,2045,2643,2035,2035,3056,3445,3442,3292,3377,3125,2999,3142,3092,3221,2737,3396,3413,3243,3365,3131,3349,3391,3202
