%time,field.header.seq,field.header.stamp,field.header.frame_id,field.FFJ4_set_point,field.FFJ4_position_gain,field.FFJ4_process_value,field.FFJ4_process_value_dot,field.FFJ4_error,field.FFJ4_command,field.FFJ1,field.FFJ2,field.FFJ3,field.FFJ4,field.FFJ1_dot,field.FFJ2_dot,field.FFJ3_dot,field.FFJ4_dot,field.FFJ1_tao,field.FFJ2_tao,field.FFJ3_tao,field.FFJ4_tao,field.pac0,field.pac1,field.pdc0,field.tac0,field.tdc0,field.el0,field.el1,field.el2,field.el3,field.el4,field.el5,field.el6,field.el7,field.el8,field.el9,field.el10,field.el11,field.el12,field.el13,field.el14,field.el15,field.el16,field.el17,field.el18,field.dt,field.time,field.test_time2,field.FFJ0_set_point,field.FFJ0_position_gain,field.FFJ0_process_value,field.FFJ0_process_value_dot,field.FFJ0_error,field.FFJ0_command,field.FFJ3_set_point,field.FFJ3_position_gain,field.FFJ3_process_value,field.FFJ3_process_value_dot,field.FFJ3_error,field.FFJ3_command,field.MFJ1,field.MFJ2,field.MFJ3,field.MFJ4,field.MFJ1_dot,field.MFJ2_dot,field.MFJ3_dot,field.MFJ4_dot,field.MFJ1_tao,field.MFJ2_tao,field.MFJ3_tao,field.MFJ4_tao,field.Mpac0,field.Mpac1,field.Mpdc0,field.Mtac0,field.Mtdc0,field.Mel0,field.Mel1,field.Mel2,field.Mel3,field.Mel4,field.Mel5,field.Mel6,field.Mel7,field.Mel8,field.Mel9,field.Mel10,field.Mel11,field.Mel12,field.Mel13,field.Mel14,field.Mel15,field.Mel16,field.Mel17,field.Mel18
1508402959778883184,103,1508402959778312605,plot_matl,-0.300000011921,-5000.0,-0.299523025751,0.00311732850969,0.0,0.0,0.349065840244,0.0688235536218,-0.00904568564147,-0.299517780542,0.00258770119399,0.00258770119399,-0.00515779107809,0.00300752022304,22.3109436035,22.3109436035,-0.599436700344,-121.245498657,2027,2066,2120,2033,2033,2802,3346,3362,3176,3305,3029,2967,3065,3075,3168,2870,3371,3368,3194,3270,2919,3281,3308,3031,0.00994968,1.030040088,1.02481704,0.401425719261,4500.0,0.416539907455,-0.0214054491371,0.0151141919196,-68.0138626099,0.0,6000.0,-0.00905270501971,-0.0050189816393,-0.00905270501971,55.8486709595,0.349065840244,0.0265011657029,-0.0332622118294,0.304528594017,-0.014291819185,-0.014291819185,0.0121234236285,0.0335219986737,158.505340576,158.505340576,-238.307922363,-66.5866928101,2038,2038,2640,2037,2037,3063,3447,3446,3299,3385,3133,3005,3150,3097,3228,2739,3389,3406,3240,3364,3134,3349,3393,3203
1508402959788652539,104,1508402959788324272,plot_matl,-0.300000011921,-5000.0,-0.299511432648,0.00288394954987,0.0,0.0,0.349065840244,0.0688235536218,-0.00906867627054,-0.299510866404,0.00335609586909,0.00335609586909,-0.00469405949116,0.00287396577187,22.363615036,22.363615036,-0.284604370594,-121.201141357,2029,2086,2120,2030,2030,2805,3345,3362,3176,3305,3029,2967,3065,3075,3168,2870,3371,3368,3194,3270,2918,3279,3309,3031,0.010010181,1.040051161,1.041058824,0.401425719261,4500.0,0.417889386415,0.00621209992096,0.0164636727422,-74.0865249634,0.0,6000.0,-0.00904870405793,0.00832138955593,-0.00904870405793,51.9594078064,0.349065840244,0.0289103612304,-0.0332769453526,0.304603427649,0.00910159386694,0.00910159386694,-0.00291068968363,0.032016351819,158.343978882,158.343978882,-238.376052856,-66.6997909546,2046,2055,2640,2036,2036,3064,3446,3446,3299,3385,3133,3005,3150,3097,3228,2739,3389,3406,3240,3364,3135,3351,3390,3202
1508402959798544809,105,1508402959798280899,plot_matl,-0.300000011921,-5000.0,-0.299512207508,-0.00307547789998,0.0,0.0,0.349065840244,0.0688235536218,-0.00905294530094,-0.299517810345,0.00250600557774,0.00250600557774,-0.00501778069884,-0.00296175340191,22.1940155029,22.1940155029,-0.238056600094,-121.234024048,2033,2068,2120,2030,2030,2805,3345,3362,3178,3305,3029,2967,3066,3077,3169,2869,3370,3367,3194,3270,2918,3279,3309,3031,0.009956242,1.050007696,1.04540541,0.401425719261,4500.0,0.417889386415,0.00567825045437,0.0164636727422,-74.0865249634,0.0,6000.0,-0.00905893649906,0.00852554664016,-0.00905893649906,51.7821846008,0.349065840244,0.0289103612304,-0.0332469977438,0.304444819689,0.00878318957984,0.00878318957984,0.0118203815073,-0.0266249198467,158.389923096,158.389923096,-238.29989624,-66.7363815308,2039,2037,2640,2036,2036,3064,3446,3446,3300,3385,3134,3008,3150,3100,3228,2736,3388,3406,3240,3364,3135,3351,3390,3202
1508402959808793276,106,1508402959808335143,plot_matl,-0.300000011921,-5000.0,-0.299508571625,0.00280680321157,0.0,0.0,0.349065840244,0.0674740672112,-0.00908701959997,-0.299513459206,-0.0102955801412,-0.0102955801412,-0.00433455780149,-0.0030578954611,22.1933345795,22.1933345795,-0.339898228645,-121.223487854,2039,2068,2119,2030,2030,2805,3345,3362,3178,3305,3029,2967,3066,3077,3169,2869,3370,3367,3196,3272,2920,3282,3308,3031,0.010055465,1.060062676,1.06587929,0.401425719261,4500.0,0.417889386415,0.00613560946658,0.0164636727422,-74.0865249634,0.0,6000.0,-0.00907904375345,-0.00450924411416,-0.00907904375345,55.8395881653,0.349065840244,0.0265011657029,-0.0332399494946,0.304531604052,-0.0157689321786,-0.0157689321786,-0.00366693316028,-0.0284511614591,158.422897339,158.422897339,-238.191833496,-66.5791778564,2041,2040,2640,2034,2034,3064,3446,3446,3300,3385,3134,3008,3150,3100,3228,2736,3388,3406,3238,3365,3134,3348,3393,3203
1508402959818683025,107,1508402959818292645,plot_matl,-0.300000011921,-5000.0,-0.299508929253,0.00281992205419,0.0,0.0,0.349065840244,0.0688235536218,-0.00908013153821,-0.29951441288,0.00247350893915,0.00247350893915,-0.00448727002367,0.00293016410433,22.0620498657,22.0620498657,-0.531065225601,-121.299835205,2056,2063,2119,2030,2030,2805,3346,3360,3178,3306,3028,2965,3066,3076,3167,2869,3370,3367,3196,3272,2920,3282,3308,3031,0.009956179,1.070019868,1.065311153,0.401425719261,4500.0,0.417889386415,0.00509223714471,0.0164636727422,-74.0865249634,0.0,6000.0,-0.00908433832228,-0.00440086517483,-0.00908433832228,55.8109893799,0.349065840244,0.0265011657029,-0.033244997263,0.304715871811,-0.0150810983032,-0.0150810983032,-0.00355286011472,0.0296696405858,158.568283081,158.568283081,-238.356323242,-66.4595413208,2048,2040,2640,2034,2034,3064,3449,3447,3299,3385,3130,3007,3150,3098,3226,2737,3388,3406,3238,3365,3134,3348,3393,3203
1508402959828919435,108,1508402959828337235,plot_matl,-0.300000011921,-5000.0,-0.299521654844,-0.00290445098653,0.0,0.0,0.349065840244,0.0688235536218,-0.00909654702991,-0.299515157938,0.00251548644155,0.00251548644155,-0.00415715621784,-0.00302707194351,22.1874027252,22.1874027252,-0.394322127104,-121.423530579,2037,2071,2119,2030,2030,2805,3346,3360,3178,3306,3028,2965,3066,3076,3167,2869,3371,3367,3194,3273,2919,3284,3308,3033,0.010046118,1.080064663,1.084980744,0.401425719261,4500.0,0.417889386415,0.00515684764832,0.0164636727422,-74.0865249634,0.0,6000.0,-0.00909886881709,-0.00408687116578,-0.00909886881709,55.928440094,0.349065840244,0.0289103612304,-0.033262193203,0.304812580347,0.00843561347574,0.00843561347574,-0.00319855753332,-0.0340964198112,158.503128052,158.503128052,-238.509231567,-66.1910934448,2045,2046,2640,2036,2036,3064,3449,3447,3299,3385,3130,3007,3150,3098,3226,2737,3389,3404,3238,3362,3133,3351,3394,3200
1508402959838659555,109,1508402959838296151,plot_matl,-0.300000011921,-5000.0,-0.299532175064,0.00327944522724,0.0,0.0,0.349065840244,0.0688235536218,-0.00907132867724,-0.299527227879,0.0025367976632,0.0025367976632,-0.00464370893314,-0.00279661989771,22.037979126,22.037979126,-0.690453410149,-121.346595764,2016,2069,2119,2030,2030,2805,3348,3362,3176,3304,3029,2965,3066,3076,3167,2869,3371,3367,3194,3273,2919,3284,3308,3033,0.009957012,1.090023368,1.085314308,0.401425719261,4500.0,0.419238895178,0.0324561558664,0.0178131535649,-80.1591949463,0.0,6000.0,-0.00908921007067,-0.00428454205394,-0.00908921007067,55.7796554565,0.349065840244,0.0265011657029,-0.0332627631724,0.304731965065,-0.0147406458855,-0.0147406458855,-0.00317972805351,-0.0324324555695,158.411743164,158.411743164,-238.042373657,-66.2677078247,2022,2034,2640,2036,2036,3064,3447,3446,3301,3383,3131,3008,3150,3097,3226,2737,3389,3404,3238,3362,3133,3351,3394,3200
1508402959848440918,110,1508402959848272845,plot_matl,-0.300000011921,-5000.0,-0.299528747797,0.00321647385135,0.0,0.0,0.349065840244,0.0688235536218,-0.00908905267715,-0.299530148506,0.00255802529864,0.00255802529864,-0.00429083406925,0.00324045238085,22.132900238,22.132900238,-0.512089133263,-121.353263855,2037,2077,2119,2030,2030,2805,3348,3362,3176,3304,3029,2965,3066,3076,3169,2868,3369,3367,3193,3273,2919,3280,3308,3031,0.009975668,1.099999647,1.09732348,0.401425719261,4500.0,0.417889386415,0.00472863065079,0.0164636727422,-74.0865249634,0.0,6000.0,-0.00909325666726,-0.00420856010169,-0.00909325666726,55.8288650513,0.349065840244,0.0265011657029,-0.0332236327231,0.304558873177,-0.0147071797401,-0.0147071797401,-0.00397203536704,-0.0288816709071,158.4868927,158.4868927,-238.06350708,-65.9038391113,2045,2052,2640,2036,2036,3064,3447,3446,3301,3383,3131,3008,3150,3097,3229,2738,3387,3406,3239,3363,3134,3349,3393,3202
1508402959858613518,111,1508402959858280413,plot_matl,-0.300000011921,-5000.0,-0.299526542425,0.003177969018,0.0,0.0,0.349065840244,0.0688235536218,-0.00911684148014,-0.299521386623,0.00285670091398,0.00285670091398,-0.00373422121629,0.00307306903414,22.2553882599,22.2553882599,-0.534205555916,-121.328819275,2052,2075,2119,2031,2031,2803,3345,3361,3178,3303,3028,2967,3066,3076,3169,2868,3369,3367,3193,3273,2919,3280,3308,3031,0.010007372,1.110007365,1.110818292,0.401425719261,4500.0,0.416539907455,-0.0214496478438,0.0151141919196,-68.0138626099,0.0,6000.0,-0.00911814719439,-0.00370689132251,-0.00911814719439,55.8059768677,0.349065840244,0.0289103612304,-0.0332190468907,0.304636776447,0.00960936956108,0.00960936956108,-0.00405519129708,0.0314141623676,158.430679321,158.430679321,-238.051559448,-65.8881378174,2052,2049,2639,2035,2035,3062,3447,3444,3298,3383,3132,3009,3150,3097,3229,2738,3387,3406,3239,3363,3134,3349,3393,3202
1508402959868964772,112,1508402959868357857,plot_matl,-0.300000011921,-5000.0,-0.299526542425,0.003177969018,0.0,0.0,0.349065840244,0.0688235536218,-0.00911684148014,-0.299521386623,0.00285670091398,0.00285670091398,-0.00373422121629,0.00307306903414,22.2553882599,22.2553882599,-0.534205555916,-121.328819275,2042,2074,2119,2031,2031,2803,3345,3361,3178,3303,3028,2967,3063,3075,3168,2869,3371,3367,3193,3271,2916,3281,3308,3031,0.010079424,1.120085341,1.128895488,0.401425719261,4500.0,0.416539907455,-0.0208996105939,0.0151141919196,-68.0138626099,0.0,6000.0,-0.00911814719439,-0.00370689132251,-0.00911814719439,55.8059768677,0.349065840244,0.0289103612304,-0.0332190468907,0.304636776447,0.00960936956108,0.00960936956108,-0.00405519129708,0.0314141623676,158.430679321,158.430679321,-238.051559448,-65.8881378174,2043,2043,2639,2035,2035,3062,3447,3444,3298,3383,3132,3009,3151,3099,3227,2741,3388,3406,3237,3363,3135,3350,3393,3202
1508402959878566279,113,1508402959878289285,plot_matl,-0.300000011921,-5000.0,-0.299539327621,-0.00253454479389,0.0,0.0,0.349065840244,0.0688235536218,-0.00911684148014,-0.299521386623,0.00285670091398,0.00285670091398,-0.00373422121629,0.00307306903414,22.2553882599,22.2553882599,-0.534205555916,-121.328819275,2069,2101,2118,2029,2029,2803,3346,3361,3178,3305,3028,2967,3063,3075,3168,2869,3371,3367,3193,3271,2916,3281,3308,3030,0.009928844,1.130016132,1.121959372,0.401425719261,4500.0,0.416539907455,-0.0205756369978,0.0151141919196,-68.0138626099,0.0,6000.0,-0.00912571139634,0.00986047275364,-0.00912571139634,51.9420471191,0.349065840244,0.0289103612304,-0.0332190468907,0.304636776447,0.00960936956108,0.00960936956108,-0.00405519129708,0.0314141623676,158.430679321,158.430679321,-238.051559448,-65.8881378174,2066,2065,2638,2038,2038,3065,3448,3447,3298,3384,3132,3009,3151,3099,3227,2741,3388,3406,3237,3363,3135,3350,3393,3203
1508402959888812315,114,1508402959888297418,plot_matl,-0.300000011921,-5000.0,-0.2995403409,-0.00250194454566,0.0,0.0,0.349065840244,0.0688235536218,-0.00911684148014,-0.299521386623,0.00285670091398,0.00285670091398,-0.00373422121629,0.00307306903414,22.2553882599,22.2553882599,-0.534205555916,-121.328819275,2088,2109,2118,2029,2029,2803,3346,3361,3178,3305,3027,2967,3063,3076,3170,2867,3369,3366,3195,3270,2916,3281,3308,3030,0.010009135,1.140024851,1.14104139,0.401425719261,4500.0,0.417889386415,0.00599334156141,0.0164636727422,-74.0865249634,0.0,6000.0,-0.00906188227236,0.00857506506145,-0.00906188227236,51.7713432312,0.349065840244,0.0289103612304,-0.0332190468907,0.304636776447,0.00960936956108,0.00960936956108,-0.00405519129708,0.0314141623676,158.430679321,158.430679321,-238.051559448,-65.8881378174,2076,2070,2638,2038,2038,3065,3448,3447,3298,3384,3131,3009,3150,3098,3225,2739,3389,3404,3237,3363,3135,3350,3393,3203
1508402959898847750,115,1508402959898329746,plot_matl,-0.300000011921,-5000.0,-0.299541682005,-0.00248060678132,0.0,0.0,0.349065840244,0.0674740672112,-0.00907105207443,-0.29953661561,-0.0103977220133,-0.0103977220133,0.00875525269657,-0.00258624833077,22.5544910431,22.5544910431,-0.723273992538,-121.276077271,2081,2098,2116,2037,2037,2803,3347,3360,3178,3305,3027,2967,3063,3076,3170,2867,3369,3366,3195,3270,2915,3280,3308,3029,0.010032267,1.150057389,1.153710705,0.401425719261,4500.0,0.416539907455,-0.0223285891116,0.0151141919196,-68.0138626099,0.0,6000.0,-0.00905837956816,-0.00492471782491,-0.00905837956816,55.7731056213,0.349065840244,0.0265011657029,-0.0332417115569,0.30456802249,-0.0153270643204,-0.0153270643204,-0.00361634674482,-0.0908695459366,158.289291382,158.289291382,-238.091400146,-66.2349700928,2070,2064,2637,2038,2038,3062,3447,3445,3298,3384,3131,3009,3150,3098,3225,2739,3389,3404,3237,3363,3133,3347,3393,3202
1508402959908712552,116,1508402959908310716,plot_matl,-0.300000011921,-5000.0,-0.299541860819,-0.00247617741115,0.0,0.0,0.349065840244,0.0674740672112,-0.00907105207443,-0.29953661561,-0.0103977220133,-0.0103977220133,0.00875525269657,-0.00258624833077,22.5544910431,22.5544910431,-0.723273992538,-121.276077271,2107,2150,2116,2037,2037,2803,3347,3360,3177,3304,3028,2967,3062,3073,3167,2864,3369,3367,3195,3270,2915,3280,3308,3029,0.009979728,1.160038019,1.157648448,0.401425719261,4500.0,0.417889386415,0.00548990815878,0.0164636727422,-74.0865249634,0.0,6000.0,-0.00906571373343,-0.00478171324357,-0.00906571373343,55.8306770325,0.349065840244,0.0265011657029,-0.0332417115569,0.30456802249,-0.0153270643204,-0.0153270643204,-0.00361634674482,-0.0908695459366,158.289291382,158.289291382,-238.091400146,-66.2349700928,2097,2111,2637,2038,2038,3062,3447,3445,3297,3382,3129,3009,3151,3101,3229,2740,3386,3405,3237,3363,3133,3347,3393,3202
1508402959918650485,117,1508402959918286731,plot_matl,-0.300000011921,-5000.0,-0.299543172121,-0.00245406478643,0.0,0.0,0.349065840244,0.0674740672112,-0.00907105207443,-0.29953661561,-0.0103977220133,-0.0103977220133,0.00875525269657,-0.00258624833077,22.5544910431,22.5544910431,-0.723273992538,-121.276077271,2094,2126,2114,2035,2035,2803,3347,3360,3177,3304,3028,2967,3062,3073,3167,2864,3369,3367,3192,3270,2915,3281,3307,3029,0.009975905,1.170014184,1.167180885,0.401425719261,4500.0,0.416539907455,-0.0217239819467,0.0151141919196,-68.0138626099,0.0,6000.0,-0.00904723443091,-0.00514847552404,-0.00904723443091,55.86170578,0.349065840244,0.0265011657029,-0.0332417115569,0.30456802249,-0.0153270643204,-0.0153270643204,-0.00361634674482,-0.0908695459366,158.289291382,158.289291382,-238.091400146,-66.2349700928,2085,2085,2635,2036,2036,3063,3447,3445,3297,3382,3129,3009,3151,3101,3229,2740,3386,3405,3237,3362,3131,3349,3392,3199
1508402959928803536,118,1508402959928339605,plot_matl,-0.300000011921,-5000.0,-0.299532562494,0.00331080635078,0.0,0.0,0.349065840244,0.0674740672112,-0.00907105207443,-0.29953661561,-0.0103977220133,-0.0103977220133,0.00875525269657,-0.00258624833077,22.5544910431,22.5544910431,-0.723273992538,-121.276077271,2114,2135,2114,2035,2035,2803,3346,3361,3175,3305,3026,2967,3066,3074,3168,2862,3369,3367,3192,3270,2915,3281,3307,3029,0.010052292,1.180066857,1.186170456,0.401425719261,4500.0,0.417889386415,0.0059660570696,0.0164636727422,-74.0865249634,0.0,6000.0,-0.00904395990074,0.00821794196963,-0.00904395990074,51.8134460449,0.349065840244,0.0265011657029,-0.0332417115569,0.30456802249,-0.0153270643204,-0.0153270643204,-0.00361634674482,-0.0908695459366,158.289291382,158.289291382,-238.091400146,-66.2349700928,2094,2090,2635,2036,2036,3063,3446,3447,3297,3383,3129,3011,3150,3103,3228,2740,3386,3405,3237,3362,3131,3349,3392,3199
1508402959938756591,119,1508402959938298716,plot_matl,-0.300000011921,-5000.0,-0.299529194832,0.00324339000508,0.0,0.0,0.349065840244,0.0688235536218,-0.00905040092766,-0.299539923668,0.00296866544522,0.00296866544522,0.00834447517991,0.00345899909735,22.5741729736,22.5741729736,-0.46965020895,-121.263381958,2129,2161,2112,2036,2036,2803,3346,3361,3175,3305,3026,2967,3066,3074,3168,2862,3366,3366,3191,3268,2912,3280,3305,3026,0.009960008,1.190026575,1.185240952,0.401425719261,4500.0,0.416539907455,-0.0203956458718,0.0151141919196,-68.0138626099,0.0,6000.0,-0.00905623007566,-0.00495298532769,-0.00905623007566,55.8614997864,0.349065840244,0.0265011657029,-0.0331458412111,0.304573565722,-0.015388389118,-0.015388389118,0.00980376079679,0.0327683612704,158.254928589,158.254928589,-238.388427734,-66.3402252197,2118,2112,2634,2038,2038,3063,3446,3447,3297,3383,3129,3011,3150,3103,3228,2740,3388,3404,3235,3361,3130,3348,3390,3199
1508402959948735946,120,1508402959948282012,plot_matl,-0.300000011921,-5000.0,-0.299527078867,-0.00277677597478,0.0,0.0,0.349065840244,0.0688235536218,-0.00905040092766,-0.299539923668,0.00296866544522,0.00296866544522,0.00834447517991,0.00345899909735,22.5741729736,22.5741729736,-0.46965020895,-121.263381958,2107,2133,2112,2036,2036,2803,3343,3358,3175,3302,3026,2969,3064,3073,3168,2862,3366,3366,3191,3268,2912,3280,3305,3026,0.009981211,1.200008929,1.19774532,0.401425719261,4500.0,0.416539907455,-0.0203956458718,0.0151141919196,-68.0138626099,0.0,6000.0,-0.0090061314404,0.00744647206739,-0.0090061314404,51.8062362671,0.349065840244,0.0265011657029,-0.0331458412111,0.304573565722,-0.015388389118,-0.015388389118,0.00980376079679,0.0327683612704,158.254928589,158.254928589,-238.388427734,-66.3402252197,2098,2088,2634,2038,2038,3061,3446,3446,3296,3382,3127,3013,3151,3104,3228,2740,3388,3404,3235,3361,3130,3348,3390,3199
1508402959958643370,121,1508402959958337857,plot_matl,-0.300000011921,-5000.0,-0.299526125193,-0.00279622315429,0.0,0.0,0.349065840244,0.0688235536218,-0.00905040092766,-0.299539923668,0.00296866544522,0.00296866544522,0.00834447517991,0.00345899909735,22.5741729736,22.5741729736,-0.46965020895,-121.263381958,2101,2137,2112,2036,2036,2803,3343,3358,3175,3302,3026,2969,3064,3073,3167,2860,3366,3364,3189,3266,2910,3279,3308,3026,0.010056026,1.210065065,1.216779146,0.401425719261,4500.0,0.417889386415,0.00693695340306,0.0164636727422,-74.0865249634,0.0,6000.0,-0.00899713020772,0.00727037386969,-0.00899713020772,51.7690391541,0.349065840244,0.0265011657029,-0.0331458412111,0.304573565722,-0.015388389118,-0.015388389118,0.00980376079679,0.0327683612704,158.254928589,158.254928589,-238.388427734,-66.3402252197,2097,2098,2634,2038,2038,3061,3446,3446,3296,3382,3127,3013,3151,3104,3230,2742,3387,3404,3237,3362,3129,3349,3388,3198
1508402959968721601,122,1508402959968287803,plot_matl,-0.300000011921,-5000.0,-0.299501240253,0.00270211114548,0.0,0.0,0.349065840244,0.0688235536218,-0.00905040092766,-0.299539923668,0.00296866544522,0.00296866544522,0.00834447517991,0.00345899909735,22.5741729736,22.5741729736,-0.46965020895,-121.263381958,2088,2143,2110,2036,2036,2799,3344,3359,3173,3299,3025,2968,3064,3073,3167,2860,3366,3364,3189,3266,2910,3279,3308,3026,0.00994962,1.22001505,1.21385364,0.401425719261,4500.0,0.417889386415,0.0081361187622,0.0164636727422,-74.0865249634,0.0,6000.0,-0.00896594114602,0.00665986631066,-0.00896594114602,51.8827896118,0.349065840244,0.0265011657029,-0.0331458412111,0.304573565722,-0.015388389118,-0.015388389118,0.00980376079679,0.0327683612704,158.254928589,158.254928589,-238.388427734,-66.3402252197,2089,2105,2633,2037,2037,3061,3446,3443,3296,3380,3125,3016,3151,3104,3230,2742,3387,3404,3237,3362,3129,3349,3388,3198
1508402959978719946,123,1508402959978288944,plot_matl,-0.300000011921,-5000.0,-0.299498915672,0.00265179015696,0.0,0.0,0.349065840244,0.0688235536218,-0.00898029282689,-0.299512952566,0.00385539536364,0.00385539536364,0.00693977158517,0.00293008168228,22.8699073792,22.8699073792,-0.444482892752,-121.303604126,2073,2119,2110,2036,2036,2799,3344,3359,3173,3299,3025,2968,3063,3075,3165,2860,3366,3361,3187,3265,2909,3280,3308,3026,0.010000199,1.230016016,1.230024477,0.401425719261,4500.0,0.416539907455,-0.017626112327,0.0151141919196,-68.0138626099,0.0,6000.0,-0.00890641938895,0.00545089691877,-0.00890641938895,51.7875366211,0.349065840244,0.0265011657029,-0.0330919139087,0.304495960474,-0.0160437710583,-0.0160437710583,-0.0066604600288,-0.0273834560066,158.508850098,158.508850098,-237.861206055,-66.6826248169,2078,2082,2633,2037,2037,3061,3446,3443,3296,3380,3125,3016,3153,3104,3228,2744,3387,3405,3234,3363,3129,3349,3388,3198
1508402959988734563,124,1508402959988322123,plot_matl,-0.300000011921,-5000.0,-0.299485832453,0.0023908726871,0.0,0.0,0.349065840244,0.0688235536218,-0.00898029282689,-0.299512952566,0.00385539536364,0.00385539536364,0.00693977158517,0.00293008168228,22.8699073792,22.8699073792,-0.444482892752,-121.303604126,2086,2110,2109,2038,2038,2797,3344,3357,3173,3301,3025,2968,3063,3075,3165,2860,3366,3361,3187,3265,2909,3280,3304,3025,0.010032958,1.240049216,1.244086792,0.401425719261,4500.0,0.417889386415,0.00936386175454,0.0164636727422,-74.0865249634,0.0,6000.0,-0.00888337101787,-0.00845285411924,-0.00888337101787,55.9718132019,0.349065840244,0.0265011657029,-0.0330919139087,0.304495960474,-0.0160437710583,-0.0160437710583,-0.0066604600288,-0.0273834560066,158.508850098,158.508850098,-237.861206055,-66.6826248169,2081,2080,2631,2035,2035,3060,3445,3441,3292,3380,3125,3016,3153,3104,3228,2744,3387,3405,3234,3363,3129,3349,3391,3198
1508402959998662168,125,1508402959998304557,plot_matl,-0.300000011921,-5000.0,-0.299485296011,0.00238584191538,0.0,0.0,0.349065840244,0.0688235536218,-0.00898029282689,-0.299512952566,0.00385539536364,0.00385539536364,0.00693977158517,0.00293008168228,22.8699073792,22.8699073792,-0.444482892752,-121.303604126,2075,2093,2109,2038,2038,2797,3344,3357,3173,3301,3022,2969,3064,3074,3164,2857,3366,3364,3189,3266,2909,3280,3304,3025,0.00998277,1.250031845,1.24784625,0.401425719261,4500.0,0.416539907455,-0.0190074387938,0.0151141919196,-68.0138626099,0.0,6000.0,-0.00883889850229,0.00406447146088,-0.00883889850229,51.8197784424,0.349065840244,0.0265011657029,-0.0330919139087,0.304495960474,-0.0160437710583,-0.0160437710583,-0.0066604600288,-0.0273834560066,158.508850098,158.508850098,-237.861206055,-66.6826248169,2068,2067,2631,2035,2035,3060,3445,3441,3292,3380,3125,3016,3153,3104,3227,2745,3387,3406,3233,3362,3129,3349,3391,3198
1508402960008838922,126,1508402960008321334,plot_matl,-0.300000011921,-5000.0,-0.299469172955,0.00205464940518,0.0,0.0,0.349065840244,0.0688235536218,-0.00898029282689,-0.299512952566,0.00385539536364,0.00385539536364,0.00693977158517,0.00293008168228,22.8699073792,22.8699073792,-0.444482892752,-121.303604126,2054,2091,2108,2038,2038,2798,3342,3355,3173,3301,3022,2969,3064,3074,3164,2857,3366,3364,3189,3266,2908,3280,3306,3027,0.010017468,1.260048907,1.262200968,0.401425719261,4500.0,0.416539907455,-0.0189674217254,0.0151141919196,-68.0138626099,0.0,6000.0,-0.00882849283516,-0.00957999192178,-0.00882849283516,55.8525123596,0.349065840244,0.0265011657029,-0.0330919139087,0.304495960474,-0.0160437710583,-0.0160437710583,-0.0066604600288,-0.0273834560066,158.508850098,158.508850098,-237.861206055,-66.6826248169,2055,2057,2631,2040,2040,3058,3446,3442,3292,3380,3125,3016,3153,3104,3227,2745,3387,3406,3233,3362,3128,3349,3390,3196
1508402960018861237,127,1508402960018332739,plot_matl,-0.300000011921,-5000.0,-0.29946705699,0.00200611259788,0.0,0.0,0.349065840244,0.0688235536218,-0.00882980879396,-0.299477428198,0.00391815416515,0.00391815416515,-0.00954873207957,0.00222288770601,23.402973175,23.402973175,-1.2194275856,-121.419944763,2042,2085,2108,2038,2038,2798,3342,3355,3172,3301,3024,2968,3063,3075,3163,2857,3364,3360,3189,3266,2908,3280,3306,3027,0.010010613,1.270060498,1.271347851,0.401425719261,4500.0,0.416539907455,-0.0179715882987,0.0151141919196,-68.0138626099,0.0,6000.0,-0.00880659651011,0.00340561778285,-0.00880659651011,51.8137702942,0.349065840244,0.0289103612304,-0.0328547991812,0.3044950068,0.0077646644786,0.0077646644786,0.00390218151733,0.0345172025263,157.904434204,157.904434204,-238.147781372,-67.0529327393,2043,2049,2631,2040,2040,3058,3446,3442,3293,3379,3124,3017,3151,3104,3230,2747,3386,3403,3233,3362,3128,3349,3390,3196
1508402960028730925,128,1508402960028340430,plot_matl,-0.300000011921,-5000.0,-0.299460411072,0.00186976103578,0.0,0.0,0.349065840244,0.0688235536218,-0.00882980879396,-0.299477428198,0.00391815416515,0.00391815416515,-0.00954873207957,0.00222288770601,23.402973175,23.402973175,-1.2194275856,-121.419944763,2028,2075,2108,2036,2036,2799,3342,3355,3172,3301,3024,2968,3063,3075,3163,2857,3364,3360,3186,3266,2907,3279,3306,3023,0.010006108,1.280067557,1.280781824,0.401425719261,4500.0,0.417889386415,0.00808645039797,0.0164636727422,-74.0865249634,0.0,6000.0,-0.00877602770925,0.00278795207851,-0.00877602770925,51.8512306213,0.349065840244,0.0289103612304,-0.0328547991812,0.3044950068,0.0077646644786,0.0077646644786,0.00390218151733,0.0345172025263,157.904434204,157.904434204,-238.147781372,-67.0529327393,2036,2043,2630,2039,2039,3058,3446,3442,3293,3379,3124,3017,3151,3104,3230,2747,3386,3403,3236,3361,3130,3348,3389,3197
1508402960038678240,129,1508402960038308712,plot_matl,-0.300000011921,-5000.0,-0.299460411072,0.00186976103578,0.0,0.0,0.349065840244,0.0688235536218,-0.00882980879396,-0.299477428198,0.00391815416515,0.00391815416515,-0.00954873207957,0.00222288770601,23.402973175,23.402973175,-1.2194275856,-121.419944763,2037,2061,2108,2036,2036,2799,3342,3357,3173,3301,3022,2969,3064,3074,3166,2855,3364,3360,3186,3266,2907,3279,3306,3023,0.009968296,1.290035969,1.285910184,0.401425719261,4500.0,0.417889386415,0.00808645039797,0.0164636727422,-74.0865249634,0.0,6000.0,-0.00876253470778,0.00251073786058,-0.00876253470778,51.8444519043,0.349065840244,0.0289103612304,-0.0328547991812,0.3044950068,0.0077646644786,0.0077646644786,0.00390218151733,0.0345172025263,157.904434204,157.904434204,-238.147781372,-67.0529327393,2036,2032,2630,2039,2039,3058,3444,3444,3293,3379,3125,3018,3153,3105,3229,2746,3386,3403,3236,3361,3130,3348,3389,3197
1508402960048786735,130,1508402960048329954,plot_matl,-0.300000011921,-5000.0,-0.299463778734,0.00193374510854,0.0,0.0,0.349065840244,0.0688235536218,-0.00882980879396,-0.299477428198,0.00391815416515,0.00391815416515,-0.00954873207957,0.00222288770601,23.402973175,23.402973175,-1.2194275856,-121.419944763,2012,2054,2108,2036,2036,2799,3342,3357,3173,3301,3022,2969,3064,3074,3166,2855,3366,3360,3186,3264,2908,3280,3303,3024,0.010021683,1.300057462,1.30281879,0.401425719261,4500.0,0.417889386415,0.00808645039797,0.0164636727422,-74.0865249634,0.0,6000.0,-0.00873995944858,0.00205541285686,-0.00873995944858,51.8265075684,0.349065840244,0.0289103612304,-0.0328547991812,0.3044950068,0.0077646644786,0.0077646644786,0.00390218151733,0.0345172025263,157.904434204,157.904434204,-238.147781372,-67.0529327393,2020,2023,2631,2041,2041,3058,3444,3444,3293,3379,3125,3018,3153,3105,3229,2746,3387,3403,3233,3362,3129,3349,3388,3197
1508402960058725931,131,1508402960058283879,plot_matl,-0.300000011921,-5000.0,-0.299468100071,-0.00395502150059,0.0,0.0,0.349065840244,0.0674740672112,-0.0087485043332,-0.299465686083,-0.00920877605677,-0.00920877605677,0.00222775759175,0.00197349325754,23.8045578003,23.8045578003,-1.25755703449,-121.310874939,2025,2035,2108,2036,2036,2799,3342,3357,3172,3300,3023,2969,3064,3074,3166,2855,3366,3360,3186,3264,2908,3280,3303,3024,0.009952025,1.310010761,1.303715275,0.401425719261,4500.0,0.416539907455,-0.0182406194508,0.0151141919196,-68.0138626099,0.0,6000.0,-0.00872149504721,0.00168299861252,-0.00872149504721,51.8222045898,0.349065840244,0.0265011657029,-0.03279055655,0.304341763258,-0.0139560149983,-0.0139560149983,0.00260566663928,-0.0242871362716,157.681503296,157.681503296,-238.058746338,-66.5974655151,2029,2014,2631,2041,2041,3058,3445,3442,3292,3382,3126,3018,3153,3105,3229,2746,3387,3403,3233,3362,3129,3349,3388,3197
1508402960068708746,132,1508402960068286238,plot_matl,-0.300000011921,-5000.0,-0.299468100071,-0.00395502150059,0.0,0.0,0.349065840244,0.0674740672112,-0.0087485043332,-0.299465686083,-0.00920877605677,-0.00920877605677,0.00222775759175,0.00197349325754,23.8045578003,23.8045578003,-1.25755703449,-121.310874939,1997,2025,2108,2036,2036,2799,3342,3357,3172,3300,3023,2969,3064,3074,3165,2856,3364,3361,3185,3265,2908,3279,3304,3026,0.010002169,1.320013265,1.320286308,0.401425719261,4500.0,0.417889386415,0.0102972276509,0.0164636727422,-74.0865249634,0.0,6000.0,-0.00871774554253,0.00160396296997,-0.00871774554253,51.8191070557,0.349065840244,0.0265011657029,-0.03279055655,0.304341763258,-0.0139560149983,-0.0139560149983,0.00260566663928,-0.0242871362716,157.681503296,157.681503296,-238.058746338,-66.5974655151,2009,2000,2631,2041,2041,3058,3445,3442,3292,3382,3126,3018,3153,3105,3228,2743,3385,3403,3232,3360,3129,3347,3389,3197
1508402960078768996,133,1508402960078341227,plot_matl,-0.300000011921,-5000.0,-0.299455344677,-0.00421424582601,0.0,0.0,0.349065840244,0.0674740672112,-0.0087485043332,-0.299465686083,-0.00920877605677,-0.00920877605677,0.00222775759175,0.00197349325754,23.8045578003,23.8045578003,-1.25755703449,-121.310874939,2000,2025,2109,2038,2038,2799,3344,3357,3171,3300,3023,2970,3064,3074,3165,2856,3364,3361,3185,3265,2908,3279,3304,3026,0.010055845,1.330068995,1.337427385,0.401425719261,4500.0,0.417889386415,0.0102972276509,0.0164636727422,-74.0865249634,0.0,6000.0,-0.00871774554253,0.00160396296997,-0.00871774554253,51.8191070557,0.349065840244,0.0265011657029,-0.03279055655,0.304341763258,-0.0139560149983,-0.0139560149983,0.00260566663928,-0.0242871362716,157.681503296,157.681503296,-238.058746338,-66.5974655151,2009,1999,2631,2039,2039,3059,3444,3444,3293,3381,3125,3017,3153,3105,3228,2743,3385,3403,3232,3360,3129,3347,3389,3197
1508402960088748584,134,1508402960088345295,plot_matl,-0.300000011921,-5000.0,-0.299440383911,-0.00451584905386,0.0,0.0,0.349065840244,0.0674740672112,-0.0087485043332,-0.299465686083,-0.00920877605677,-0.00920877605677,0.00222775759175,0.00197349325754,23.8045578003,23.8045578003,-1.25755703449,-121.310874939,1992,2016,2109,2038,2038,2799,3344,3357,3171,3300,3023,2970,3065,3075,3165,2872,3380,3376,3199,3275,2917,3285,3304,3026,0.010003813,1.340073189,1.340510942,0.401425719261,4500.0,0.416539907455,-0.0150194717571,0.0151141919196,-68.0138626099,0.0,6000.0,-0.0087273446843,0.00179996329825,-0.0087273446843,51.8342857361,0.349065840244,0.0265011657029,-0.03279055655,0.304341763258,-0.0139560149983,-0.0139560149983,0.00260566663928,-0.0242871362716,157.681503296,157.681503296,-238.058746338,-66.5974655151,2001,2001,2631,2039,2039,3059,3444,3444,3293,3381,3125,3017,3153,3104,3230,2757,3403,3419,3246,3372,3138,3355,3389,3197
1508402960098756867,135,1508402960098313336,plot_matl,-0.300000011921,-5000.0,-0.299448788166,0.00162910972722,0.0,0.0,0.349065840244,0.0674740672112,-0.0087291104719,-0.299435973167,-0.00765825388953,-0.00765825388953,0.00183556065895,0.00136952497996,23.8299026489,23.8299026489,-1.6513825655,-121.220184326,1991,2001,2109,2035,2035,2803,3346,3361,3177,3304,3023,2970,3065,3075,3165,2872,3380,3376,3199,3275,2917,3285,3314,3034,0.00996758,1.350040985,1.3456233,0.401425719261,4500.0,0.417889386415,0.0114578660578,0.0164636727422,-74.0865249634,0.0,6000.0,-0.00874666403979,-0.0112336352468,-0.00874666403979,55.8589706421,0.349065840244,0.0289103612304,-0.0328835062683,0.304176688194,0.0110673699528,0.0110673699528,0.00376932718791,-0.0205837022513,157.778427124,157.778427124,-238.134429932,-66.7302703857,1992,1985,2631,2036,2036,3062,3451,3448,3298,3385,3125,3017,3153,3104,3230,2757,3403,3419,3246,3372,3138,3355,3398,3205
1508402960108752140,136,1508402960108295445,plot_matl,-0.300000011921,-5000.0,-0.299449294806,0.00163708464243,0.0,0.0,0.349065840244,0.0674740672112,-0.0087291104719,-0.299435973167,-0.00765825388953,-0.00765825388953,0.00183556065895,0.00136952497996,23.8299026489,23.8299026489,-1.6513825655,-121.220184326,1985,2010,2109,2035,2035,2803,3346,3361,3177,3304,3025,2971,3067,3077,3170,2861,3368,3365,3189,3270,2917,3285,3314,3034,0.009981507,1.360023028,1.357484952,0.401425719261,4500.0,0.417889386415,0.0108470860869,0.0164636727422,-74.0865249634,0.0,6000.0,-0.00873931776732,0.00205565080978,-0.00873931776732,51.8531074524,0.349065840244,0.0289103612304,-0.0328835062683,0.304176688194,0.0110673699528,0.0110673699528,0.00376932718791,-0.0205837022513,157.778427124,157.778427124,-238.134429932,-66.7302703857,2001,1997,2631,2036,2036,3062,3451,3448,3298,3385,3129,3018,3154,3106,3232,2748,3389,3406,3235,3364,3138,3355,3398,3205
1508402960118668379,137,1508402960118284546,plot_matl,-0.300000011921,-5000.0,-0.299450695515,0.00166141719092,0.0,0.0,0.349065840244,0.0674740672112,-0.0087291104719,-0.299435973167,-0.00765825388953,-0.00765825388953,0.00183556065895,0.00136952497996,23.8299026489,23.8299026489,-1.6513825655,-121.220184326,1955,2002,2110,2040,2040,2798,3346,3358,3177,3304,3025,2971,3067,3077,3170,2861,3368,3365,3189,3270,2912,3282,3306,3027,0.009988109,1.370011787,1.368370933,0.401425719261,4500.0,0.417889386415,0.0108074685559,0.0164636727422,-74.0865249634,0.0,6000.0,-0.00876841135323,0.00263809389435,-0.00876841135323,51.8027915955,0.349065840244,0.0289103612304,-0.0328835062683,0.304176688194,0.0110673699528,0.0110673699528,0.00376932718791,-0.0205837022513,157.778427124,157.778427124,-238.134429932,-66.7302703857,1978,1983,2632,2041,2041,3060,3447,3447,3298,3385,3129,3018,3154,3106,3232,2748,3389,3406,3235,3364,3131,3349,3391,3201
1508402960128688448,138,1508402960128329149,plot_matl,-0.300000011921,-5000.0,-0.299456745386,0.00178601895459,0.0,0.0,0.349065840244,0.0674740672112,-0.0087291104719,-0.299435973167,-0.00765825388953,-0.00765825388953,0.00183556065895,0.00136952497996,23.8299026489,23.8299026489,-1.6513825655,-121.220184326,1952,2001,2110,2040,2040,2798,3346,3358,3172,3303,3023,2970,3065,3074,3168,2861,3369,3363,3189,3270,2912,3282,3306,3027,0.01004408,1.380056426,1.38608304,0.401425719261,4500.0,0.417889386415,0.0102375438437,0.0164636727422,-74.0865249634,0.0,6000.0,-0.00876760296524,0.00261608185247,-0.00876760296524,51.7594223022,0.349065840244,0.0289103612304,-0.0328835062683,0.304176688194,0.0110673699528,0.0110673699528,0.00376932718791,-0.0205837022513,157.778427124,157.778427124,-238.134429932,-66.7302703857,1980,1985,2632,2041,2041,3060,3447,3447,3296,3380,3127,3015,3152,3104,3229,2748,3389,3404,3235,3364,3131,3349,3391,3201
1508402960138854664,139,1508402960138318188,plot_matl,-0.300000011921,-5000.0,-0.299451500177,0.00168090930674,0.0,0.0,0.349065840244,0.0688235536218,-0.00877042300999,-0.299458652735,0.00523021956906,0.00523021956906,0.00267304014415,0.00182490481529,23.9839248657,23.9839248657,-1.62356364727,-121.375038147,1969,2003,2112,2041,2041,2798,3346,3358,3172,3303,3023,2970,3065,3074,3168,2861,3369,3363,3191,3266,2911,3281,3306,3027,0.009989335,1.390045676,1.388517565,0.401425719261,4500.0,0.417889386415,0.00841401796788,0.0164636727422,-74.0865249634,0.0,6000.0,-0.0087566440925,0.00239564199001,-0.0087566440925,51.8211936951,0.349065840244,0.0265011657029,-0.0328470915556,0.304152160883,-0.0140499696136,-0.0140499696136,0.00342921935953,-0.0204018633813,157.543029785,157.543029785,-237.985458374,-66.7526855469,1985,1984,2633,2039,2039,3061,3447,3447,3296,3380,3127,3015,3152,3104,3229,2748,3389,3404,3235,3362,3130,3350,3389,3199
1508402960148825186,140,1508402960148350211,plot_matl,-0.300000011921,-5000.0,-0.299462735653,-0.00406369799748,0.0,0.0,0.349065840244,0.0688235536218,-0.00877042300999,-0.299458652735,0.00523021956906,0.00523021956906,0.00267304014415,0.00182490481529,23.9839248657,23.9839248657,-1.62356364727,-121.375038147,1951,2002,2112,2041,2041,2798,3344,3357,3174,3302,3025,2969,3064,3074,3166,2863,3369,3363,3191,3266,2911,3281,3306,3027,0.010031516,1.400077489,1.40441224,0.401425719261,4500.0,0.417889386415,0.00786003097892,0.0164636727422,-74.0865249634,0.0,6000.0,-0.00878118351102,0.00292104459368,-0.00878118351102,51.8852653503,0.349065840244,0.0265011657029,-0.0328470915556,0.304152160883,-0.0140499696136,-0.0140499696136,0.00342921935953,-0.0204018633813,157.543029785,157.543029785,-237.985458374,-66.7526855469,1976,1982,2633,2039,2039,3061,3447,3445,3296,3382,3127,3014,3152,3104,3228,2747,3389,3404,3235,3362,3130,3350,3389,3199
1508402960158642729,141,1508402960158297168,plot_matl,-0.300000011921,-5000.0,-0.299456387758,-0.00419304938987,0.0,0.0,0.349065840244,0.0688235536218,-0.00877042300999,-0.299458652735,0.00523021956906,0.00523021956906,0.00267304014415,0.00182490481529,23.9839248657,23.9839248657,-1.62356364727,-121.375038147,1948,2001,2113,2043,2043,2798,3344,3357,3174,3302,3025,2969,3064,3074,3166,2863,3368,3364,3189,3269,2911,3280,3304,3029,0.009946871,1.410025012,1.402508811,0.401425719261,4500.0,0.417889386415,0.00686400337145,0.0164636727422,-74.0865249634,0.0,6000.0,-0.00875522661954,0.00239130994305,-0.00875522661954,51.8190574646,0.349065840244,0.0265011657029,-0.0328470915556,0.304152160883,-0.0140499696136,-0.0140499696136,0.00342921935953,-0.0204018633813,157.543029785,157.543029785,-237.985458374,-66.7526855469,1971,1984,2634,2039,2039,3061,3447,3445,3296,3382,3127,3014,3152,3104,3228,2747,3387,3404,3235,3363,3132,3348,3389,3198
1508402960168630452,142,1508402960168312376,plot_matl,-0.300000011921,-5000.0,-0.299456864595,0.00179145240691,0.0,0.0,0.349065840244,0.0688235536218,-0.00877042300999,-0.299458652735,0.00523021956906,0.00523021956906,0.00267304014415,0.00182490481529,23.9839248657,23.9839248657,-1.62356364727,-121.375038147,1955,1989,2113,2043,2043,2799,3343,3359,3174,3301,3024,2967,3064,3074,3166,2863,3368,3364,3189,3269,2911,3280,3304,3029,0.010013625,1.420039474,1.42193475,0.401425719261,4500.0,0.416539907455,-0.0191802959889,0.0151141919196,-68.0138626099,0.0,6000.0,-0.00874504540116,0.0021786717698,-0.00874504540116,51.8184547424,0.349065840244,0.0265011657029,-0.0328470915556,0.304152160883,-0.0140499696136,-0.0140499696136,0.00342921935953,-0.0204018633813,157.543029785,157.543029785,-237.985458374,-66.7526855469,1971,1972,2634,2039,2039,3061,3446,3444,3296,3383,3127,3012,3151,3103,3228,2747,3387,3404,3235,3363,3132,3348,3389,3198
1508402960178846707,143,1508402960178333408,plot_matl,-0.300000011921,-5000.0,-0.299457043409,-0.00418009841815,0.0,0.0,0.349065840244,0.0688235536218,-0.00875760056078,-0.299452155828,0.00350154470652,0.00350154470652,0.00243976525962,0.00169809861109,23.8768138885,23.8768138885,-1.07673311234,-121.246459961,1942,1986,2113,2043,2043,2799,3343,3359,3174,3301,3024,2967,3064,3074,3167,2863,3367,3366,3193,3269,2913,3281,3305,3027,0.010022069,1.430061332,1.433155867,0.401425719261,4500.0,0.417889386415,0.00859768409282,0.0164636727422,-74.0865249634,0.0,6000.0,-0.00875021610409,-0.0111431218684,-0.00875021610409,55.85546875,0.349065840244,0.0289103612304,-0.0328757762909,0.304302632809,0.0109134847298,0.0109134847298,0.00414431700483,-0.0234494414181,157.35194397,157.35194397,-238.044845581,-66.8005599976,1963,1974,2634,2039,2039,3061,3446,3444,3296,3383,3127,3012,3151,3103,3229,2744,3387,3404,3237,3362,3133,3349,3391,3201
1508402960188926922,144,1508402960188361641,plot_matl,-0.300000011921,-5000.0,-0.299462199211,0.00189259147737,0.0,0.0,0.349065840244,0.0688235536218,-0.00875760056078,-0.299452155828,0.00350154470652,0.00350154470652,0.00243976525962,0.00169809861109,23.8768138885,23.8768138885,-1.07673311234,-121.246459961,1933,1968,2114,2041,2041,2801,3343,3357,3176,3303,3026,2969,3064,3074,3167,2863,3367,3366,3193,3269,2913,3281,3305,3027,0.010028323,1.440089144,1.444078512,0.401425719261,4500.0,0.416539907455,-0.0176994334906,0.0151141919196,-68.0138626099,0.0,6000.0,-0.0087780430913,-0.0105583984405,-0.0087780430913,55.8342971802,0.349065840244,0.0289103612304,-0.0328757762909,0.304302632809,0.0109134847298,0.0109134847298,0.00414431700483,-0.0234494414181,157.35194397,157.35194397,-238.044845581,-66.8005599976,1959,1960,2635,2040,2040,3062,3445,3445,3297,3382,3128,3011,3151,3103,3229,2744,3387,3404,3237,3362,3133,3349,3391,3201
1508402960198673261,145,1508402960198291315,plot_matl,-0.300000011921,-5000.0,-0.2994607687,0.00186359276995,0.0,0.0,0.349065840244,0.0688235536218,-0.00875760056078,-0.299452155828,0.00350154470652,0.00350154470652,0.00243976525962,0.00169809861109,23.8768138885,23.8768138885,-1.07673311234,-121.246459961,1933,1968,2114,2041,2041,2801,3343,3357,3176,3303,3026,2969,3064,3074,3167,2863,3367,3366,3193,3269,2913,3281,3305,3027,0.009928291,1.450018753,1.439602195,0.401425719261,4500.0,0.416539907455,-0.0176994334906,0.0151141919196,-68.0138626099,0.0,6000.0,-0.00882446113974,-0.0096255177632,-0.00882446113974,55.9233169556,0.349065840244,0.0289103612304,-0.0328757762909,0.304302632809,0.0109134847298,0.0109134847298,0.00414431700483,-0.0234494414181,157.35194397,157.35194397,-238.044845581,-66.8005599976,1959,1960,2635,2040,2040,3062,3445,3445,3297,3382,3128,3011,3151,3103,3229,2744,3387,3404,3237,3362,3133,3349,3391,3201
1508402960208603752,146,1508402960208309205,plot_matl,-0.300000011921,-5000.0,-0.2994607687,0.00186359276995,0.0,0.0,0.349065840244,0.0688235536218,-0.00875760056078,-0.299452155828,0.00350154470652,0.00350154470652,0.00243976525962,0.00169809861109,23.8768138885,23.8768138885,-1.07673311234,-121.246459961,1947,1969,2114,2041,2041,2801,3343,3357,3176,3303,3026,2969,3064,3075,3166,2865,3367,3366,3194,3290,2933,3299,3305,3027,0.010016572,1.460036302,1.462419512,0.401425719261,4500.0,0.416539907455,-0.0188561975956,0.0151141919196,-68.0138626099,0.0,6000.0,-0.00882446113974,-0.0096255177632,-0.00882446113974,55.9233169556,0.349065840244,0.0289103612304,-0.0328757762909,0.304302632809,0.0109134847298,0.0109134847298,0.00414431700483,-0.0234494414181,157.35194397,157.35194397,-238.044845581,-66.8005599976,1970,1966,2635,2040,2040,3062,3445,3445,3297,3382,3128,3011,3150,3101,3228,2743,3388,3406,3237,3386,3153,3366,3391,3201
1508402960218923767,147,1508402960218360314,plot_matl,-0.300000011921,-5000.0,-0.299456179142,0.00177675671875,0.0,0.0,0.349065840244,0.0688235536218,-0.00874721817672,-0.299458652735,0.00384647911415,0.00384647911415,0.00222291378304,-0.00414840923622,23.6921310425,23.6921310425,-1.02209436893,-121.201858521,1947,1969,2114,2041,2041,2801,3343,3357,3176,3303,3026,2969,3064,3075,3166,2865,3367,3366,3194,3290,2933,3299,3305,3027,0.010052664,1.470087818,1.477741608,0.401425719261,4500.0,0.417889386415,0.0115954242647,0.0164636727422,-74.0865249634,0.0,6000.0,-0.00882446113974,-0.0096255177632,-0.00882446113974,55.9233169556,0.349065840244,0.0289103612304,-0.0329335108399,0.304415851831,0.011995385401,0.011995385401,-0.0100029455498,-0.0257882401347,157.412002563,157.412002563,-237.986801147,-66.977684021,1970,1966,2635,2040,2040,3062,3445,3445,3297,3382,3128,3011,3150,3101,3228,2743,3388,3406,3237,3386,3153,3366,3391,3201
1508402960228688763,148,1508402960228322633,plot_matl,-0.300000011921,-5000.0,-0.299456179142,0.00177675671875,0.0,0.0,0.349065840244,0.0688235536218,-0.00874721817672,-0.299458652735,0.00384647911415,0.00384647911415,0.00222291378304,-0.00414840923622,23.6921310425,23.6921310425,-1.02209436893,-121.201858521,1941,1969,2117,2037,2037,2811,3353,3368,3184,3325,3026,2969,3064,3075,3166,2865,3367,3366,3194,3290,2933,3299,3324,3049,0.009960188,1.48004973,1.474107824,0.401425719261,4500.0,0.417889386415,0.0115954242647,0.0164636727422,-74.0865249634,0.0,6000.0,-0.00893281865865,-0.00737869553268,-0.00893281865865,55.9733085632,0.349065840244,0.0289103612304,-0.0329335108399,0.304415851831,0.011995385401,0.011995385401,-0.0100029455498,-0.0257882401347,157.412002563,157.412002563,-237.986801147,-66.977684021,1965,1962,2638,2044,2044,3071,3456,3452,3308,3403,3128,3011,3150,3101,3228,2743,3388,3406,3237,3386,3153,3366,3406,3217
1508402960238651091,149,1508402960238283643,plot_matl,-0.300000011921,-5000.0,-0.299490243196,-0.00350311165676,0.0,0.0,0.349065840244,0.0688235536218,-0.00874721817672,-0.299458652735,0.00384647911415,0.00384647911415,0.00222291378304,-0.00414840923622,23.6921310425,23.6921310425,-1.02209436893,-121.201858521,1922,1946,2117,2037,2037,2811,3353,3368,3184,3325,3045,2984,3078,3088,3181,2883,3381,3378,3205,3280,2933,3299,3324,3049,0.009960289,1.49001061,1.484083061,0.401425719261,4500.0,0.417889386415,0.0117043629289,0.0164636727422,-74.0865249634,0.0,6000.0,-0.00897039566189,0.00625426881015,-0.00897039566189,51.9382820129,0.349065840244,0.0289103612304,-0.0329335108399,0.304415851831,0.011995385401,0.011995385401,-0.0100029455498,-0.0257882401347,157.412002563,157.412002563,-237.986801147,-66.977684021,1954,1941,2638,2044,2044,3071,3456,3452,3308,3403,3147,3023,3162,3113,3242,2752,3398,3417,3245,3374,3153,3366,3406,3217
1508402960248720683,150,1508402960248314627,plot_matl,-0.300000011921,-5000.0,-0.299490243196,-0.00350311165676,0.0,0.0,0.349065840244,0.0688235536218,-0.00874721817672,-0.299458652735,0.00384647911415,0.00384647911415,0.00222291378304,-0.00414840923622,23.6921310425,23.6921310425,-1.02209436893,-121.201858521,1922,1946,2117,2037,2037,2811,3353,3368,3184,3325,3045,2984,3078,3088,3181,2883,3381,3378,3205,3280,2933,3299,3324,3049,0.010031606,1.500042146,1.5047409,0.401425719261,4500.0,0.417889386415,0.0117043629289,0.0164636727422,-74.0865249634,0.0,6000.0,-0.00897039566189,0.00625426881015,-0.00897039566189,51.9382820129,0.349065840244,0.0289103612304,-0.0329335108399,0.304415851831,0.011995385401,0.011995385401,-0.0100029455498,-0.0257882401347,157.412002563,157.412002563,-237.986801147,-66.977684021,1954,1941,2638,2044,2044,3071,3456,3452,3308,3403,3147,3023,3162,3113,3242,2752,3398,3417,3245,3374,3153,3366,3406,3217
1508402960258855272,151,1508402960258326037,plot_matl,-0.300000011921,-5000.0,-0.299490243196,-0.00350311165676,0.0,0.0,0.349065840244,0.0674740672112,-0.00891206040978,-0.299439758062,-0.0088671958074,-0.0088671958074,0.00563996564597,0.00143997813575,23.8759975433,23.8759975433,-0.449521750212,-121.642524719,1922,1946,2117,2037,2037,2811,3353,3368,3184,3325,3045,2984,3078,3088,3181,2883,3381,3378,3205,3280,2933,3299,3324,3049,0.010010588,1.5100534,1.511598788,0.401425719261,4500.0,0.417889386415,0.0117043629289,0.0164636727422,-74.0865249634,0.0,6000.0,-0.00897039566189,0.00625426881015,-0.00897039566189,51.9382820129,0.349065840244,0.0265011657029,-0.0331029966474,0.304374814034,-0.0151459965855,-0.0151459965855,-0.00647424208,0.0319004543126,157.424331665,157.424331665,-237.613952637,-66.8908004761,1954,1941,2638,2044,2044,3071,3456,3452,3308,3403,3147,3023,3162,3113,3242,2752,3398,3417,3245,3374,3153,3366,3406,3217
1508402960268909183,152,1508402960268372492,plot_matl,-0.300000011921,-5000.0,-0.299539715052,0.00346732744947,0.0,0.0,0.349065840244,0.0674740672112,-0.00891206040978,-0.299439758062,-0.0088671958074,-0.0088671958074,0.00563996564597,0.00143997813575,23.8759975433,23.8759975433,-0.449521750212,-121.642524719,1947,1985,2121,2034,2034,2803,3349,3365,3181,3309,3031,2969,3066,3079,3173,2874,3375,3370,3199,3277,2922,3285,3311,3036,0.010047797,1.520100105,1.527265144,0.401425719261,4500.0,0.417889386415,0.010609193705,0.0164636727422,-74.0865249634,0.0,6000.0,-0.00902615487576,-0.00584087520838,-0.00902615487576,55.797794342,0.349065840244,0.0265011657029,-0.0331029966474,0.304374814034,-0.0151459965855,-0.0151459965855,-0.00647424208,0.0319004543126,157.424331665,157.424331665,-237.613952637,-66.8908004761,1964,1975,2641,2039,2039,3065,3451,3450,3304,3388,3135,3009,3152,3099,3230,2745,3392,3411,3242,3367,3137,3352,3395,3203
1508402960278648076,153,1508402960278288204,plot_matl,-0.300000011921,-5000.0,-0.299562305212,-0.00205294438638,0.0,0.0,0.349065840244,0.0674740672112,-0.00891206040978,-0.299439758062,-0.0088671958074,-0.0088671958074,0.00563996564597,0.00143997813575,23.8759975433,23.8759975433,-0.449521750212,-121.642524719,1947,1985,2121,2034,2034,2803,3349,3365,3181,3309,3031,2969,3066,3079,3173,2874,3375,3370,3199,3277,2922,3285,3311,3036,0.009913978,1.530015662,1.516838634,0.401425719261,4500.0,0.417889386415,0.0101358294487,0.0164636727422,-74.0865249634,0.0,6000.0,-0.00902615487576,-0.00584087520838,-0.00902615487576,55.797794342,0.349065840244,0.0265011657029,-0.0331029966474,0.304374814034,-0.0151459965855,-0.0151459965855,-0.00647424208,0.0319004543126,157.424331665,157.424331665,-237.613952637,-66.8908004761,1964,1975,2641,2039,2039,3065,3451,3450,3304,3388,3135,3009,3152,3099,3230,2745,3392,3411,3242,3367,3137,3352,3395,3203
1508402960288552412,154,1508402960288280323,plot_matl,-0.300000011921,-5000.0,-0.299581199884,-0.00167229096405,0.0,0.0,0.349065840244,0.0674740672112,-0.00891206040978,-0.299439758062,-0.0088671958074,-0.0088671958074,0.00563996564597,0.00143997813575,23.8759975433,23.8759975433,-0.449521750212,-121.642524719,2013,2051,2121,2034,2034,2803,3348,3362,3180,3308,3031,2968,3066,3078,3169,2888,3375,3370,3199,3277,2922,3285,3311,3036,0.009990011,1.540007028,1.538461694,0.401425719261,4500.0,0.417889386415,0.0102246459574,0.0164636727422,-74.0865249634,0.0,6000.0,-0.00911684241146,-0.0038437130861,-0.00911684241146,55.9197921753,0.349065840244,0.0265011657029,-0.0331029966474,0.304374814034,-0.0151459965855,-0.0151459965855,-0.00647424208,0.0319004543126,157.424331665,157.424331665,-237.613952637,-66.8908004761,2020,2018,2641,2039,2039,3065,3449,3447,3303,3386,3133,3007,3150,3098,3230,2752,3392,3411,3242,3367,3137,3352,3395,3203
1508402960298713276,155,1508402960298297468,plot_matl,-0.300000011921,-5000.0,-0.299581199884,-0.00167606433388,0.0,0.0,0.349065840244,0.0674740672112,-0.00900629535317,-0.299530863762,-0.00861599575728,-0.00861599575728,0.00713636400178,-0.00268471078016,23.9114952087,23.9114952087,-0.943229496479,-121.575691223,2005,2054,2122,2036,2036,2803,3348,3362,3180,3308,3031,2968,3066,3078,3169,2888,3386,3383,3210,3285,2930,3292,3320,3042,0.010017584,1.55002458,1.55272552,0.401425719261,4500.0,0.417889386415,0.0103385867551,0.0164636727422,-74.0865249634,0.0,6000.0,-0.00912512186915,0.0097650596872,-0.00912512186915,51.7927017212,0.349065840244,0.0265011657029,-0.0332359932363,0.304003357887,-0.0134942708537,-0.0134942708537,-0.00375823699869,-0.0194354057312,157.426605225,157.426605225,-238.610595703,-66.7518081665,2013,2014,2642,2037,2037,3065,3449,3447,3303,3386,3133,3007,3150,3098,3230,2752,3403,3420,3251,3375,3144,3358,3403,3210
1508402960308698887,156,1508402960308293899,plot_matl,-0.300000011921,-5000.0,-0.299574792385,0.00417389906943,0.0,0.0,0.349065840244,0.0674740672112,-0.00900629535317,-0.299530863762,-0.00861599575728,-0.00861599575728,0.00713636400178,-0.00268471078016,23.9114952087,23.9114952087,-0.943229496479,-121.575691223,2025,2067,2122,2036,2036,2808,3350,3366,3183,3311,3035,2969,3065,3076,3169,2888,3386,3383,3210,3285,2930,3292,3320,3042,0.009996862,1.560021247,1.559510472,0.401425719261,4500.0,0.419238895178,0.0370867811143,0.0178131535649,-80.1591949463,0.0,6000.0,-0.00910978578031,-0.00397395994514,-0.00910978578031,55.9471626282,0.349065840244,0.0265011657029,-0.0332359932363,0.304003357887,-0.0134942708537,-0.0134942708537,-0.00375823699869,-0.0194354057312,157.426605225,157.426605225,-238.610595703,-66.7518081665,2022,2024,2642,2037,2037,3071,3453,3452,3306,3388,3137,3008,3152,3098,3230,2752,3403,3420,3251,3375,3144,3358,3403,3210
1508402960318728448,157,1508402960318288240,plot_matl,-0.300000011921,-5000.0,-0.299570173025,-0.00189367099665,0.0,0.0,0.349065840244,0.0674740672112,-0.00900629535317,-0.299530863762,-0.00861599575728,-0.00861599575728,0.00713636400178,-0.00268471078016,23.9114952087,23.9114952087,-0.943229496479,-121.575691223,2056,2091,2122,2036,2036,2808,3350,3366,3183,3311,3035,2969,3065,3076,3173,2874,3375,3371,3200,3277,2925,3283,3314,3035,0.009994031,1.570015663,1.569062867,0.401425719261,4500.0,0.416539907455,-0.0181993842125,0.0151141919196,-68.0138626099,0.0,6000.0,-0.00912178773433,-0.00371779315174,-0.00912178773433,55.856803894,0.349065840244,0.0265011657029,-0.0332359932363,0.304003357887,-0.0134942708537,-0.0134942708537,-0.00375823699869,-0.0194354057312,157.426605225,157.426605225,-238.610595703,-66.7518081665,2061,2064,2642,2037,2037,3071,3453,3452,3306,3388,3137,3008,3152,3098,3231,2740,3389,3409,3241,3366,3139,3351,3395,3203
1508402960328740293,158,1508402960328320417,plot_matl,-0.300000011921,-5000.0,-0.299576580524,-0.00177038216498,0.0,0.0,0.349065840244,0.0674740672112,-0.00900629535317,-0.299530863762,-0.00861599575728,-0.00861599575728,0.00713636400178,-0.00268471078016,23.9114952087,23.9114952087,-0.943229496479,-121.575691223,2057,2089,2121,2037,2037,2805,3347,3362,3181,3305,3031,2966,3065,3076,3173,2874,3375,3371,3200,3277,2925,3283,3314,3035,0.010030919,1.580047509,1.584885202,0.401425719261,4500.0,0.416539907455,-0.0182734802365,0.0151141919196,-68.0138626099,0.0,6000.0,-0.00914210546762,-0.00328739103861,-0.00914210546762,55.8896064758,0.349065840244,0.0265011657029,-0.0332359932363,0.304003357887,-0.0134942708537,-0.0134942708537,-0.00375823699869,-0.0194354057312,157.426605225,157.426605225,-238.610595703,-66.7518081665,2045,2050,2641,2038,2038,3067,3449,3447,3302,3385,3133,3006,3152,3098,3231,2740,3389,3409,3241,3366,3139,3351,3395,3203
1508402960338872612,159,1508402960338344570,plot_matl,-0.300000011921,-5000.0,-0.299576580524,-0.00177038216498,0.0,0.0,0.349065840244,0.0688235536218,-0.00912973470986,-0.299572497606,0.00520179467276,0.00520179467276,-0.00355990370736,-0.00185483379755,23.3823261261,23.3823261261,-0.0527135320008,-121.561561584,2071,2097,2121,2037,2037,2805,3347,3362,3181,3305,3031,2966,3066,3075,3169,2874,3372,3367,3197,3274,2919,3283,3314,3035,0.010025116,1.590072344,1.593993444,0.401425719261,4500.0,0.416539907455,-0.0182734802365,0.0151141919196,-68.0138626099,0.0,6000.0,-0.00914210546762,-0.00328739103861,-0.00914210546762,55.8896064758,0.349065840244,0.0289103612304,-0.0332603640854,0.304273843765,0.0112930350006,0.0112930350006,0.0126511314884,0.0384593196213,157.370346069,157.370346069,-238.500457764,-66.8535003662,2071,2071,2641,2038,2038,3067,3449,3447,3302,3385,3133,3006,3151,3096,3229,2738,3388,3408,3239,3367,3136,3352,3395,3203
1508402960348791633,160,1508402960348294486,plot_matl,-0.300000011921,-5000.0,-0.299576580524,-0.00177038216498,0.0,0.0,0.349065840244,0.0688235536218,-0.00912973470986,-0.299572497606,0.00520179467276,0.00520179467276,-0.00355990370736,-0.00185483379755,23.3823261261,23.3823261261,-0.0527135320008,-121.561561584,2071,2097,2121,2037,2037,2805,3347,3362,3181,3305,3031,2966,3066,3075,3169,2874,3372,3367,3197,3274,2919,3283,3314,3035,0.009949284,1.600021899,1.59188544,0.401425719261,4500.0,0.416539907455,-0.0182734802365,0.0151141919196,-68.0138626099,0.0,6000.0,-0.00914210546762,-0.00328739103861,-0.00914210546762,55.8896064758,0.349065840244,0.0289103612304,-0.0332603640854,0.304273843765,0.0112930350006,0.0112930350006,0.0126511314884,0.0384593196213,157.370346069,157.370346069,-238.500457764,-66.8535003662,2071,2071,2641,2038,2038,3067,3449,3447,3302,3385,3133,3006,3151,3096,3229,2738,3388,3408,3239,3367,3136,3352,3395,3203
1508402960358645080,161,1508402960358285785,plot_matl,-0.300000011921,-5000.0,-0.299570530653,0.00408311234787,0.0,0.0,0.349065840244,0.0688235536218,-0.00912973470986,-0.299572497606,0.00520179467276,0.00520179467276,-0.00355990370736,-0.00185483379755,23.3823261261,23.3823261261,-0.0527135320008,-121.561561584,2077,2123,2120,2035,2035,2800,3345,3359,3181,3305,3029,2967,3065,3077,3167,2873,3371,3368,3199,3273,2919,3283,3311,3033,0.009989746,1.610012732,1.608349106,0.401425719261,4500.0,0.416539907455,-0.0193761177361,0.0151141919196,-68.0138626099,0.0,6000.0,-0.00910034403205,0.00931167788804,-0.00910034403205,51.8599472046,0.349065840244,0.0289103612304,-0.0332603640854,0.304273843765,0.0112930350006,0.0112930350006,0.0126511314884,0.0384593196213,157.370346069,157.370346069,-238.500457764,-66.8535003662,2075,2086,2640,2043,2043,3065,3447,3446,3300,3384,3133,3007,3150,3100,3227,2741,3387,3406,3239,3363,3136,3352,3394,3202
1508402960368813094,162,1508402960368284581,plot_matl,-0.300000011921,-5000.0,-0.299570530653,0.00408311234787,0.0,0.0,0.349065840244,0.0688235536218,-0.00912973470986,-0.299572497606,0.00520179467276,0.00520179467276,-0.00355990370736,-0.00185483379755,23.3823261261,23.3823261261,-0.0527135320008,-121.561561584,2087,2116,2119,2036,2036,2800,3347,3360,3181,3305,3029,2967,3065,3077,3167,2873,3371,3368,3199,3273,2921,3282,3309,3031,0.009999457,1.62001229,1.619912034,0.401425719261,4500.0,0.416539907455,-0.0193761177361,0.0151141919196,-68.0138626099,0.0,6000.0,-0.00910034403205,0.00931167788804,-0.00910034403205,51.8599472046,0.349065840244,0.0289103612304,-0.0332603640854,0.304273843765,0.0112930350006,0.0112930350006,0.0126511314884,0.0384593196213,157.370346069,157.370346069,-238.500457764,-66.8535003662,2082,2091,2640,2037,2037,3063,3448,3445,3300,3384,3133,3007,3150,3100,3227,2741,3387,3406,3239,3363,3136,3351,3391,3201
1508402960378724728,163,1508402960378277514,plot_matl,-0.300000011921,-5000.0,-0.299586504698,-0.00156295776833,0.0,0.0,0.349065840244,0.0688235536218,-0.00909336097538,-0.29957306385,0.0040718857199,0.0040718857199,-0.00425225635991,0.00413609482348,23.0550670624,23.0550670624,-1.1262793541,-121.566726685,2095,2128,2119,2036,2036,2800,3347,3360,3176,3304,3027,2966,3063,3075,3166,2872,3371,3369,3199,3273,2921,3282,3309,3031,0.00999148,1.630004416,1.62861124,0.401425719261,4500.0,0.417889386415,0.0096988985315,0.0164636727422,-74.0865249634,0.0,6000.0,-0.00910149421543,-0.0040828245692,-0.00910149421543,55.8259773254,0.349065840244,0.0265011657029,-0.0333427079022,0.304320126772,-0.0138925090432,-0.0138925090432,-0.00138530577533,0.0377725362778,157.291976929,157.291976929,-238.660705566,-66.9337997437,2090,2086,2640,2037,2037,3063,3448,3445,3298,3385,3131,3009,3150,3100,3226,2743,3389,3409,3239,3363,3136,3351,3391,3201
1508402960388947051,164,1508402960388353535,plot_matl,-0.300000011921,-5000.0,-0.299584805965,-0.00160435470752,0.0,0.0,0.349065840244,0.0688235536218,-0.00909336097538,-0.29957306385,0.0040718857199,0.0040718857199,-0.00425225635991,0.00413609482348,23.0550670624,23.0550670624,-1.1262793541,-121.566726685,2095,2128,2119,2036,2036,2800,3347,3360,3176,3304,3027,2966,3063,3075,3166,2872,3371,3369,3199,3273,2921,3282,3309,3031,0.010077219,1.640080918,1.652663916,0.401425719261,4500.0,0.417889386415,0.00980630889535,0.0164636727422,-74.0865249634,0.0,6000.0,-0.00909162405878,0.00914047379047,-0.00909162405878,51.8394966125,0.349065840244,0.0265011657029,-0.0333427079022,0.304320126772,-0.0138925090432,-0.0138925090432,-0.00138530577533,0.0377725362778,157.291976929,157.291976929,-238.660705566,-66.9337997437,2090,2086,2640,2037,2037,3063,3448,3445,3298,3385,3131,3009,3150,3100,3226,2743,3389,3409,3239,3363,3136,3351,3391,3201
