%time,field.header.seq,field.header.stamp,field.header.frame_id,field.FFJ4_set_point,field.FFJ4_position_gain,field.FFJ4_process_value,field.FFJ4_process_value_dot,field.FFJ4_error,field.FFJ4_command,field.FFJ1,field.FFJ2,field.FFJ3,field.FFJ4,field.FFJ1_dot,field.FFJ2_dot,field.FFJ3_dot,field.FFJ4_dot,field.FFJ1_tao,field.FFJ2_tao,field.FFJ3_tao,field.FFJ4_tao,field.pac0,field.pac1,field.pdc0,field.tac0,field.tdc0,field.el0,field.el1,field.el2,field.el3,field.el4,field.el5,field.el6,field.el7,field.el8,field.el9,field.el10,field.el11,field.el12,field.el13,field.el14,field.el15,field.el16,field.el17,field.el18,field.dt,field.time,field.test_time2,field.FFJ0_set_point,field.FFJ0_position_gain,field.FFJ0_process_value,field.FFJ0_process_value_dot,field.FFJ0_error,field.FFJ0_command,field.FFJ3_set_point,field.FFJ3_position_gain,field.FFJ3_process_value,field.FFJ3_process_value_dot,field.FFJ3_error,field.FFJ3_command,field.MFJ1,field.MFJ2,field.MFJ3,field.MFJ4,field.MFJ1_dot,field.MFJ2_dot,field.MFJ3_dot,field.MFJ4_dot,field.MFJ1_tao,field.MFJ2_tao,field.MFJ3_tao,field.MFJ4_tao,field.Mpac0,field.Mpac1,field.Mpdc0,field.Mtac0,field.Mtdc0,field.Mel0,field.Mel1,field.Mel2,field.Mel3,field.Mel4,field.Mel5,field.Mel6,field.Mel7,field.Mel8,field.Mel9,field.Mel10,field.Mel11,field.Mel12,field.Mel13,field.Mel14,field.Mel15,field.Mel16,field.Mel17,field.Mel18
1508405304472605120,93,1508405304472038956,plot_matl,0.25,-500.0,0.0293006822467,0.0131028760225,-0.220699325204,-107.194664001,0.349065840244,0.0445328839123,-0.0102354856208,0.0292830113322,-0.00827617850155,-0.00827617850155,0.00543296523392,0.0134928431362,-1.18023979664,-1.18023979664,-1.10539495945,95.2510299683,2014,2048,2131,2020,2020,2598,3277,3308,3104,3259,2967,2941,3017,3069,3143,2968,3380,3373,3222,3270,2926,3256,3283,3002,0.009943156,0.930029196,0.924713508,0.401425719261,4500.0,0.394948214293,0.0101042855531,-0.00647751055658,29.1487979889,0.0,6000.0,-0.0102317398414,0.00536675425246,-0.0102317398414,59.7809944153,0.349065840244,0.0240919683129,0.00365652958862,0.292764097452,-0.0126042691991,-0.0126042691991,0.0028339526616,0.0240240246058,147.039108276,147.039108276,-0.206682547927,-2.44900846481,2030,2031,2568,2043,2043,2889,3395,3394,3203,3327,3041,3018,3122,3113,3205,2814,3379,3383,3212,3330,3089,3321,3351,3149
1508405304482308476,94,1508405304482068880,plot_matl,0.25,-500.0,0.0293050240725,-0.00785171985626,-0.220694974065,-112.184753418,0.349065840244,0.0445328839123,-0.0101973572746,0.0293081514537,-0.00822986103594,-0.00822986103594,0.00466981949285,-0.00791058503091,-1.11179053783,-1.11179053783,-1.12205553055,95.2650604248,2049,2070,2131,2021,2021,2598,3277,3308,3104,3259,2967,2941,3017,3069,3143,2968,3380,3372,3222,3269,2928,3255,3284,3001,0.010028728,0.940058807,0.942700432,0.401425719261,4500.0,0.393598735332,-0.0165552385151,-0.00782699231058,35.2214622498,0.0,6000.0,-0.010183933191,0.00439770054072,-0.010183933191,59.8205375671,0.349065840244,0.0289103612304,0.00365300779231,0.292751669884,0.0360354743898,0.0360354743898,0.00289403344505,-0.0376144349575,147.017089844,147.017089844,-0.263252019882,-2.0567381382,2026,2018,2567,2039,2039,2889,3395,3394,3203,3327,3041,3018,3122,3113,3205,2814,3379,3384,3212,3331,3089,3319,3349,3150
1508405304492338068,95,1508405304492068045,plot_matl,0.25,-500.0,0.0292874742299,-0.00749405147508,-0.220712527633,-112.179321289,0.349065840244,0.0445328839123,-0.0101678520441,0.0293105524033,-0.00794811174273,-0.00794811174273,0.0040791076608,-0.00796049740165,-1.09146618843,-1.09146618843,-1.14349329472,95.1865539551,2019,2025,2131,2021,2021,2596,3278,3305,3102,3261,2967,2943,3020,3069,3141,2968,3380,3372,3222,3269,2928,3255,3284,3001,0.010000441,0.950058766,0.950041895,0.401425719261,4500.0,0.393598735332,-0.0165511108935,-0.00782699231058,35.2214622498,0.0,6000.0,-0.0101560819894,0.00384009233676,-0.0101560819894,59.774269104,0.349065840244,0.0240919683129,0.0036659585312,0.292695790529,-0.0116593400016,-0.0116593400016,0.00263747037388,-0.0364419557154,146.997421265,146.997421265,-0.224178686738,-1.48467981815,2025,2021,2567,2039,2039,2891,3396,3393,3203,3326,3041,3019,3124,3114,3203,2814,3379,3384,3212,3331,3089,3319,3349,3150
1508405304502355438,96,1508405304502042967,plot_matl,0.25,-500.0,0.0293329618871,0.0124502405524,-0.220667034388,-107.344146729,0.349065840244,0.0445328839123,-0.01014275942,0.0293166823685,-0.00867160409689,-0.00867160409689,0.00359116867185,-0.00806755106896,-1.0748411417,-1.0748411417,-1.29917263985,95.180267334,2022,2052,2131,2021,2021,2596,3278,3305,3102,3261,2967,2943,3020,3069,3141,2969,3382,3373,3223,3269,2927,3255,3282,3002,0.009974331,0.960033383,0.957535776,0.401425719261,4500.0,0.394948214293,0.00985349807888,-0.00647751055658,29.1487979889,0.0,6000.0,-0.0101454174146,0.00363296200521,-0.0101454174146,59.7909317017,0.349065840244,0.0240919683129,0.00366139691323,0.292650282383,-0.0104494523257,-0.0104494523257,0.00270475749858,0.0262873414904,147.105728149,147.105728149,-0.0607931911945,-1.56045734882,2030,2033,2567,2039,2039,2891,3396,3393,3203,3326,3041,3019,3124,3114,3203,2815,3378,3385,3213,3331,3091,3320,3351,3150
1508405304512251751,97,1508405304512025057,plot_matl,0.25,-500.0,0.0293141417205,-0.00802507717162,-0.220685854554,-112.194114685,0.349065840244,0.0445328839123,-0.0101220747456,0.029317015782,-0.00782357528806,-0.00782357528806,0.00315771508031,-0.00809506792575,-1.01003968716,-1.01003968716,-1.13452208042,95.2618179321,2043,2080,2131,2022,2022,2596,3279,3308,3104,3262,2967,2940,3019,3069,3141,2969,3382,3373,3223,3269,2927,3255,3282,3002,0.009980476,0.970014914,0.968106172,0.401425719261,4500.0,0.393598735332,-0.0152609553188,-0.00782699231058,35.2214622498,0.0,6000.0,-0.0101390406489,0.00349173368886,-0.0101390406489,59.8324890137,0.349065840244,0.0240919683129,0.00364394695498,0.292769879103,-0.0110934209079,-0.0110934209079,0.00306013552472,-0.0379631631076,146.900634766,146.900634766,-0.107974216342,-1.13485014439,2022,2023,2567,2041,2041,2890,3396,3393,3203,3326,3041,3019,3122,3114,3203,2815,3378,3385,3213,3331,3091,3320,3351,3150
1508405304522398777,98,1508405304522066315,plot_matl,0.25,-500.0,0.0292632840574,0.0138634508476,-0.220736712217,-107.041107178,0.349065840244,0.0458823665977,-0.0101651828736,0.0292629562318,0.0064733158797,0.0064733158797,-0.00939841009676,-0.00699255382642,-1.17426979542,-1.17426979542,-1.15048837662,95.219078064,2026,2058,2131,2022,2022,2596,3279,3308,3104,3262,2967,2940,3019,3069,3141,2967,3383,3374,3224,3271,2928,3256,3283,3002,0.010041367,0.98005669,0.984053966,0.401425719261,4500.0,0.394948214293,0.0132401073352,-0.00647751055658,29.1487979889,0.0,6000.0,-0.0101662408561,0.00404471391812,-0.0101662408561,59.7896537781,0.349065840244,0.0240919683129,0.00363144907169,0.292537271976,-0.0117579260841,-0.0117579260841,0.00332282250747,-0.0332880690694,146.663299561,146.663299561,-0.193424090743,-1.21348810196,2025,2027,2567,2041,2041,2890,3396,3393,3203,3326,3041,3019,3122,3112,3206,2815,3377,3385,3214,3331,3090,3320,3351,3150
1508405304532534168,99,1508405304532039872,plot_matl,0.25,-500.0,0.0292390659451,-0.00650701019913,-0.220760941505,-111.928993225,0.349065840244,0.0458823665977,-0.0101531827822,0.0292377024889,0.0060194125399,0.0060194125399,-0.00964259169996,-0.006485207472,-1.12928628922,-1.12928628922,-1.26808905602,95.1001968384,2023,2059,2130,2023,2023,2598,3279,3308,3105,3259,2968,2940,3019,3069,3141,2967,3383,3374,3224,3271,2928,3256,3283,3001,0.009973737,0.990030092,0.987399963,0.401425719261,4500.0,0.393598735332,-0.0148634258658,-0.00782699231058,35.2214622498,0.0,6000.0,-0.0101551637053,-0.00959601160139,-0.0101551637053,63.7908287048,0.349065840244,0.0265011657029,0.00363427586854,0.292521864176,0.0128899030387,0.0128899030387,-0.0120686814189,-0.0329667553306,146.759384155,146.759384155,-0.382662534714,-1.53446888924,2025,2027,2566,2040,2040,2890,3397,3393,3205,3325,3042,3019,3122,3112,3206,2815,3377,3385,3214,3331,3090,3320,3351,3150
1508405304542492461,100,1508405304542040377,plot_matl,0.25,-500.0,0.0292520485818,-0.0068033398129,-0.220747947693,-111.991523743,0.349065840244,0.0458823665977,-0.0101430881768,0.0292524751276,0.00615212647244,0.00615212647244,0.00356523389928,-0.00679862918332,-1.1231200695,-1.1231200695,-1.48253631592,94.9402313232,2023,2059,2130,2023,2023,2598,3279,3308,3105,3259,2968,2940,3019,3069,3141,2967,3383,3374,3224,3271,2928,3256,3283,3001,0.009999493,1.000030597,0.9999493,0.401425719261,4500.0,0.393598735332,-0.0148634258658,-0.00782699231058,35.2214622498,0.0,6000.0,-0.0101594366133,-0.00953569449484,-0.0101594366133,63.802520752,0.349065840244,0.0240919683129,0.00363716413267,0.292448967695,-0.0133793046698,-0.0133793046698,0.00323977414519,0.0304393135011,146.871200562,146.871200562,-0.307362407446,-1.32964289188,2025,2027,2566,2040,2040,2890,3397,3393,3205,3325,3042,3019,3122,3112,3206,2815,3377,3385,3214,3331,3090,3320,3351,3150
1508405304552414527,101,1508405304552044520,plot_matl,0.25,-500.0,0.029264383018,-0.00705440575257,-0.220735624433,-112.058647156,0.349065840244,0.0458823665977,-0.0101833650842,0.0292652081698,0.00605594646186,0.00605594646186,-0.00905163958669,-0.00707004172727,-1.01914680004,-1.01914680004,-1.57609200478,94.6954727173,2004,2054,2131,2023,2023,2598,3279,3309,3103,3259,2968,2943,3017,3068,3143,2966,3382,3371,3220,3268,2928,3255,3284,3002,0.01000481,1.010035231,1.01048581,0.401425719261,4500.0,0.393598735332,-0.0142654851079,-0.00782699231058,35.2214622498,0.0,6000.0,-0.0101832905784,0.00437043467537,-0.0101832905784,59.7848167419,0.349065840244,0.0265011657029,0.00366621813737,0.292447030544,0.0102933542803,0.0102933542803,0.0026540341787,0.030470771715,146.936447144,146.936447144,-0.322056859732,-1.1417735815,2022,2034,2567,2039,2039,2890,3396,3394,3203,3325,3042,3019,3124,3115,3206,2812,3378,3383,3211,3331,3091,3321,3350,3151
1508405304562436353,102,1508405304562034767,plot_matl,0.25,-500.0,0.0292949862778,-0.00767413293943,-0.220705017447,-112.228843689,0.349065840244,0.0445328839123,-0.0101931886747,0.0292764678597,-0.00696001388133,-0.00696001388133,-0.00885283388197,-0.00729645928368,-0.900425255299,-0.900425255299,-1.64797174931,94.7537231445,2001,2049,2131,2023,2023,2598,3279,3309,3103,3263,2967,2943,3019,3068,3143,2967,3382,3374,3223,3268,2928,3255,3284,3002,0.009989525,1.020025037,1.01893155,0.401425719261,4500.0,0.393598735332,-0.013104445301,-0.00782699231058,35.2214622498,0.0,6000.0,-0.0101925348863,0.00455687241629,-0.0101925348863,59.7567596436,0.349065840244,0.0265011657029,0.00364776188508,0.292381554842,0.0106135671958,0.0106135671958,0.00302626099437,-0.0300883520395,147.111190796,147.111190796,-0.340652793646,-1.08704411983,2024,2031,2567,2039,2039,2890,3396,3394,3203,3324,3039,3019,3122,3113,3204,2813,3379,3382,3214,3331,3091,3321,3350,3151
1508405304572407972,103,1508405304572032024,plot_matl,0.25,-500.0,0.0293594151735,0.0118779763579,-0.220640584826,-107.450935364,0.349065840244,0.0458823665977,-0.0101884184405,0.029322931543,0.00716256257147,0.00716256257147,-0.00895725842565,-0.00823536049575,-0.774774074554,-0.774774074554,-1.65918326378,94.6108551025,2003,2050,2131,2022,2022,2597,3279,3309,3103,3263,2967,2943,3019,3068,3143,2967,3382,3374,3223,3269,2925,3254,3284,3001,0.009995253,1.030021603,1.029511059,0.401425719261,4500.0,0.393598735332,-0.0127122178674,-0.00782699231058,35.2214622498,0.0,6000.0,-0.0101755233482,0.00419674627483,-0.0101755233482,59.7854309082,0.349065840244,0.0240919683129,0.00363379623741,0.292386978865,-0.0134641965851,-0.0134641965851,0.00329957855865,-0.0301543008536,147.184494019,147.184494019,-0.201839312911,-1.4512578249,2020,2027,2567,2041,2041,2889,3396,3394,3203,3324,3039,3019,3122,3113,3204,2813,3379,3382,3214,3330,3092,3319,3349,3150
1508405304582426189,104,1508405304582082603,plot_matl,0.25,-500.0,0.0293916482478,0.0112495161593,-0.220608353615,-107.752990723,0.349065840244,0.0458823665977,-0.0102104330435,0.0293777752668,0.00731317652389,0.00731317652389,-0.00851890072227,0.0115110557526,-0.781111359596,-0.781111359596,-1.64706909657,94.5316238403,1980,2029,2131,2022,2022,2597,3279,3307,3106,3260,2966,2943,3017,3069,3142,2965,3382,3374,3223,3269,2925,3254,3284,3001,0.010051201,1.040072618,1.045324904,0.401425719261,4500.0,0.394948214293,0.0137825906277,-0.00647751055658,29.1487979889,0.0,6000.0,-0.0102100027725,0.00487821921706,-0.0102100027725,59.8706207275,0.349065840244,0.0240919683129,0.003621611977,0.292550593615,-0.0132104996592,-0.0132104996592,-0.0117822447792,0.0283133983612,147.042327881,147.042327881,-0.165248125792,-1.51726257801,2020,2031,2567,2041,2041,2889,3396,3393,3205,3325,3039,3019,3123,3115,3205,2813,3379,3382,3214,3330,3092,3319,3349,3150
1508405304592348600,105,1508405304592039780,plot_matl,0.25,-500.0,0.0293269436806,0.0125734983012,-0.220673054457,-107.077217102,0.349065840244,0.0445328839123,-0.0102403815836,0.0293292105198,-0.0068564186804,-0.0068564186804,0.00547651061788,-0.00835236720741,-0.831874608994,-0.831874608994,-1.59116625786,94.8019485474,1997,2028,2132,2023,2023,2597,3279,3307,3106,3260,2966,2943,3017,3069,3142,2965,3382,3372,3222,3269,2928,3257,3284,3001,0.009957672,1.050030331,1.04555556,0.401425719261,4500.0,0.393598735332,-0.0139599377289,-0.00782699231058,35.2214622498,0.0,6000.0,-0.0102242650464,0.00515367276967,-0.0102242650464,59.6617050171,0.349065840244,0.0240919683129,0.00363965868019,0.292585045099,-0.0138514079154,-0.0138514079154,0.00320191006176,0.027743132785,147.120101929,147.120101929,-0.210798323154,-1.0306854248,2026,2022,2566,2040,2040,2889,3396,3393,3205,3325,3039,3019,3123,3115,3205,2813,3379,3383,3214,3331,3092,3320,3353,3149
1508405304602557332,106,1508405304602098988,plot_matl,0.25,-500.0,0.0293280798942,-0.00832494534552,-0.220671921968,-112.503860474,0.349065840244,0.0445328839123,-0.0102157071233,0.0293325167149,-0.00683644413948,-0.00683644413948,0.00500106811523,-0.00839527137578,-0.873156487942,-0.873156487942,-1.51884377003,94.5894317627,2002,2028,2132,2023,2023,2596,3279,3309,3104,3262,2968,2943,3019,3068,3141,2965,3382,3372,3222,3269,2928,3257,3284,3001,0.010059745,1.060089399,1.06633297,0.401425719261,4500.0,0.394948214293,0.0132756438106,-0.00647751055658,29.1487979889,0.0,6000.0,-0.0102011673152,0.00470870360732,-0.0102011673152,59.6643638611,0.349065840244,0.0240919683129,0.00364222121425,0.292607933283,-0.012635556981,-0.012635556981,0.00313214538619,-0.0345250964165,147.059158325,147.059158325,-0.317809462547,-1.13139033318,2024,2022,2566,2040,2040,2889,3396,3393,3203,3326,3040,3018,3122,3113,3206,2813,3379,3383,3214,3331,3092,3320,3353,3149
1508405304612419203,107,1508405304612038796,plot_matl,0.25,-500.0,0.0293112322688,-0.00798175949603,-0.220688760281,-112.20135498,0.349065840244,0.0458823665977,-0.0102085527033,0.0293143112212,0.00627017952502,0.00627017952502,0.00485859345645,0.0128172235563,-0.604722380638,-0.604722380638,-1.61687231064,94.9125976562,1991,2026,2133,2023,2023,2596,3279,3309,3104,3262,2968,2943,3019,3068,3141,2967,3383,3372,3222,3269,2929,3254,3282,3003,0.009937818,1.07002896,1.063346526,0.401425719261,4500.0,0.394948214293,0.0128580089658,-0.00647751055658,29.1487979889,0.0,6000.0,-0.010207278654,-0.00858518015593,-0.010207278654,63.7392349243,0.349065840244,0.0265011657029,0.00361499469727,0.292460680008,0.0112934596837,0.0112934596837,-0.0116625865921,-0.0316493697464,147.093460083,147.093460083,-0.25827395916,-0.545850515366,2025,2029,2567,2040,2040,2889,3396,3393,3203,3326,3040,3018,3122,3113,3206,2815,3378,3385,3213,3331,3092,3318,3350,3149
1508405304622561645,108,1508405304622057908,plot_matl,0.25,-500.0,0.0292764473706,-0.00729172956198,-0.220723554492,-112.102470398,0.349065840244,0.0458823665977,-0.0102258455008,0.0292773619294,0.00635072821751,0.00635072821751,0.0052026193589,-0.00731083191931,-0.52120500803,-0.52120500803,-1.80131733418,95.0073852539,2001,2037,2133,2022,2022,2599,3277,3307,3105,3262,2967,2942,3019,3068,3141,2967,3383,3372,3222,3269,2929,3254,3282,3003,0.010020941,1.0800492,1.082261628,0.401425719261,4500.0,0.394948214293,0.0124805727974,-0.00647751055658,29.1487979889,0.0,6000.0,-0.0102240191773,-0.00825555622578,-0.0102240191773,63.8083534241,0.349065840244,0.0240919683129,0.00357631593943,0.292674213648,-0.014160649851,-0.014160649851,-0.0109049500898,0.0257722008973,146.995315552,146.995315552,-0.14404848218,-0.264646232128,2027,2024,2567,2039,2039,2890,3395,3391,3205,3325,3040,3018,3122,3113,3206,2815,3378,3385,3213,3331,3092,3318,3350,3149
1508405304632422393,109,1508405304632040487,plot_matl,0.25,-500.0,0.0292280968279,-0.00632679881528,-0.22077190876,-111.996383667,0.349065840244,0.0445328839123,-0.0102533651516,0.029247790575,-0.00769328558818,-0.00769328558818,-0.0076630753465,-0.00672690803185,-0.537124693394,-0.537124693394,-1.6611366272,95.1820373535,2025,2060,2133,2022,2022,2599,3277,3307,3105,3262,2967,2942,3019,3069,3141,2967,3380,3373,3223,3268,2927,3253,3285,3003,0.009981643,1.090031143,1.087999087,0.401425719261,4500.0,0.394948214293,0.0117075722665,-0.00647751055658,29.1487979889,0.0,6000.0,-0.0102481786162,0.00568618113175,-0.0102481786162,59.6712799072,0.349065840244,0.0240919683129,0.00357523025014,0.292692661285,-0.0137695576996,-0.0137695576996,0.00447159586474,0.0254273600876,146.971710205,146.971710205,-0.210267171264,-0.559508144855,2020,2025,2567,2039,2039,2890,3395,3391,3205,3325,3040,3018,3122,3113,3204,2813,3377,3383,3212,3330,3091,3319,3350,3149
1508405304642396217,110,1508405304642047532,plot_matl,0.25,-500.0,0.0292062219232,-0.00590764963999,-0.220793783665,-111.839035034,0.349065840244,0.0445328839123,-0.0102495094761,0.0292242914438,-0.0069880974479,-0.0069880974479,-0.00771359773353,-0.00627634208649,-0.398494333029,-0.398494333029,-1.66744089127,95.1187591553,2025,2060,2133,2022,2022,2599,3277,3307,3105,3262,2967,2942,3019,3069,3141,2967,3380,3373,3223,3268,2927,3253,3285,3003,0.010004008,1.100037085,1.10044088,0.401425719261,4500.0,0.394948214293,0.0117075722665,-0.00647751055658,29.1487979889,0.0,6000.0,-0.0102452030405,0.00562584772706,-0.0102452030405,59.7389068604,0.349065840244,0.0240919683129,0.00358666037209,0.29264613986,-0.012660481967,-0.012660481967,0.00423076376319,0.0263848360628,146.935592651,146.935592651,-0.113765023649,-0.71517765522,2020,2025,2567,2039,2039,2890,3395,3391,3205,3325,3040,3018,3122,3113,3204,2813,3377,3383,3212,3330,3091,3319,3350,3149
1508405304652494860,111,1508405304652104671,plot_matl,0.25,-500.0,0.0292473398149,0.0141336629167,-0.22075265646,-106.944717407,0.349065840244,0.0458823665977,-0.0102478312328,0.0292249452323,0.00594328157604,0.00594328157604,-0.0077443132177,-0.00628485484049,-0.438061565161,-0.438061565161,-1.6523257494,95.1399841309,2041,2088,2132,2021,2021,2601,3279,3309,3107,3262,2968,2944,3021,3067,3143,2965,3382,3373,3221,3266,2927,3253,3285,3002,0.010059612,1.110094936,1.116616932,0.401425719261,4500.0,0.393598735332,-0.0149971619248,-0.00782699231058,35.2214622498,0.0,6000.0,-0.0102314660326,0.00534849241376,-0.0102314660326,59.7729072571,0.349065840244,0.0240919683129,0.00359701947309,0.292614728212,-0.0116895409301,-0.0116895409301,0.00403973273933,0.027007414028,146.982055664,146.982055664,-0.11079441011,-0.843008160591,2025,2029,2567,2041,2041,2890,3395,3395,3204,3325,3040,3018,3124,3114,3206,2812,3378,3386,3213,3330,3089,3319,3350,3150
1508405304662454640,112,1508405304662038680,plot_matl,0.25,-500.0,0.0292827114463,0.013424038887,-0.220717296004,-107.116264343,0.349065840244,0.0458823665977,-0.0102337785065,0.0292418077588,0.00684193754569,0.00684193754569,0.00540101574734,-0.00661553256214,-0.502508223057,-0.502508223057,-1.47104561329,95.2093658447,2048,2077,2132,2022,2022,2603,3278,3310,3107,3262,2968,2944,3021,3067,3143,2965,3382,3373,3221,3266,2927,3255,3284,3002,0.00993206,1.120028714,1.11239072,0.401425719261,4500.0,0.394948214293,0.012892883271,-0.00647751055658,29.1487979889,0.0,6000.0,-0.0102310301736,0.00534095382318,-0.0102310301736,59.781047821,0.349065840244,0.0240919683129,0.00360748497769,0.292460799217,-0.0113231427968,-0.0113231427968,0.00382961845025,-0.0317549854517,146.910873413,146.910873413,-0.22211022675,-1.52760148048,2022,2020,2567,2042,2042,2890,3394,3393,3204,3325,3040,3018,3124,3114,3206,2812,3378,3386,3213,3330,3089,3319,3351,3151
1508405304672537585,113,1508405304672037902,plot_matl,0.25,-500.0,0.0293477606028,0.0121159479022,-0.220652237535,-107.24684906,0.349065840244,0.0458823665977,-0.0102334320545,0.0293311346322,0.00685197813436,0.00685197813436,0.00538202095777,0.0124570429325,-0.411475896835,-0.411475896835,-1.38141572475,95.2550430298,2038,2073,2132,2022,2022,2603,3278,3310,3107,3261,2967,2943,3019,3069,3142,2967,3381,3371,3221,3266,2927,3255,3284,3002,0.009999949,1.130028272,1.129994237,0.401425719261,4500.0,0.394948214293,0.0134325893596,-0.00647751055658,29.1487979889,0.0,6000.0,-0.0102443499491,-0.00783236883581,-0.0102443499491,63.9424629211,0.349065840244,0.0265011657029,0.00361271155998,0.292560309172,0.0120011894032,0.0120011894032,-0.0116208568215,0.0280756503344,146.820083618,146.820083618,-0.251389861107,-1.49351513386,2022,2027,2567,2042,2042,2890,3394,3393,3204,3325,3040,3018,3122,3113,3205,2813,3377,3383,3213,3330,3089,3319,3351,3151
1508405304682376924,114,1508405304682033797,plot_matl,0.25,-500.0,0.0293848533183,0.011376879178,-0.220615148544,-107.28213501,0.349065840244,0.0445328839123,-0.0102440202609,0.0293491370976,-0.00676553370431,-0.00676553370431,0.00558140408248,-0.00875773001462,-0.336873561144,-0.336873561144,-1.34060525894,95.017791748,2016,2061,2132,2022,2022,2601,3280,3310,3107,3261,2967,2943,3019,3069,3142,2967,3381,3371,3221,3266,2928,3254,3284,3002,0.009995428,1.140024377,1.139478792,0.401425719261,4500.0,0.393598735332,-0.0137907760218,-0.00782699231058,35.2214622498,0.0,6000.0,-0.0102404458448,0.00552343158051,-0.0102404458448,59.6109085083,0.349065840244,0.0240919683129,0.00363279762678,0.29252654314,-0.012277264148,-0.012277264148,0.00332595873624,-0.0330584682524,146.883651733,146.883651733,-0.415927618742,-1.00931715965,2022,2032,2567,2041,2041,2890,3397,3393,3204,3325,3040,3018,3122,3113,3205,2813,3377,3383,3213,3329,3093,3320,3349,3150
1508405304692356321,115,1508405304692040325,plot_matl,0.25,-500.0,0.0294175874442,0.0107340104878,-0.220582410693,-107.527641296,0.349065840244,0.0458823665977,-0.0102539416403,0.0293833985925,0.00684302020818,0.00684302020818,-0.00762440264225,0.0114239957184,-0.309956789017,-0.309956789017,-1.3613294363,94.9997024536,2024,2061,2132,2022,2022,2601,3280,3308,3106,3261,2967,2943,3019,3068,3144,2966,3381,3371,3221,3266,2928,3254,3284,3002,0.01000507,1.150030289,1.15058305,0.401425719261,4500.0,0.394948214293,0.0133884409443,-0.00647751055658,29.1487979889,0.0,6000.0,-0.0102366097271,0.00544935744256,-0.0102366097271,59.6683769226,0.349065840244,0.0240919683129,0.00364769157022,0.29238525033,-0.0118051040918,-0.0118051040918,-0.0123169831932,-0.0303108431399,146.908721924,146.908721924,-0.292246550322,-0.838224709034,2022,2025,2567,2041,2041,2890,3397,3394,3203,3326,3041,3018,3125,3111,3205,2813,3376,3383,3213,3329,3093,3320,3349,3150
1508405304702304824,116,1508405304702031459,plot_matl,0.25,-500.0,0.0294043924659,-0.00984371360391,-0.220595613122,-112.710540771,0.349065840244,0.0445328839123,-0.0102271111682,0.02939215675,-0.0070486930199,-0.0070486930199,0.00523803802207,-0.00959723070264,-0.09947912395,-0.09947912395,-1.51639783382,94.9081726074,2016,2053,2132,2023,2023,2601,3280,3308,3106,3261,2967,2943,3019,3068,3144,2966,3381,3373,3224,3267,2927,3255,3284,3002,0.009999708,1.160030355,1.159966128,0.401425719261,4500.0,0.394948214293,0.0134559283033,-0.00647751055658,29.1487979889,0.0,6000.0,-0.010225083679,-0.00822767149657,-0.010225083679,63.8634681702,0.349065840244,0.0240919683129,0.00364951929078,0.292333811522,-0.011369840242,-0.011369840242,0.00302883796394,-0.0291494149715,147.11769104,147.11769104,-0.323452055454,-0.818466246128,2034,2026,2567,2041,2041,2890,3397,3394,3203,3326,3041,3018,3125,3111,3205,2813,3376,3382,3213,3329,3093,3318,3352,3150
1508405304712468140,117,1508405304712041340,plot_matl,0.25,-500.0,0.0293902959675,-0.00955430045724,-0.22060970962,-112.566009521,0.349065840244,0.0445328839123,-0.0102281002328,0.02941997163,-0.00674861809239,-0.00674861809239,0.00525196501985,0.010710102506,-0.116995938122,-0.116995938122,-1.57000935078,95.0378036499,2003,2032,2132,2023,2023,2601,3279,3307,3107,3262,2967,2941,3019,3067,3143,2966,3381,3373,3224,3267,2927,3255,3284,3002,0.010002369,1.170032076,1.170277173,0.401425719261,4500.0,0.393598735332,-0.0132337631658,-0.00782699231058,35.2214622498,0.0,6000.0,-0.0102253574878,0.00520442891866,-0.0102253574878,59.8101501465,0.349065840244,0.0240919683129,0.00366198504344,0.292357355356,-0.0106518696994,-0.0106518696994,0.00276298797689,0.0322483815253,146.991271973,146.991271973,-0.260912179947,-0.608576893806,2025,2023,2567,2041,2041,2890,3396,3393,3204,3325,3040,3018,3122,3113,3204,2813,3376,3382,3213,3329,3093,3318,3352,3150
1508405304722353883,118,1508405304722060284,plot_matl,0.25,-500.0,0.0293576139957,-0.00889885332435,-0.220642387867,-112.458740234,0.349065840244,0.0458823665977,-0.0102166067809,0.029384849593,0.00711147114635,0.00711147114635,-0.00839341897517,-0.00944854598492,0.012946439907,0.012946439907,-1.68382620811,95.1062698364,2005,2035,2133,2023,2023,2601,3279,3307,3107,3262,2967,2941,3019,3067,3143,2968,3383,3374,3220,3269,2928,3256,3284,3001,0.010016642,1.180050058,1.181963756,0.401425719261,4500.0,0.393598735332,-0.0128026967868,-0.00782699231058,35.2214622498,0.0,6000.0,-0.0102146994323,0.004997164011,-0.0102146994323,59.7870368958,0.349065840244,0.0265011657029,0.00367184821516,0.292425066233,0.0124174030498,0.0124174030498,-0.0127807399258,-0.0309610869735,146.95362854,146.95362854,-0.230118781328,-0.602756977081,2029,2023,2568,2041,2041,2890,3396,3393,3204,3325,3040,3018,3122,3113,3204,2814,3379,3385,3213,3329,3090,3319,3351,3152
1508405304732378712,119,1508405304732030043,plot_matl,0.25,-500.0,0.0294252317399,0.0105715198442,-0.220574766397,-107.974143982,0.349065840244,0.0445328839123,-0.0102312676609,0.0294167529792,-0.00657406775281,-0.00657406775281,-0.00808859895915,0.0107805393636,0.0117054609582,0.0117054609582,-1.23867630959,95.1289672852,1998,2034,2133,2022,2022,2600,3278,3308,3104,3260,2967,2942,3019,3067,3143,2968,3383,3374,3220,3269,2928,3256,3284,3001,0.009970435,1.190019877,1.186481765,0.401425719261,4500.0,0.394948214293,0.0132913254201,-0.00647751055658,29.1487979889,0.0,6000.0,-0.0102302841842,0.00528280902654,-0.0102302841842,59.9293060303,0.349065840244,0.0240919683129,0.00365243665874,0.292317986488,-0.0124053582549,-0.0124053582549,-0.0123937390745,0.033059284091,146.959075928,146.959075928,-0.411708176136,-0.706589579582,2020,2025,2568,2043,2043,2890,3396,3393,3205,3326,3041,3019,3122,3113,3204,2814,3379,3385,3213,3329,3090,3319,3351,3152
1508405304742591446,120,1508405304742102247,plot_matl,0.25,-500.0,0.0294455122203,-0.0106885833666,-0.220554485917,-112.832893372,0.349065840244,0.0445328839123,-0.0102330520749,0.0294571369886,-0.00681136827916,-0.00681136827916,-0.00807981193066,0.00993315223604,0.00958343967795,0.00958343967795,-1.2102894783,95.1839904785,1998,2052,2133,2022,2022,2600,3278,3308,3104,3260,2967,2942,3019,3067,3143,2968,3380,3375,3222,3268,2927,3253,3283,3001,0.010072297,1.200092118,1.20867564,0.401425719261,4500.0,0.394948214293,0.0132913254201,-0.00647751055658,29.1487979889,0.0,6000.0,-0.0102302841842,0.00528280902654,-0.0102302841842,59.9293060303,0.349065840244,0.0265011657029,0.0036495779641,0.292499691248,0.0119252931327,0.0119252931327,0.00297446968034,0.0293088015169,147.004577637,147.004577637,-0.390422493219,-0.854256689548,2021,2026,2568,2043,2043,2890,3396,3393,3205,3326,3041,3019,3122,3114,3206,2813,3379,3384,3215,3332,3093,3319,3349,3152
1508405304752273537,121,1508405304752025236,plot_matl,0.25,-500.0,0.0294438451529,-0.0106326704845,-0.220556154847,-112.777061462,0.349065840244,0.047231849283,-0.0102558974177,0.0294543430209,0.0209302604198,0.0209302604198,0.00581369083375,0.0100031159818,0.159672126174,0.159672126174,-1.20371973515,95.1589050293,1998,2041,2133,2025,2025,2601,3279,3307,3105,3260,2968,2942,3019,3067,3143,2968,3380,3375,3222,3268,2927,3253,3283,3003,0.009921661,1.210015018,1.200520981,0.401425719261,4500.0,0.396297693253,0.0415575802326,-0.00512802926823,23.0761318207,0.0,6000.0,-0.0102523826063,0.00574108678848,-0.0102523826063,59.8230895996,0.349065840244,0.0240919683129,0.00366404722445,0.292435437441,-0.0127445878461,-0.0127445878461,0.00268905656412,0.0306071154773,146.919281006,146.919281006,-0.420739859343,-0.991316616535,2025,2029,2567,2039,2039,2890,3396,3394,3204,3326,3039,3019,3122,3114,3206,2813,3379,3384,3215,3332,3093,3319,3349,3150
1508405304762426874,122,1508405304762071989,plot_matl,0.25,-500.0,0.0294598769397,0.0098997047171,-0.220540121198,-107.892112732,0.349065840244,0.0445328839123,-0.0102533325553,0.029450846836,-0.00614792434499,-0.00614792434499,0.00575742824003,-0.0107808280736,0.166128635406,0.166128635406,-1.30934357643,95.1882019043,2021,2060,2133,2025,2025,2601,3279,3307,3105,3260,2968,2942,3019,3068,3142,2966,3383,3375,3220,3268,2928,3253,3283,3003,0.010048301,1.220062765,1.225892722,0.401425719261,4500.0,0.393598735332,-0.0115793477744,-0.00782699231058,35.2214622498,0.0,6000.0,-0.0102498270571,-0.00773512432352,-0.0102498270571,63.8160209656,0.349065840244,0.0240919683129,0.00368812610395,0.292540043592,-0.0130108678713,-0.0130108678713,0.00220518582501,-0.0333497077227,147.026519775,147.026519775,-0.330683022738,-1.16258478165,2028,2030,2567,2039,2039,2890,3396,3394,3204,3326,3039,3019,3123,3112,3204,2814,3378,3384,3214,3330,3091,3319,3349,3150
1508405304772246072,123,1508405304772023764,plot_matl,0.25,-500.0,0.0294565353543,0.00997128337622,-0.220543459058,-107.790054321,0.349065840244,0.0445328839123,-0.0102629018947,0.0294474735856,-0.00578529620543,-0.00578529620543,0.00594281265512,-0.0107053769752,0.142281204462,0.142281204462,-1.12608504295,95.0452957153,2040,2055,2132,2025,2025,2602,3278,3308,3106,3260,2968,2942,3019,3068,3142,2966,3383,3375,3220,3268,2928,3255,3282,3002,0.009950357,1.230013863,1.223893911,0.401425719261,4500.0,0.393598735332,-0.0108808809891,-0.00782699231058,35.2214622498,0.0,6000.0,-0.0102452626452,0.00558856735006,-0.0102452626452,59.720199585,0.349065840244,0.0240919683129,0.00370803615078,0.292347371578,-0.0129099600017,-0.0129099600017,0.0018050923245,-0.0913343280554,146.799545288,146.799545288,-0.29361987114,-1.07265913486,2027,2021,2567,2039,2039,2890,3396,3393,3203,3326,3039,3019,3123,3112,3204,2814,3378,3384,3214,3330,3091,3319,3351,3149
1508405304782317090,124,1508405304782031966,plot_matl,0.25,-500.0,0.0294905267656,0.00927925668657,-0.220509469509,-108.094772339,0.349065840244,0.0445328839123,-0.0102714691311,0.029463307932,-0.00523440353572,-0.00523440353572,-0.00729635031894,0.00982964131981,0.00299237156287,0.00299237156287,-1.24995553493,94.8193130493,2035,2049,2132,2025,2025,2602,3278,3308,3106,3261,2967,2942,3019,3067,3143,2967,3382,3373,3222,3268,2928,3255,3282,3002,0.010007019,1.240021647,1.240870356,0.401425719261,4500.0,0.394948214293,0.0158199816942,-0.00647751055658,29.1487979889,0.0,6000.0,-0.0102796964347,-0.00713202729821,-0.0102796964347,63.7476768494,0.349065840244,0.0265011657029,0.00370988273062,0.292347103357,0.011997051537,0.011997051537,0.00176115601789,-0.0296145491302,146.582626343,146.582626343,-0.368554353714,-1.73398089409,2027,2022,2567,2039,2039,2890,3396,3393,3203,3325,3041,3019,3122,3114,3203,2813,3377,3385,3214,3330,3091,3319,3351,3149
1508405304792366832,125,1508405304792031169,plot_matl,0.25,-500.0,0.0294819902629,0.00944594293833,-0.220518007874,-108.008659363,0.349065840244,0.0445328839123,-0.0102881640196,0.0294737666845,-0.00548438867554,-0.00548438867554,-0.0069496864453,-0.0112517774105,0.0758393630385,0.0758393630385,-1.19862782955,94.7828063965,2041,2064,2132,2022,2022,2599,3277,3308,3106,3261,2967,2942,3019,3067,3143,2967,3382,3373,3222,3270,2928,3255,3282,3003,0.010000491,1.250021774,1.250061375,0.401425719261,4500.0,0.394948214293,0.0153448525816,-0.00647751055658,29.1487979889,0.0,6000.0,-0.0102695683017,0.00609644595534,-0.0102695683017,59.7965545654,0.349065840244,0.0265011657029,0.00368609209545,0.292415887117,0.0107813961804,0.0107813961804,0.00226106797345,0.0308415126055,146.78855896,146.78855896,-0.219476863742,-1.83668375015,2028,2025,2568,2043,2043,2889,3395,3393,3203,3325,3041,3019,3122,3114,3203,2813,3377,3385,3214,3330,3090,3319,3353,3151
1508405304802252634,126,1508405304802027133,plot_matl,0.25,-500.0,0.0295113418251,0.00883078295738,-0.220488652587,-108.167503357,0.349065840244,0.0458823665977,-0.0102684348822,0.0294840652496,0.00691482750699,0.00691482750699,-0.00735153164715,-0.0114781502634,0.0280400291085,0.0280400291085,-1.17817151546,94.7050704956,2060,2097,2132,2022,2022,2599,3277,3307,3104,3263,2966,2942,3018,3067,3142,2966,3382,3373,3222,3270,2928,3255,3282,3003,0.009993829,1.260016897,1.259222454,0.401425719261,4500.0,0.393598735332,-0.0137083260342,-0.00782699231058,35.2214622498,0.0,6000.0,-0.0102636357769,-0.00744689255953,-0.0102636357769,63.7613639832,0.349065840244,0.0240919683129,0.00369397038594,0.292529374361,-0.0145300514996,-0.0145300514996,0.00210427958518,0.028530748561,146.821640015,146.821640015,-0.141277447343,-1.4856441021,2019,2025,2568,2043,2043,2889,3395,3393,3204,3326,3041,3018,3124,3113,3204,2814,3378,3385,3214,3330,3090,3319,3353,3151
1508405304812363914,127,1508405304812033707,plot_matl,0.25,-500.0,0.0294776130468,-0.011330361478,-0.220522388816,-113.074165344,0.349065840244,0.0445328839123,-0.0102463951334,0.02942423895,-0.00668954569846,-0.00668954569846,-0.00778530631214,-0.0102589838207,-0.188357323408,-0.188357323408,-0.995642960072,94.5182495117,2042,2077,2132,2021,2021,2599,3277,3307,3104,3263,2966,2942,3018,3067,3142,2966,3382,3373,3223,3267,2926,3255,3284,3003,0.010007779,1.270023952,1.270987933,0.401425719261,4500.0,0.394948214293,0.0135758938268,-0.00647751055658,29.1487979889,0.0,6000.0,-0.010259186849,0.00589155685157,-0.010259186849,59.7233695984,0.349065840244,0.0240919683129,0.00371641479433,0.292696982622,-0.0125997057185,-0.0125997057185,0.00164533825591,0.0252027474344,147.086517334,147.086517334,-0.370747059584,-2.13989710808,2026,2031,2567,2041,2041,2889,3395,3393,3204,3326,3041,3018,3124,3113,3204,2814,3378,3385,3213,3329,3091,3320,3351,3150
1508405304822479722,128,1508405304822041443,plot_matl,0.25,-500.0,0.0294140037149,-0.0100772995502,-0.220586001873,-112.475372314,0.349065840244,0.0458823665977,-0.0102674746886,0.0294249225408,0.00667314371094,0.00667314371094,0.00606728158891,-0.0103040644899,-0.226998925209,-0.226998925209,-1.0590120554,94.5718612671,2054,2079,2132,2021,2021,2600,3278,3308,3105,3262,2968,2943,3021,3070,3143,2966,3382,3373,3223,3267,2926,3255,3284,3003,0.010007105,1.280031733,1.28090944,0.401425719261,4500.0,0.393598735332,-0.0136796077713,-0.00782699231058,35.2214622498,0.0,6000.0,-0.0102421976626,-0.00786110199988,-0.0102421976626,63.5884094238,0.349065840244,0.0240919683129,0.0037311441265,0.292529225349,-0.0133313313127,-0.0133313313127,0.0013477896573,-0.033381588757,146.986862183,146.986862183,-0.173037916422,-2.22764205933,2030,2027,2567,2041,2041,2890,3396,3393,3203,3327,3041,3017,3123,3113,3203,2814,3378,3385,3213,3329,3091,3320,3351,3150
1508405304832506967,129,1508405304832053795,plot_matl,0.25,-500.0,0.0294357966632,-0.0105141671374,-0.220564201474,-112.704772949,0.349065840244,0.0458823665977,-0.0102674746886,0.0294249225408,0.00667314371094,0.00667314371094,0.00606728158891,-0.0103040644899,-0.226998925209,-0.226998925209,-1.0590120554,94.5718612671,2064,2090,2131,2021,2021,2600,3278,3308,3105,3262,2968,2943,3021,3070,3143,2967,3382,3373,3221,3267,2926,3255,3283,3001,0.010012322,1.290044286,1.291589538,0.401425719261,4500.0,0.393598735332,-0.0136339487508,-0.00782699231058,35.2214622498,0.0,6000.0,-0.0102886902168,-0.00692691234872,-0.0102886902168,63.7317276001,0.349065840244,0.0240919683129,0.0037311441265,0.292529225349,-0.0133313313127,-0.0133313313127,0.0013477896573,-0.033381588757,146.986862183,146.986862183,-0.173037916422,-2.22764205933,2021,2022,2568,2041,2041,2890,3396,3393,3203,3327,3041,3017,3123,3113,3203,2814,3377,3382,3214,3330,3091,3320,3350,3150
1508405304842446589,130,1508405304842038915,plot_matl,0.25,-500.0,0.0293967816979,-0.00968809705228,-0.220603212714,-112.704734802,0.349065840244,0.0458823665977,-0.0102729098871,0.0294270310551,0.00667383335531,0.00667383335531,0.00616217404604,0.010559393093,-0.110353149474,-0.110353149474,-0.90428686142,94.2846603394,2023,2055,2131,2021,2021,2596,3278,3307,3104,3259,2967,2944,3018,3070,3143,2967,3382,3373,3221,3267,2926,3255,3283,3001,0.00998514,1.300029541,1.2980682,0.401425719261,4500.0,0.393598735332,-0.0141564561054,-0.00782699231058,35.2214622498,0.0,6000.0,-0.0102941608056,-0.00682763615623,-0.0102941608056,63.8753814697,0.349065840244,0.0265011657029,0.00371509953402,0.292400717735,0.011185856536,0.011185856536,0.00166791339871,-0.0306752026081,146.86505127,146.86505127,-0.0716445595026,-2.24772119522,2025,2027,2568,2036,2036,2890,3396,3396,3205,3325,3040,3018,3122,3113,3203,2814,3377,3382,3214,3330,3091,3320,3350,3150
1508405304852355191,131,1508405304852060478,plot_matl,0.25,-500.0,0.0294014047831,-0.00978410430253,-0.220598593354,-112.646873474,0.349065840244,0.0458823665977,-0.0102885179222,0.0294098369777,0.00618693325669,0.00618693325669,0.00649050949141,-0.00995398499072,-0.163728237152,-0.163728237152,-0.888248860836,94.2695922852,2021,2060,2131,2021,2021,2596,3278,3307,3104,3259,2967,2944,3018,3069,3141,2968,3383,3373,3220,3267,2927,3254,3282,3001,0.010020726,1.310050768,1.312715106,0.401425719261,4500.0,0.394948214293,0.0127001386136,-0.00647751055658,29.1487979889,0.0,6000.0,-0.0102831078693,-0.00704146269709,-0.0102831078693,63.8075370789,0.349065840244,0.0240919683129,0.00368636427447,0.292459607124,-0.0124910045415,-0.0124910045415,-0.0130923530087,-0.0318789184093,146.856719971,146.856719971,-0.0549537464976,-2.65363430977,2031,2027,2568,2036,2036,2890,3396,3396,3205,3325,3040,3018,3122,3113,3207,2816,3377,3382,3212,3329,3088,3319,3350,3150
1508405304862220039,132,1508405304862018841,plot_matl,0.25,-500.0,0.0293906293809,0.0112924808636,-0.220609366894,-107.573425293,0.349065840244,0.0458823665977,-0.0102909673005,0.0293770059943,0.00654733041301,0.00654733041301,0.00654136249796,0.0115645024925,-0.173057943583,-0.173057943583,-0.555550158024,94.2278671265,2018,2075,2131,2023,2023,2597,3279,3308,3104,3261,2967,2944,3018,3069,3141,2968,3383,3373,3220,3267,2927,3254,3282,2999,0.009956852,1.320008497,1.314304464,0.401425719261,4500.0,0.393598735332,-0.0143912397325,-0.00782699231058,35.2214622498,0.0,6000.0,-0.0102848429233,0.006414801348,-0.0102848429233,59.7670593262,0.349065840244,0.0240919683129,0.00369204254821,0.292669296265,-0.0123930266127,-0.0123930266127,0.00213421462104,0.0257407575846,146.59513855,146.59513855,-0.0804423168302,-2.27110004425,2017,2029,2568,2039,2039,2890,3397,3395,3204,3325,3041,3018,3122,3113,3207,2816,3377,3382,3212,3329,3088,3319,3350,3149
1508405304872352970,133,1508405304872071759,plot_matl,0.25,-500.0,0.0293554645032,-0.0089007364586,-0.220644533634,-112.384872437,0.349065840244,0.0458823665977,-0.0102909673005,0.0293770059943,0.00654733041301,0.00654733041301,0.00654136249796,0.0115645024925,-0.173057943583,-0.173057943583,-0.555550158024,94.2278671265,2002,2038,2131,2023,2023,2597,3279,3308,3104,3261,2967,2943,3019,3067,3141,2968,3379,3373,3221,3267,2929,3254,3282,2999,0.01005471,1.330062568,1.33727643,0.401425719261,4500.0,0.393598735332,-0.0141157936305,-0.00782699231058,35.2214622498,0.0,6000.0,-0.010287056677,0.00646866718307,-0.010287056677,59.8415374756,0.349065840244,0.0240919683129,0.00369204254821,0.292669296265,-0.0123930266127,-0.0123930266127,0.00213421462104,0.0257407575846,146.59513855,146.59513855,-0.0804423168302,-2.27110004425,2026,2034,2568,2039,2039,2890,3397,3395,3204,3325,3041,3017,3122,3113,3206,2813,3377,3382,3214,3332,3090,3319,3350,3149
1508405304882404419,134,1508405304882033774,plot_matl,0.25,-500.0,0.0293868947774,0.0113234370947,-0.220613107085,-107.579368591,0.349065840244,0.0458823665977,-0.0102909673005,0.0293770059943,0.00654733041301,0.00654733041301,0.00654136249796,0.0115645024925,-0.173057943583,-0.173057943583,-0.555550158024,94.2278671265,2003,2039,2131,2023,2023,2597,3277,3307,3105,3261,2967,2943,3019,3067,3141,2968,3379,3373,3221,3267,2929,3255,3285,3000,0.009960564,1.340024034,1.334715576,0.401425719261,4500.0,0.393598735332,-0.0129636842757,-0.00782699231058,35.2214622498,0.0,6000.0,-0.0102771213278,0.00627541728318,-0.0102771213278,59.7832946777,0.349065840244,0.0240919683129,0.00369204254821,0.292669296265,-0.0123930266127,-0.0123930266127,0.00213421462104,0.0257407575846,146.59513855,146.59513855,-0.0804423168302,-2.27110004425,2030,2036,2567,2041,2041,2890,3397,3394,3205,3325,3041,3017,3122,3113,3206,2813,3377,3382,3214,3332,3090,3319,3351,3150
1508405304892453629,135,1508405304892046532,plot_matl,0.25,-500.0,0.0294309705496,0.0103937136009,-0.22056902945,-107.771003723,0.349065840244,0.0445328839123,-0.0102878483012,0.0294001102448,-0.00562264584005,-0.00562264584005,-0.00694191874936,-0.00982815492898,-0.284381896257,-0.284381896257,-0.24258364737,93.9141159058,2020,2048,2131,2023,2023,2597,3277,3307,3105,3262,2966,2943,3018,3067,3141,2966,3383,3375,3222,3267,2929,3255,3285,3000,0.010013149,1.350036992,1.351775115,0.401425719261,4500.0,0.394948214293,0.016107974574,-0.00647751055658,29.1487979889,0.0,6000.0,-0.0102811343968,0.0063452180475,-0.0102811343968,59.7830543518,0.349065840244,0.0265011657029,0.00373991089873,0.292494386435,0.0119272898883,0.0119272898883,0.00116879970301,0.0293333623558,146.547348022,146.547348022,-0.0994349569082,-2.08062934875,2024,2022,2567,2041,2041,2890,3397,3394,3205,3327,3039,3019,3121,3112,3205,2812,3378,3383,3211,3332,3090,3319,3351,3150
1508405304902271969,136,1508405304902031116,plot_matl,0.25,-500.0,0.0294511411339,0.00997663196176,-0.220548853278,-107.885467529,0.349065840244,0.0445328839123,-0.0102878483012,0.0294001102448,-0.00562264584005,-0.00562264584005,-0.00694191874936,-0.00982815492898,-0.284381896257,-0.284381896257,-0.24258364737,93.9141159058,2009,2035,2131,2020,2020,2599,3278,3307,3105,3262,2966,2943,3018,3067,3141,2966,3383,3375,3222,3267,2928,3256,3284,3002,0.00998289,1.36002085,1.35767304,0.401425719261,4500.0,0.394948214293,0.0157068427652,-0.00647751055658,29.1487979889,0.0,6000.0,-0.0103076677769,-0.00653551425785,-0.0103076677769,63.7863616943,0.349065840244,0.0265011657029,0.00373991089873,0.292494386435,0.0119272898883,0.0119272898883,0.00116879970301,0.0293333623558,146.547348022,146.547348022,-0.0994349569082,-2.08062934875,2028,2028,2567,2041,2041,2890,3397,3394,3205,3327,3039,3019,3121,3112,3205,2812,3378,3383,3211,3329,3091,3318,3349,3151
1508405304912434334,137,1508405304912083859,plot_matl,0.25,-500.0,0.029482094571,-0.0114863123745,-0.220517903566,-112.941894531,0.349065840244,0.0445328839123,-0.0102878483012,0.0294001102448,-0.00562264584005,-0.00562264584005,-0.00694191874936,-0.00982815492898,-0.284381896257,-0.284381896257,-0.24258364737,93.9141159058,1995,2038,2131,2020,2020,2599,3278,3308,3103,3262,2967,2941,3019,3066,3141,2969,3380,3375,3222,3267,2928,3256,3284,3002,0.010053786,1.37007422,1.377368682,0.401425719261,4500.0,0.393598735332,-0.0114213349298,-0.00782699231058,35.2214622498,0.0,6000.0,-0.0103188930079,-0.00631834752858,-0.0103188930079,63.7672920227,0.349065840244,0.0265011657029,0.00373991089873,0.292494386435,0.0119272898883,0.0119272898883,0.00116879970301,0.0293333623558,146.547348022,146.547348022,-0.0994349569082,-2.08062934875,2026,2030,2567,2041,2041,2890,3397,3393,3205,3325,3040,3018,3124,3113,3205,2814,3378,3383,3211,3329,3091,3318,3349,3151
1508405304922292194,138,1508405304922042269,plot_matl,0.25,-500.0,0.0294134225696,-0.0110375229269,-0.220586583018,-112.759979248,0.349065840244,0.0445328839123,-0.0102878483012,0.0294001102448,-0.00562264584005,-0.00562264584005,-0.00694191874936,-0.00982815492898,-0.284381896257,-0.284381896257,-0.24258364737,93.9141159058,1995,2038,2131,2020,2020,2599,3278,3308,3103,3262,2967,2941,3019,3066,3141,2969,3380,3375,3222,3267,2928,3256,3284,3002,0.009957919,1.38003278,1.374192822,0.401425719261,4500.0,0.393598735332,-0.0127198547125,-0.00782699231058,35.2214622498,0.0,6000.0,-0.010358969681,0.00790950004011,-0.010358969681,59.7205963135,0.349065840244,0.0265011657029,0.00373991089873,0.292494386435,0.0119272898883,0.0119272898883,0.00116879970301,0.0293333623558,146.547348022,146.547348022,-0.0994349569082,-2.08062934875,2026,2030,2567,2041,2041,2890,3397,3393,3205,3325,3040,3018,3124,3113,3205,2814,3378,3383,3211,3329,3091,3318,3349,3151
1508405304932352359,139,1508405304932030827,plot_matl,0.25,-500.0,0.0294134225696,-0.0110375229269,-0.220586583018,-112.759979248,0.349065840244,0.0445328839123,-0.0103560406715,0.0294346455485,-0.00637520244345,-0.00637520244345,0.00785934925079,0.00943152885884,-0.00829320587218,-0.00829320587218,-0.31782284379,93.4205093384,2020,2066,2131,2026,2026,2599,3278,3308,3103,3262,2967,2941,3019,3066,3141,2969,3380,3372,3220,3269,2942,3267,3295,3015,0.009987755,1.390020982,1.388297945,0.401425719261,4500.0,0.394948214293,0.0143455434591,-0.00647751055658,29.1487979889,0.0,6000.0,-0.010358969681,0.00790950004011,-0.010358969681,59.7205963135,0.349065840244,0.0240919683129,0.00369968032464,0.292419224977,-0.0109662702307,-0.0109662702307,0.00193957262672,-0.0334717184305,146.78062439,146.78062439,-0.0437503308058,-1.75533854961,2025,2033,2568,2042,2042,2890,3397,3393,3205,3325,3040,3018,3124,3113,3205,2814,3378,3383,3212,3331,3105,3331,3362,3162
1508405304942367986,140,1508405304942075202,plot_matl,0.25,-500.0,0.0293965693563,-0.0104966592044,-0.220603436232,-112.734054565,0.349065840244,0.0445328839123,-0.0103560406715,0.0294346455485,-0.00637520244345,-0.00637520244345,0.00785934925079,0.00943152885884,-0.00829320587218,-0.00829320587218,-0.31782284379,93.4205093384,2007,2052,2131,2026,2026,2602,3283,3311,3110,3265,2970,2946,3022,3071,3147,2969,3380,3372,3220,3269,2942,3267,3295,3015,0.010044495,1.400065637,1.4062293,0.401425719261,4500.0,0.394948214293,0.0143455434591,-0.00647751055658,29.1487979889,0.0,6000.0,-0.0103235160932,0.00720223085955,-0.0103235160932,59.6821250916,0.349065840244,0.0240919683129,0.00369968032464,0.292419224977,-0.0109662702307,-0.0109662702307,0.00193957262672,-0.0334717184305,146.78062439,146.78062439,-0.0437503308058,-1.75533854961,2025,2026,2568,2042,2042,2895,3400,3401,3208,3331,3043,3021,3127,3118,3208,2814,3378,3383,3212,3331,3105,3331,3362,3162
1508405304952442708,141,1508405304952037415,plot_matl,0.25,-500.0,0.0293965693563,-0.0104966592044,-0.220603436232,-112.734054565,0.349065840244,0.0445328839123,-0.0103560406715,0.0294346455485,-0.00637520244345,-0.00637520244345,0.00785934925079,0.00943152885884,-0.00829320587218,-0.00829320587218,-0.31782284379,93.4205093384,2010,2053,2132,2026,2026,2602,3283,3311,3110,3265,2970,2946,3022,3071,3147,2969,3395,3385,3234,3278,2935,3264,3291,3008,0.009962118,1.41002785,1.404658638,0.401425719261,4500.0,0.394948214293,0.0143455434591,-0.00647751055658,29.1487979889,0.0,6000.0,-0.0103235160932,0.00720223085955,-0.0103235160932,59.6821250916,0.349065840244,0.0240919683129,0.00369968032464,0.292419224977,-0.0109662702307,-0.0109662702307,0.00193957262672,-0.0334717184305,146.78062439,146.78062439,-0.0437503308058,-1.75533854961,2022,2029,2568,2042,2042,2895,3400,3401,3208,3331,3043,3021,3127,3118,3208,2815,3391,3395,3223,3338,3098,3326,3358,3157
1508405304962239439,142,1508405304962017254,plot_matl,0.25,-500.0,0.0295011475682,-0.012308800593,-0.220498859882,-113.080085754,0.349065840244,0.0445328839123,-0.0103560406715,0.0294346455485,-0.00637520244345,-0.00637520244345,0.00785934925079,0.00943152885884,-0.00829320587218,-0.00829320587218,-0.31782284379,93.4205093384,2017,2056,2132,2025,2025,2601,3282,3310,3107,3265,2969,2946,3021,3071,3147,2969,3395,3385,3234,3278,2935,3264,3291,3008,0.009977289,1.420006752,1.416775038,0.401425719261,4500.0,0.393598735332,-0.00946714729071,-0.00782699231058,35.2214622498,0.0,6000.0,-0.010250355117,0.00565652409568,-0.010250355117,59.7865524292,0.349065840244,0.0240919683129,0.00369968032464,0.292419224977,-0.0109662702307,-0.0109662702307,0.00193957262672,-0.0334717184305,146.78062439,146.78062439,-0.0437503308058,-1.75533854961,2027,2026,2568,2040,2040,2894,3398,3398,3207,3330,3044,3021,3126,3118,3208,2815,3391,3395,3223,3338,3098,3326,3358,3157
1508405304972524913,143,1508405304972055604,plot_matl,0.25,-500.0,0.0295095164329,0.00846873503178,-0.22049048543,-108.125366211,0.349065840244,0.0445328839123,-0.0102702472359,0.0294912792742,-0.00503441225737,-0.00503441225737,-0.00736087188125,-0.0120506547391,0.223026543856,0.223026543856,-0.0109685929492,93.6389160156,1999,2048,2132,2025,2025,2601,3282,3310,3107,3265,2969,2946,3021,3072,3146,2971,3384,3373,3223,3270,2930,3258,3283,3008,0.010039889,1.430045899,1.435704127,0.401425719261,4500.0,0.394948214293,0.0170551221818,-0.00647751055658,29.1487979889,0.0,6000.0,-0.0102715473622,0.00609023636207,-0.0102715473622,59.7947425842,0.349065840244,0.0240919683129,0.00366923119873,0.292509824038,-0.00922459922731,-0.00922459922731,0.00255046715029,-0.0341133996844,146.64642334,146.64642334,-0.483790278435,-1.55763995647,2019,2030,2568,2040,2040,2894,3398,3398,3207,3330,3044,3021,3126,3115,3208,2815,3380,3387,3214,3331,3092,3323,3350,3157
1508405304982384629,144,1508405304982033057,plot_matl,0.25,-500.0,0.0294769704342,-0.0116784479469,-0.220523029566,-112.791397095,0.349065840244,0.0445328839123,-0.0102702472359,0.0294912792742,-0.00503441225737,-0.00503441225737,-0.00736087188125,-0.0120506547391,0.223026543856,0.223026543856,-0.0109685929492,93.6389160156,2004,2055,2132,2023,2023,2599,3280,3309,3106,3263,2966,2946,3021,3072,3146,2971,3384,3373,3223,3270,2930,3258,3283,3001,0.009976205,1.4400229,1.43657352,0.401425719261,4500.0,0.393598735332,-0.0107443090528,-0.00782699231058,35.2214622498,0.0,6000.0,-0.0102748228237,0.00617474131286,-0.0102748228237,59.9113883972,0.349065840244,0.0240919683129,0.00366923119873,0.292509824038,-0.00922459922731,-0.00922459922731,0.00255046715029,-0.0341133996844,146.64642334,146.64642334,-0.483790278435,-1.55763995647,2017,2028,2567,2041,2041,2891,3397,3393,3205,3327,3042,3021,3126,3115,3208,2815,3380,3387,3214,3331,3092,3323,3350,3151
1508405304992377827,145,1508405304992040753,plot_matl,0.25,-500.0,0.0294711422175,0.0094058252871,-0.22052885592,-108.095237732,0.349065840244,0.0445328839123,-0.0102702472359,0.0294912792742,-0.00503441225737,-0.00503441225737,-0.00736087188125,-0.0120506547391,0.223026543856,0.223026543856,-0.0109685929492,93.6389160156,2013,2056,2132,2023,2023,2599,3280,3309,3106,3263,2966,2945,3019,3070,3143,2967,3383,3373,3222,3271,2927,3258,3283,3001,0.010018886,1.450042133,1.45273847,0.401425719261,4500.0,0.393598735332,-0.0102482354268,-0.00782699231058,35.2214622498,0.0,6000.0,-0.0102784261107,-0.00714787887409,-0.0102784261107,63.6718635559,0.349065840244,0.0240919683129,0.00366923119873,0.292509824038,-0.00922459922731,-0.00922459922731,0.00255046715029,-0.0341133996844,146.64642334,146.64642334,-0.483790278435,-1.55763995647,2023,2029,2567,2041,2041,2891,3397,3393,3205,3327,3042,3019,3124,3115,3205,2815,3379,3385,3215,3330,3090,3323,3350,3151
1508405305002555230,146,1508405305002101263,plot_matl,0.25,-500.0,0.0294627062976,0.0095929261297,-0.220537289977,-108.0470047,0.349065840244,0.0445328839123,-0.0102702472359,0.0294912792742,-0.00503441225737,-0.00503441225737,-0.00736087188125,-0.0120506547391,0.223026543856,0.223026543856,-0.0109685929492,93.6389160156,2016,2057,2131,2021,2021,2600,3278,3310,3106,3263,2966,2945,3019,3070,3143,2967,3383,3373,3222,3271,2927,3257,3284,3001,0.010049568,1.460091167,1.467236928,0.401425719261,4500.0,0.393598735332,-0.0103837829083,-0.00782699231058,35.2214622498,0.0,6000.0,-0.0102685019374,0.00608682027087,-0.0102685019374,59.8906784058,0.349065840244,0.0240919683129,0.00366923119873,0.292509824038,-0.00922459922731,-0.00922459922731,0.00255046715029,-0.0341133996844,146.64642334,146.64642334,-0.483790278435,-1.55763995647,2025,2028,2567,2039,2039,2890,3397,3394,3203,3327,3042,3019,3124,3115,3205,2815,3379,3385,3215,3330,3090,3321,3352,3150
1508405305012713381,147,1508405305012107868,plot_matl,0.25,-500.0,0.0294774100184,-0.011517140083,-0.220522582531,-112.949501038,0.349065840244,0.0445328839123,-0.0102626988664,0.0294788796455,-0.00490990281105,-0.00490990281105,-0.00746318977326,0.00930566526949,0.136456951499,0.136456951499,-0.0873798653483,93.4616241455,2024,2051,2131,2021,2021,2600,3278,3310,3106,3260,2965,2943,3019,3068,3143,2968,3382,3373,3222,3271,2927,3257,3284,3001,0.010007334,1.470098108,1.471078098,0.401425719261,4500.0,0.393598735332,-0.00942836143076,-0.00782699231058,35.2214622498,0.0,6000.0,-0.0102773979306,-0.00716568669304,-0.0102773979306,63.7861442566,0.349065840244,0.0265011657029,0.003613849869,0.292559891939,0.0133501356468,0.0133501356468,-0.0116603868082,0.0274521764368,146.242034912,146.242034912,-0.305602788925,-1.90546953678,2025,2027,2567,2039,2039,2890,3397,3394,3203,3325,3043,3018,3122,3112,3205,2815,3378,3386,3215,3330,3090,3321,3352,3150
1508405305022544291,148,1508405305022064373,plot_matl,0.25,-500.0,0.0294871795923,0.00916991382837,-0.22051282227,-107.933876038,0.349065840244,0.0445328839123,-0.0102626988664,0.0294788796455,-0.00490990281105,-0.00490990281105,-0.00746318977326,0.00930566526949,0.136456951499,0.136456951499,-0.0873798653483,93.4616241455,2025,2050,2132,2024,2024,2598,3280,3310,3106,3260,2965,2943,3019,3068,3143,2968,3382,3373,3222,3270,2928,3254,3283,3002,0.009955618,1.480054778,1.473431464,0.401425719261,4500.0,0.394948214293,0.0179591402411,-0.00647751055658,29.1487979889,0.0,6000.0,-0.010282414034,0.00635229377076,-0.010282414034,59.7134399414,0.349065840244,0.0265011657029,0.003613849869,0.292559891939,0.0133501356468,0.0133501356468,-0.0116603868082,0.0274521764368,146.242034912,146.242034912,-0.305602788925,-1.90546953678,2019,2019,2567,2042,2042,2890,3396,3394,3203,3325,3043,3018,3122,3112,3205,2815,3378,3386,3215,3331,3089,3321,3351,3151
1508405305032478882,149,1508405305032055607,plot_matl,0.25,-500.0,0.0294601749629,0.00974594056606,-0.220539823174,-107.761390686,0.349065840244,0.0445328839123,-0.0102626988664,0.0294788796455,-0.00490990281105,-0.00490990281105,-0.00746318977326,0.00930566526949,0.136456951499,0.136456951499,-0.0873798653483,93.4616241455,2015,2038,2132,2024,2024,2598,3280,3308,3105,3263,2967,2941,3020,3069,3143,2967,3381,3373,3222,3270,2928,3254,3283,3002,0.009991996,1.490046353,1.488807404,0.401425719261,4500.0,0.394948214293,0.0155610218644,-0.00647751055658,29.1487979889,0.0,6000.0,-0.0102492170408,0.00569217139855,-0.0102492170408,59.6864700317,0.349065840244,0.0265011657029,0.003613849869,0.292559891939,0.0133501356468,0.0133501356468,-0.0116603868082,0.0274521764368,146.242034912,146.242034912,-0.305602788925,-1.90546953678,2024,2019,2567,2042,2042,2890,3396,3392,3205,3327,3042,3019,3122,3115,3207,2813,3377,3386,3215,3331,3089,3321,3351,3151
1508405305042163957,150,1508405305042018898,plot_matl,0.25,-500.0,0.0294601749629,0.00974594056606,-0.220539823174,-107.761390686,0.349065840244,0.0445328839123,-0.0102626988664,0.0294788796455,-0.00490990281105,-0.00490990281105,-0.00746318977326,0.00930566526949,0.136456951499,0.136456951499,-0.0873798653483,93.4616241455,2015,2038,2132,2024,2024,2598,3280,3308,3105,3263,2967,2941,3020,3069,3143,2967,3381,3373,3222,3270,2928,3254,3283,3002,0.009960335,1.500008752,1.49405025,0.401425719261,4500.0,0.394948214293,0.0155610218644,-0.00647751055658,29.1487979889,0.0,6000.0,-0.0102492170408,0.00569217139855,-0.0102492170408,59.6864700317,0.349065840244,0.0265011657029,0.003613849869,0.292559891939,0.0133501356468,0.0133501356468,-0.0116603868082,0.0274521764368,146.242034912,146.242034912,-0.305602788925,-1.90546953678,2024,2019,2567,2042,2042,2890,3396,3392,3205,3327,3042,3019,3122,3115,3207,2813,3377,3386,3215,3331,3089,3321,3351,3151
1508405305052533136,151,1508405305052055089,plot_matl,0.25,-500.0,0.0295001138002,0.0298868957907,-0.220499888062,-103.215461731,0.349065840244,0.0458823665977,-0.010221821256,0.0294519625604,0.00732540385798,0.00732540385798,-0.00828927010298,-0.0108656985685,0.154942423105,0.154942423105,-0.242133721709,93.4927062988,2070,2094,2132,2026,2026,2599,3277,3307,3107,3260,2967,2942,3021,3068,3142,2967,3381,3371,3221,3269,2930,3255,3285,3003,0.010037782,1.510045925,1.515705082,0.401425719261,4500.0,0.394948214293,0.0140761137009,-0.00647751055658,29.1487979889,0.0,6000.0,-0.0102118244395,0.00492971902713,-0.0102118244395,59.7543296814,0.349065840244,0.0240919683129,0.00366726797074,0.29223549366,-0.012480433099,-0.012480433099,0.00259283394553,-0.0274996310472,146.407958984,146.407958984,-0.586176455021,-2.59996271133,2012,2013,2567,2039,2039,2890,3396,3393,3204,3325,3041,3018,3124,3112,3204,2813,3377,3386,3212,3330,3093,3319,3349,3152
1508405305062735690,152,1508405305062103878,plot_matl,0.25,-500.0,0.0294112190604,-0.0100294146687,-0.22058878839,-112.692390442,0.349065840244,0.0458823665977,-0.010221821256,0.0294519625604,0.00732540385798,0.00732540385798,-0.00828927010298,-0.0108656985685,0.154942423105,0.154942423105,-0.242133721709,93.4927062988,1983,2028,2132,2026,2026,2599,3277,3307,3107,3260,2967,2942,3021,3068,3142,2968,3383,3373,3224,3270,2929,3256,3283,3003,0.010048473,1.520094198,1.527367896,0.401425719261,4500.0,0.393598735332,-0.014630401507,-0.00782699231058,35.2214622498,0.0,6000.0,-0.0102159613743,-0.00840955320746,-0.0102159613743,63.814201355,0.349065840244,0.0240919683129,0.00366726797074,0.29223549366,-0.012480433099,-0.012480433099,0.00259283394553,-0.0274996310472,146.407958984,146.407958984,-0.586176455021,-2.59996271133,2030,2038,2567,2039,2039,2890,3396,3393,3204,3325,3041,3018,3124,3112,3204,2813,3377,3385,3213,3331,3089,3320,3350,3151
1508405305072625580,153,1508405305072051418,plot_matl,0.25,-500.0,0.0294518265873,-0.010837960057,-0.220548167825,-112.900238037,0.349065840244,0.0458823665977,-0.010221821256,0.0294519625604,0.00732540385798,0.00732540385798,-0.00828927010298,-0.0108656985685,0.154942423105,0.154942423105,-0.242133721709,93.4927062988,2021,2051,2132,2025,2025,2599,3279,3305,3107,3262,2967,2943,3018,3068,3142,2968,3383,3373,3224,3270,2929,3256,3283,3003,0.009948107,1.530042846,1.522060371,0.401425719261,4500.0,0.394948214293,0.0108186323196,-0.00647751055658,29.1487979889,0.0,6000.0,-0.0102063342929,-0.00860317610204,-0.0102063342929,63.8458175659,0.349065840244,0.0240919683129,0.00366726797074,0.29223549366,-0.012480433099,-0.012480433099,0.00259283394553,-0.0274996310472,146.407958984,146.407958984,-0.586176455021,-2.59996271133,2030,2030,2567,2042,2042,2890,3397,3393,3205,3324,3040,3018,3122,3112,3204,2813,3377,3385,3213,3331,3089,3320,3350,3151
