%time,field.header.seq,field.header.stamp,field.header.frame_id,field.FFJ4_set_point,field.FFJ4_position_gain,field.FFJ4_process_value,field.FFJ4_process_value_dot,field.FFJ4_error,field.FFJ4_command,field.FFJ1,field.FFJ2,field.FFJ3,field.FFJ4,field.FFJ1_dot,field.FFJ2_dot,field.FFJ3_dot,field.FFJ4_dot,field.FFJ1_tao,field.FFJ2_tao,field.FFJ3_tao,field.FFJ4_tao,field.pac0,field.pac1,field.pdc0,field.tac0,field.tdc0,field.el0,field.el1,field.el2,field.el3,field.el4,field.el5,field.el6,field.el7,field.el8,field.el9,field.el10,field.el11,field.el12,field.el13,field.el14,field.el15,field.el16,field.el17,field.el18,field.dt,field.time,field.test_time2,field.FFJ0_set_point,field.FFJ0_position_gain,field.FFJ0_process_value,field.FFJ0_process_value_dot,field.FFJ0_error,field.FFJ0_command,field.FFJ3_set_point,field.FFJ3_position_gain,field.FFJ3_process_value,field.FFJ3_process_value_dot,field.FFJ3_error,field.FFJ3_command,field.MFJ1,field.MFJ2,field.MFJ3,field.MFJ4,field.MFJ1_dot,field.MFJ2_dot,field.MFJ3_dot,field.MFJ4_dot,field.MFJ1_tao,field.MFJ2_tao,field.MFJ3_tao,field.MFJ4_tao,field.Mpac0,field.Mpac1,field.Mpdc0,field.Mtac0,field.Mtdc0,field.Mel0,field.Mel1,field.Mel2,field.Mel3,field.Mel4,field.Mel5,field.Mel6,field.Mel7,field.Mel8,field.Mel9,field.Mel10,field.Mel11,field.Mel12,field.Mel13,field.Mel14,field.Mel15,field.Mel16,field.Mel17,field.Mel18
1508405260686470889,91,1508405260686103002,plot_matl,0.25,-500.0,0.137798398733,-0.00900370068848,-0.112201608717,-58.0998153687,0.349065840244,0.0404844395816,-0.00767322676256,0.137802451849,-0.00584924453869,-0.00584924453869,0.00736833270639,-0.00912769883871,-1.11668777466,-1.11668777466,-0.966568410397,94.3842849731,2043,2051,2125,2026,2026,2675,3301,3321,3124,3269,2981,2942,3032,3063,3144,2923,3371,3363,3203,3262,2914,3260,3284,3002,0.01007767,0.910030202,0.91706797,0.401425719261,4500.0,0.389550298452,-0.012096577324,-0.01187543571,53.4394645691,0.0,6000.0,-0.00766400108114,-0.00623252568766,-0.00766400108114,47.725982666,0.349065840244,0.0240919683129,0.00447875307873,0.294095784426,-0.00247790268622,-0.00247790268622,0.00156541459728,-0.00293149449863,147.205291748,147.205291748,0.271096408367,-2.46363687515,2032,2020,2566,2046,2046,2890,3397,3391,3206,3327,3040,3018,3121,3113,3207,2812,3378,3382,3212,3328,3091,3321,3352,3149
1508405260696267506,92,1508405260696030697,plot_matl,0.25,-500.0,0.137794569135,0.0119482595474,-0.112205423415,-53.2241668701,0.349065840244,0.0404844395816,-0.00765471439809,0.137779906392,-0.00625511258841,-0.00625511258841,0.00700197042897,0.0122429896146,-1.0581138134,-1.0581138134,-1.00314033031,94.3412628174,2046,2061,2125,2026,2026,2675,3301,3321,3124,3269,2980,2944,3032,3063,3145,2922,3369,3362,3203,3262,2914,3260,3284,3002,0.009926407,0.919957436,0.913229444,0.401425719261,4500.0,0.392249256372,0.0411174111068,-0.00917647313327,41.294128418,0.0,6000.0,-0.00766103295609,-0.00629464164376,-0.00766103295609,47.8643569946,0.349065840244,0.0240919683129,0.00449308846146,0.294022113085,-0.00157323654275,-0.00157323654275,0.00126237643417,-0.00137628451921,147.13835144,147.13835144,0.255076378584,-2.77674221992,2027,2025,2566,2046,2046,2890,3397,3391,3204,3325,3040,3017,3124,3113,3205,2814,3377,3385,3212,3328,3091,3321,3352,3149
1508405260706276757,93,1508405260706023494,plot_matl,0.25,-500.0,0.137770161033,-0.00844204053283,-0.112229838967,-58.0474586487,0.349065840244,0.0404844395816,-0.00766224367544,0.137775540352,-0.00682994583622,-0.00682994583622,-0.00623490149155,0.0123250242323,-1.01154005527,-1.01154005527,-0.952627182007,94.3411941528,2031,2065,2124,2024,2024,2674,3301,3321,3124,3269,2980,2944,3032,3063,3145,2922,3369,3362,3201,3263,2913,3257,3284,3002,0.009992346,0.929950088,0.929288178,0.401425719261,4500.0,0.389550298452,-0.0133989611641,-0.01187543571,53.4394645691,0.0,6000.0,-0.00766782276332,0.0072922790423,-0.00766782276332,43.9232177734,0.349065840244,0.0216827709228,0.00449031358585,0.294009119272,-0.0247410256416,-0.0247410256416,-0.0140126822516,-0.00112763978541,146.831726074,146.831726074,0.29231390357,-2.93658924103,2023,2028,2566,2045,2045,2890,3397,3391,3204,3325,3040,3017,3124,3113,3205,2814,3377,3385,3212,3329,3090,3321,3349,3150
1508405260716379800,94,1508405260716054833,plot_matl,0.25,-500.0,0.137826114893,-0.00954812020063,-0.112173885107,-58.4254722595,0.349065840244,0.041833922267,-0.00768329389393,0.137812778354,0.00654222304001,0.00654222304001,-0.00581656163558,-0.00927662756294,-1.04988646507,-1.04988646507,-1.00022113323,94.5538024902,2028,2063,2124,2024,2024,2674,3301,3321,3125,3269,2980,2944,3032,3062,3146,2923,3369,3362,3201,3263,2913,3257,3284,3002,0.010030632,0.939981452,0.942879408,0.401425719261,4500.0,0.390899777412,0.0128357680514,-0.0105259548873,47.3667945862,0.0,6000.0,-0.00768787413836,-0.00573143642396,-0.00768787413836,47.8974304199,0.349065840244,0.0240919683129,0.00448771053925,0.294053375721,0.000539144792128,0.000539144792128,0.00136615207884,-0.00211056647822,146.716033936,146.716033936,0.311545729637,-2.99574112892,2030,2033,2566,2045,2045,2890,3397,3395,3203,3326,3041,3019,3122,3113,3203,2813,3377,3385,3212,3329,3090,3321,3349,3150
1508405260726407672,95,1508405260726065636,plot_matl,0.25,-500.0,0.137855470181,-0.0101253837347,-0.112144529819,-58.6247749329,0.349065840244,0.0404844395816,-0.00767400627956,0.137822568417,-0.0067906556651,-0.0067906556651,0.00740390690044,-0.00948628969491,-1.04022991657,-1.04022991657,-1.03286123276,94.8890533447,2024,2079,2125,2022,2022,2674,3301,3321,3125,3269,2980,2944,3032,3062,3146,2923,3371,3362,3204,3260,2912,3257,3285,3002,0.010011244,0.949992552,0.95106818,0.401425719261,4500.0,0.390899777412,0.0128833260387,-0.0105259548873,47.3667945862,0.0,6000.0,-0.00766574172303,0.0072208228521,-0.00766574172303,43.7239875793,0.349065840244,0.0240919683129,0.00451406650245,0.294093281031,0.000414187321439,0.000414187321439,0.000840935390443,-0.00295100570656,146.731048584,146.731048584,0.480181485415,-2.95663452148,2020,2030,2566,2047,2047,2890,3397,3395,3203,3326,3041,3019,3122,3113,3203,2813,3379,3384,3213,3329,3091,3320,3352,3152
1508405260736424695,96,1508405260736028873,plot_matl,0.25,-500.0,0.137913495302,0.00957399699837,-0.112086504698,-53.9397010803,0.349065840244,0.0404844395816,-0.00769230164587,0.137905880809,-0.00726210232824,-0.00726210232824,-0.00565297016874,0.00972717441618,-0.885925173759,-0.885925173759,-0.946445643902,95.2995071411,2013,2060,2125,2022,2022,2674,3299,3322,3125,3269,2980,2944,3029,3065,3146,2923,3371,3362,3204,3260,2912,3257,3285,3002,0.0099629,0.959955597,0.9564384,0.401425719261,4500.0,0.389550298452,-0.014203065075,-0.01187543571,53.4394645691,0.0,6000.0,-0.00767026934773,0.00732588022947,-0.00767026934773,44.016330719,0.349065840244,0.0240919683129,0.00452195713297,0.294243186712,0.000743397918995,0.000743397918995,0.000687935331371,-0.00584688596427,146.633377075,146.633377075,0.579019904137,-3.05958199501,2021,2028,2566,2047,2047,2891,3397,3394,3207,3327,3040,3017,3122,3114,3203,2813,3379,3384,3213,3329,3091,3320,3352,3152
1508405260746364668,97,1508405260746037821,plot_matl,0.25,-500.0,0.137925967574,0.00932073313743,-0.112074032426,-53.7995300293,0.349065840244,0.041833922267,-0.00769668864086,0.13791872561,0.00617384864017,0.00617384864017,0.00785562768579,0.00946657452732,-1.12650752068,-1.12650752068,-0.862705767155,95.1921920776,2016,2052,2125,2022,2022,2674,3299,3322,3125,3269,2980,2944,3029,3065,3144,2923,3371,3363,3202,3260,2913,3258,3285,3002,0.010009562,0.969965128,0.970927514,0.401425719261,4500.0,0.390899777412,0.0116298384964,-0.0105259548873,47.3667945862,0.0,6000.0,-0.00768675887957,0.00765352929011,-0.00768675887957,43.8298721313,0.349065840244,0.0240919683129,0.00452836649492,0.294417709112,0.000206333614187,0.000206333614187,0.000563661102206,0.0525359287858,146.627609253,146.627609253,0.403663396835,-2.88057947159,2027,2031,2566,2047,2047,2891,3397,3394,3207,3327,3040,3017,3122,3114,3203,2814,3378,3382,3214,3331,3091,3320,3353,3149
1508405260756639911,98,1508405260756089864,plot_matl,0.25,-500.0,0.13791449368,0.0095575787127,-0.11208550632,-53.7220077515,0.349065840244,0.041833922267,-0.00771253416315,0.137928247452,0.00529718073085,0.00529718073085,-0.00525488192216,0.00927418470383,-1.2060958147,-1.2060958147,-0.822707176208,95.0495758057,1998,2048,2125,2024,2024,2673,3300,3321,3126,3269,2979,2946,3029,3065,3144,2923,3371,3363,3202,3260,2913,3258,3285,3002,0.010052684,0.980017465,0.985163032,0.401425719261,4500.0,0.389550298452,-0.0167598295957,-0.01187543571,53.4394645691,0.0,6000.0,-0.00772820785642,-0.0049393819645,-0.00772820785642,47.8755645752,0.349065840244,0.0240919683129,0.00454760575667,0.294609963894,-0.000311405194225,-0.000311405194225,0.000166750498465,0.0486441329122,146.956970215,146.956970215,0.511877179146,-2.62297105789,2020,2025,2566,2046,2046,2891,3396,3393,3203,3326,3042,3018,3122,3114,3203,2814,3378,3382,3214,3331,3091,3320,3353,3149
1508405260766428436,99,1508405260766035219,plot_matl,0.25,-500.0,0.137869298458,-0.0103735011071,-0.112130701542,-58.4688262939,0.349065840244,0.041833922267,-0.00770960515365,0.137879654765,0.0050373445265,0.0050373445265,-0.0053005903028,-0.0105912461877,-1.27487707138,-1.27487707138,-1.00766611099,95.1278686523,2001,2060,2125,2024,2024,2673,3300,3321,3126,3269,2979,2946,3032,3063,3144,2923,3371,3362,3204,3260,2914,3258,3285,3002,0.009943591,0.989962204,0.984415509,0.401425719261,4500.0,0.389550298452,-0.0172441285104,-0.01187543571,53.4394645691,0.0,6000.0,-0.00772499712184,-0.00499152485281,-0.00772499712184,47.8002052307,0.349065840244,0.0216827709228,0.00454938551411,0.294484764338,-0.0241349171847,-0.0241349171847,0.000136567410664,-0.0108235068619,146.949707031,146.949707031,0.426752060652,-2.77275681496,2024,2029,2566,2046,2046,2891,3396,3393,3203,3326,3042,3018,3124,3115,3204,2813,3378,3384,3213,3330,3091,3321,3353,3149
1508405260776435856,100,1508405260776052798,plot_matl,0.25,-500.0,0.137927800417,0.00933107640594,-0.112072207034,-53.899143219,0.349065840244,0.0404844395816,-0.00772049743682,0.137899965048,-0.00794551707804,-0.00794551707804,-0.00509275635704,0.00989641994238,-1.44837594032,-1.44837594032,-1.04798161983,95.2817230225,2008,2048,2125,2027,2027,2674,3301,3321,3124,3271,2979,2946,3032,3063,3144,2923,3371,3362,3204,3260,2914,3258,3286,3002,0.01001818,0.999980645,1.001818,0.401425719261,4500.0,0.390899777412,0.0106895910576,-0.0105259548873,47.3667945862,0.0,6000.0,-0.00769699690863,0.00783911067992,-0.00769699690863,43.9259605408,0.349065840244,0.0216827709228,0.0045508579351,0.294440537691,-0.0241230465472,-0.0241230465472,0.000111586668936,-0.00993672106415,146.994812012,146.994812012,0.409029185772,-2.91144275665,2021,2027,2566,2046,2046,2891,3396,3393,3205,3328,3042,3018,3124,3115,3204,2813,3378,3384,3213,3330,3091,3321,3349,3150
1508405260786427977,101,1508405260786035628,plot_matl,0.25,-500.0,0.137953579426,-0.0120326979086,-0.112046420574,-58.8605804443,0.349065840244,0.041833922267,-0.00769542949274,0.137948736548,0.00490738917142,0.00490738917142,-0.00559429451823,-0.0119391269982,-1.41041767597,-1.41041767597,-0.997254610062,95.5319366455,2008,2053,2125,2027,2027,2674,3301,3321,3124,3271,2981,2945,3031,3063,3145,2923,3371,3365,3201,3260,2914,3258,3286,3002,0.009981788,1.009963144,1.008160588,0.401425719261,4500.0,0.389550298452,-0.0174689237028,-0.01187543571,53.4394645691,0.0,6000.0,-0.00767354527488,0.00738759478554,-0.00767354527488,43.8844451904,0.349065840244,0.0240919683129,0.00455204816535,0.294519454241,0.000231701822486,0.000231701822486,9.13938711165e-05,-0.0114852096885,147.095825195,147.095825195,0.482869535685,-2.7184047699,2022,2024,2566,2046,2046,2891,3396,3393,3205,3328,3041,3019,3124,3113,3205,2815,3378,3384,3213,3330,3091,3321,3349,3150
1508405260796196511,102,1508405260796024972,plot_matl,0.25,-500.0,0.137958988547,0.00870721321553,-0.112041004002,-53.9217910767,0.349065840244,0.0404844395816,-0.00767498183995,0.1379532516,-0.00809005368501,-0.00809005368501,-0.00599505752325,0.00882268045098,-1.22052657604,-1.22052657604,-1.27576553822,95.8350830078,2019,2046,2124,2024,2024,2675,3298,3322,3124,3271,2981,2945,3031,3063,3145,2923,3371,3365,3201,3260,2914,3259,3285,3000,0.009987212,1.019951458,1.018695624,0.401425719261,4500.0,0.390899777412,0.0114934956655,-0.0105259548873,47.3667945862,0.0,6000.0,-0.00767930503935,0.00751464394853,-0.00767930503935,43.8071289062,0.349065840244,0.0240919683129,0.004566390533,0.294695079327,0.000627924047876,0.000627924047876,-0.00020284326456,0.0468761734664,147.034210205,147.034210205,0.459603577852,-2.69798350334,2032,2024,2566,2041,2041,2891,3397,3394,3205,3328,3041,3019,3124,3113,3205,2815,3378,3384,3213,3330,3091,3319,3352,3149
1508405260806287781,103,1508405260806034543,plot_matl,0.25,-500.0,0.137981325388,0.00824403949082,-0.112018667161,-53.9907684326,0.349065840244,0.041833922267,-0.00766837317497,0.137977525592,0.00548741733655,0.00548741733655,-0.00612836377695,0.00831920746714,-1.38811206818,-1.38811206818,-1.35652971268,95.6986465454,2035,2052,2124,2024,2024,2675,3298,3322,3125,3269,2981,2943,3030,3063,3144,2923,3369,3364,3201,3260,2914,3259,3285,3000,0.010011514,1.029962285,1.031185942,0.401425719261,4500.0,0.389550298452,-0.0158666856587,-0.01187543571,53.4394645691,0.0,6000.0,-0.0076862052083,-0.0057703172788,-0.0076862052083,47.9044685364,0.349065840244,0.0265011657029,0.00450991699472,0.294728606939,0.0235100667924,0.0235100667924,-0.0143730603158,-0.0156488902867,146.885513306,146.885513306,0.521212339401,-2.81227254868,2026,2023,2566,2041,2041,2891,3397,3394,3205,3325,3042,3019,3125,3114,3206,2813,3378,3387,3213,3330,3091,3319,3352,3149
1508405260816418115,104,1508405260816036817,plot_matl,0.25,-500.0,0.137979984283,-0.0125707993284,-0.112020015717,-58.9672813416,0.349065840244,0.041833922267,-0.00771050062031,0.13797570765,0.00574177037925,0.00574177037925,-0.00528578506783,-0.0124852396548,-1.35220706463,-1.35220706463,-1.46573710442,95.654296875,2029,2049,2124,2023,2023,2675,3298,3322,3125,3269,2981,2943,3030,3063,3144,2923,3369,3364,3202,3260,2914,3256,3282,3002,0.010000375,1.039963627,1.040039,0.401425719261,4500.0,0.389550298452,-0.0153869139031,-0.01187543571,53.4394645691,0.0,6000.0,-0.00772599503398,-0.00497447513044,-0.00772599503398,47.8187866211,0.349065840244,0.0216827709228,0.00451723719016,0.294583678246,-0.024497454986,-0.024497454986,0.000794887426309,-0.0126989940181,146.951705933,146.951705933,0.466135561466,-2.85474681854,2029,2024,2566,2043,2043,2891,3397,3394,3205,3325,3042,3019,3125,3114,3206,2813,3378,3387,3213,3330,3090,3321,3352,3151
1508405260826416290,105,1508405260826037884,plot_matl,0.25,-500.0,0.137959703803,-0.0121735660359,-0.112040296197,-58.9465637207,0.349065840244,0.0404844395816,-0.00774515932426,0.137954846025,-0.00743924034759,-0.00743924034759,0.00883378926665,0.00879003386945,-1.25677406788,-1.25677406788,-1.04000747204,95.468208313,2023,2066,2124,2023,2023,2675,3299,3323,3126,3271,2982,2945,3031,3061,3143,2921,3369,3364,3202,3260,2914,3256,3282,3002,0.010001511,1.049965358,1.050158655,0.401425719261,4500.0,0.390899777412,0.0116653051227,-0.0105259548873,47.3667945862,0.0,6000.0,-0.00774573208764,-0.00458292476833,-0.00774573208764,47.851184845,0.349065840244,0.0240919683129,0.00452456763014,0.294468164444,-0.00013344308536,-0.00013344308536,0.000649939873256,-0.0103833349422,146.888290405,146.888290405,0.460316568613,-2.52312541008,2021,2027,2566,2043,2043,2891,3397,3395,3204,3326,3042,3020,3123,3113,3204,2813,3378,3387,3213,3330,3090,3321,3352,3151
1508405260836201014,106,1508405260836015527,plot_matl,0.25,-500.0,0.137943014503,-0.0118596563116,-0.112056985497,-58.7842521667,0.349065840244,0.0404844395816,-0.00773703027517,0.137936547399,-0.00755920866504,-0.00755920866504,0.00866152811795,-0.0117281340063,-1.17953228951,-1.17953228951,-1.08649849892,95.3481826782,2023,2077,2125,2024,2024,2675,3299,3323,3126,3271,2982,2945,3031,3061,3143,2921,3370,3363,3202,3262,2912,3257,3283,3003,0.009975621,1.059941762,1.057415826,0.401425719261,4500.0,0.390899777412,0.0119557743892,-0.0105259548873,47.3667945862,0.0,6000.0,-0.00772582413629,0.00842146668583,-0.00772582413629,43.9166679382,0.349065840244,0.0240919683129,0.00451521202922,0.294433712959,0.000241842673859,0.000241842673859,-0.0145056322217,-0.00969047751278,146.819534302,146.819534302,0.165588378906,-2.20911812782,2019,2030,2566,2043,2043,2891,3397,3395,3204,3326,3042,3020,3123,3113,3204,2813,3379,3382,3211,3330,3091,3321,3350,3150
1508405260846476320,107,1508405260846052579,plot_matl,0.25,-500.0,0.137931078672,-0.0116214249283,-0.112068921328,-58.9606132507,0.349065840244,0.041833922267,-0.00775800272822,0.137925326824,0.00597816938534,0.00597816938534,-0.00434816023335,-0.0114893121645,-1.1526683569,-1.1526683569,-1.30313193798,95.2115707397,2016,2059,2125,2024,2024,2674,3299,3322,3123,3270,2981,2942,3031,3063,3143,2921,3370,3363,3202,3262,2912,3257,3283,3003,0.010038719,1.069979775,1.074142933,0.401425719261,4500.0,0.389550298452,-0.0149140674621,-0.01187543571,53.4394645691,0.0,6000.0,-0.00774401193485,0.00879204180092,-0.00774401193485,43.7060928345,0.349065840244,0.0240919683129,0.0045080925338,0.294398576021,0.000164209370269,0.000164209370269,0.000989503227174,-0.00895118247718,147.075424194,147.075424194,0.0952766314149,-1.89352679253,2029,2030,2566,2043,2043,2890,3397,3394,3205,3326,3041,3018,3122,3111,3204,2813,3379,3382,3211,3330,3091,3321,3350,3150
1508405260856475942,108,1508405260856067337,plot_matl,0.25,-500.0,0.137901112437,0.0098225697875,-0.112098887563,-53.6981697083,0.349065840244,0.041833922267,-0.00775122409686,0.137892067432,0.00587294064462,0.00587294064462,-0.00449063256383,-0.0108618363738,-0.968468248844,-0.968468248844,-1.259775877,95.176574707,2029,2060,2125,2024,2024,2674,3299,3322,3123,3270,2981,2942,3031,3063,3146,2923,3373,3365,3203,3262,2913,3258,3283,3003,0.010015163,1.079994447,1.081637604,0.401425719261,4500.0,0.390899777412,0.0110795339569,-0.0105259548873,47.3667945862,0.0,6000.0,-0.00773845985532,0.00866793747991,-0.00773845985532,43.8339881897,0.349065840244,0.0240919683129,0.00451710028574,0.294320464134,-0.000285350397462,-0.000285350397462,0.000808874610811,-0.0691068097949,147.020553589,147.020553589,0.194352954626,-1.90102756023,2029,2021,2566,2043,2043,2890,3397,3394,3205,3326,3041,3018,3122,3111,3206,2814,3379,3385,3213,3331,3089,3321,3350,3150
1508405260866434242,109,1508405260866028618,plot_matl,0.25,-500.0,0.137842103839,-0.00984792318195,-0.112157896161,-58.5251998901,0.349065840244,0.0404844395816,-0.0077319983393,0.137829735875,-0.00753469998017,-0.00753469998017,-0.00488206464797,-0.00959659274668,-0.878648161888,-0.878648161888,-1.12741494179,94.81224823,2020,2065,2124,2023,2023,2675,3299,3323,3124,3270,2981,2941,3031,3063,3146,2923,3373,3365,3203,3262,2913,3258,3283,3003,0.009958905,1.089955097,1.085520645,0.401425719261,4500.0,0.390899777412,0.0120139624923,-0.0105259548873,47.3667945862,0.0,6000.0,-0.00772017706186,-0.00512146390975,-0.00772017706186,47.9096107483,0.349065840244,0.0240919683129,0.00450980430469,0.294199228287,0.000672421534546,0.000672421534546,0.00095868826611,-0.004852168262,147.040893555,147.040893555,-0.0825696140528,-1.9695109129,2028,2030,2565,2045,2045,2891,3396,3394,3205,3324,3040,3019,3122,3111,3206,2814,3379,3385,3213,3331,3089,3321,3350,3150
1508405260876439702,110,1508405260876055403,plot_matl,0.25,-500.0,0.137790754437,-0.00882601551712,-0.112209245563,-58.3402862549,0.349065840244,0.041833922267,-0.00773001695052,0.137817561626,0.0054538086988,0.0054538086988,-0.00494535686448,-0.00936821568757,-1.00924158096,-1.00924158096,-1.38726305962,94.6823425293,2008,2047,2124,2023,2023,2675,3299,3323,3124,3270,2981,2941,3030,3063,3145,2924,3372,3364,3202,3261,2912,3258,3283,3003,0.01002889,1.099982889,1.1031779,0.401425719261,4500.0,0.389550298452,-0.0159312859178,-0.01187543571,53.4394645691,0.0,6000.0,-0.00773022789508,0.00849082600325,-0.00773022789508,43.684967041,0.349065840244,0.0240919683129,0.00447463151067,0.294208317995,-0.000762087118346,-0.000762087118346,-0.0136908255517,-0.0049937791191,146.810623169,146.810623169,-0.0290517304093,-1.9923940897,2018,2017,2565,2045,2045,2891,3396,3394,3205,3324,3040,3019,3124,3115,3204,2813,3378,3383,3214,3330,3091,3320,3350,3150
1508405260886286240,111,1508405260886050099,plot_matl,0.25,-500.0,0.137790754437,-0.00882601551712,-0.112209245563,-58.3402862549,0.349065840244,0.041833922267,-0.00773001695052,0.137817561626,0.0054538086988,0.0054538086988,-0.00494535686448,-0.00936821568757,-1.00924158096,-1.00924158096,-1.38726305962,94.6823425293,1995,2061,2125,2022,2022,2675,3299,3322,3124,3268,2981,2941,3030,3063,3145,2924,3372,3364,3202,3261,2912,3258,3282,3002,0.009992677,1.109977079,1.109187147,0.401425719261,4500.0,0.389550298452,-0.0159312859178,-0.01187543571,53.4394645691,0.0,6000.0,-0.00773022789508,0.00849082600325,-0.00773022789508,43.684967041,0.349065840244,0.0240919683129,0.00447463151067,0.294208317995,-0.000762087118346,-0.000762087118346,-0.0136908255517,-0.0049937791191,146.810623169,146.810623169,-0.0290517304093,-1.9923940897,2021,2030,2566,2040,2040,2893,3396,3393,3204,3326,3040,3019,3124,3115,3204,2813,3378,3383,3214,3330,3091,3320,3353,3153
1508405260896367797,112,1508405260896056122,plot_matl,0.25,-500.0,0.137741878629,0.0118592306972,-0.112258121371,-52.9982757568,0.349065840244,0.041833922267,-0.0077855666168,0.137741878629,0.00597148342058,0.00597148342058,-0.00380133511499,0.0118592306972,-0.799227416515,-0.799227416515,-1.52188682556,94.9095916748,2026,2055,2125,2022,2022,2675,3299,3322,3124,3268,2981,2944,3030,3078,3159,2932,3384,3373,3211,3270,2919,3258,3282,3002,0.010005118,1.119982811,1.120573216,0.401425719261,4500.0,0.390899777412,0.0119429668412,-0.0105259548873,47.3667945862,0.0,6000.0,-0.0077855666168,-0.00380133511499,-0.0077855666168,47.8538818359,0.349065840244,0.0265011657029,0.00449009193107,0.294124633074,0.0238853562623,0.0238853562623,0.00133448455017,-0.00337472511455,147.011047363,147.011047363,0.344519138336,-3.1624917984,2033,2033,2566,2040,2040,2893,3396,3393,3204,3326,3041,3019,3124,3128,3218,2823,3390,3394,3223,3337,3095,3320,3353,3153
1508405260906615815,113,1508405260906096648,plot_matl,0.25,-500.0,0.137713253498,0.0126679642126,-0.112286746502,-52.7611427307,0.349065840244,0.0431834049523,-0.0077836709097,0.137713253498,0.0199958141893,0.0199958141893,0.00958035886288,0.0126679642126,-0.721845448017,-0.721845448017,-1.8150395155,94.9279251099,2014,2050,2124,2025,2025,2678,3305,3322,3129,3268,2981,2944,3030,3078,3159,2932,3384,3373,3211,3270,2919,3263,3291,3011,0.010042184,1.130023939,1.134766792,0.401425719261,4500.0,0.392249256372,0.0399916283786,-0.00917647313327,41.294128418,0.0,6000.0,-0.0077836709097,0.00958035886288,-0.0077836709097,43.7244224548,0.349065840244,0.0240919683129,0.00451589934528,0.29404297471,-0.00124091212638,-0.00124091212638,0.000827802694403,-0.00171564146876,147.241409302,147.241409302,0.269691437483,-2.93603849411,2028,2027,2565,2044,2044,2895,3400,3397,3206,3326,3041,3019,3124,3128,3218,2823,3390,3394,3223,3337,3095,3325,3355,3155
1508405260916562042,114,1508405260916064930,plot_matl,0.25,-500.0,0.137645035982,-0.00666193151847,-0.112354964018,-57.6154251099,0.349065840244,0.041833922267,-0.00778236845508,0.137645035982,0.00618215976283,0.00618215976283,-0.00386964855716,-0.00666193151847,-0.81174659729,-0.81174659729,-1.85563755035,94.9863586426,2025,2057,2124,2025,2025,2678,3305,3322,3129,3274,2980,2947,3033,3063,3147,2924,3374,3364,3204,3270,2919,3263,3291,3011,0.009966232,1.139991809,1.136150448,0.401425719261,4500.0,0.390899777412,0.0123643195257,-0.0105259548873,47.3667945862,0.0,6000.0,-0.00778236845508,-0.00386964855716,-0.00778236845508,47.8764228821,0.349065840244,0.0240919683129,0.00448433123529,0.294028997421,-0.000179361421033,-0.000179361421033,0.00147729681339,-0.00144788075704,147.151290894,147.151290894,0.381907045841,-2.72923064232,2027,2018,2565,2044,2044,2895,3400,3397,3206,3331,3044,3021,3124,3116,3207,2816,3381,3385,3214,3337,3095,3325,3355,3155
1508405260926288966,115,1508405260926021718,plot_matl,0.25,-500.0,0.137647107244,0.0142716122791,-0.112352892756,-52.610824585,0.349065840244,0.041833922267,-0.00776629429311,0.137647107244,0.00677098240703,0.00677098240703,-0.00415915623307,0.0142716122791,-0.812509894371,-0.812509894371,-1.90268981457,95.0275115967,2014,2045,2125,2023,2023,2675,3301,3322,3129,3274,2980,2947,3033,3063,3147,2924,3374,3364,3204,3262,2914,3260,3287,3004,0.009955663,1.149948021,1.144901245,0.401425719261,4500.0,0.390899777412,0.0135419648141,-0.0105259548873,47.3667945862,0.0,6000.0,-0.00776629429311,-0.00415915623307,-0.00776629429311,47.8463783264,0.349065840244,0.0240919683129,0.00451106484979,0.29384791851,-0.000177568872459,-0.000177568872459,0.000943182909396,0.00222128047608,147.011260986,147.011260986,0.400849580765,-2.05953240395,2022,2026,2566,2045,2045,2891,3398,3397,3206,3331,3044,3021,3124,3116,3207,2816,3381,3385,3214,3330,3089,3323,3354,3152
1508405260936418613,116,1508405260936055867,plot_matl,0.25,-500.0,0.137650623918,0.0142765454948,-0.112349368632,-52.3739547729,0.349065840244,0.0431834049523,-0.00776802515611,0.137650623918,0.0201110877097,0.0201110877097,0.00929777137935,0.0142765454948,-0.740597128868,-0.740597128868,-1.77842390537,94.9709014893,2001,2051,2125,2023,2023,2675,3301,3323,3125,3272,2981,2944,3031,3065,3146,2923,3373,3364,3204,3262,2914,3260,3287,3004,0.010034073,1.159982516,1.163952468,0.401425719261,4500.0,0.392249256372,0.0402221754193,-0.00917647313327,41.294128418,0.0,6000.0,-0.00776802515611,0.00929777137935,-0.00776802515611,43.6476020813,0.349065840244,0.0240919683129,0.00447979941964,0.29375693202,0.000269651034614,0.000269651034614,0.00159956340212,0.00409972388297,147.089584351,147.089584351,0.429119199514,-1.86674332619,2019,2027,2566,2045,2045,2891,3398,3395,3205,3327,3041,3019,3124,3115,3205,2815,3378,3385,3214,3330,3089,3323,3354,3152
1508405260946569536,117,1508405260946059449,plot_matl,0.25,-500.0,0.137618109584,0.0150549598038,-0.112381897867,-52.3607292175,0.349065840244,0.0404844395816,-0.00776948267594,0.137618109584,-0.0070793479681,-0.0070793479681,-0.0041105626151,0.0150549598038,-0.98153012991,-0.98153012991,-1.55185449123,94.9459915161,2013,2067,2124,2023,2023,2675,3301,3323,3125,3272,2981,2944,3031,3065,3146,2923,3373,3365,3204,3262,2914,3259,3284,3003,0.010004945,1.169986725,1.170578565,0.401425719261,4500.0,0.389550298452,-0.0141586959362,-0.01187543571,53.4394645691,0.0,6000.0,-0.00776948267594,-0.0041105626151,-0.00776948267594,47.8877182007,0.349065840244,0.0240919683129,0.00449382280931,0.293848246336,-0.000216532949707,-0.000216532949707,0.00131063023582,0.00220819097012,147.026611328,147.026611328,0.610818624496,-2.11562538147,2022,2033,2566,2043,2043,2891,3398,3395,3205,3327,3041,3019,3124,3115,3205,2815,3378,3386,3212,3332,3091,3319,3352,3149
1508405260956402741,118,1508405260956060696,plot_matl,0.25,-500.0,0.13758584857,-0.00508551485837,-0.11241415143,-57.3987846375,0.349065840244,0.0404844395816,-0.0077596064657,0.13758584857,-0.00729582598433,-0.00729582598433,-0.00431459862739,-0.00508551485837,-0.907410919666,-0.907410919666,-1.55874586105,94.922454834,2020,2048,2124,2023,2023,2675,3300,3322,3125,3271,2981,2945,3031,3063,3146,2923,3373,3365,3204,3262,2914,3259,3284,3003,0.01000078,1.179987871,1.18009204,0.401425719261,4500.0,0.389550298452,-0.0145916519687,-0.01187543571,53.4394645691,0.0,6000.0,-0.0077596064657,-0.00431459862739,-0.0077596064657,47.9343338013,0.349065840244,0.0240919683129,0.00450542662293,0.293807119131,0.000241662273766,0.000241662273766,0.00107155530713,0.00299088540487,146.795135498,146.795135498,0.596336305141,-2.02399039268,2032,2025,2566,2043,2043,2889,3398,3395,3204,3326,3042,3019,3123,3113,3205,2815,3378,3386,3212,3332,3091,3319,3352,3149
1508405260966234899,119,1508405260966023684,plot_matl,0.25,-500.0,0.137621328235,0.0151669085026,-0.112378671765,-52.4127388,0.349065840244,0.041833922267,-0.00775095820427,0.137621328235,0.00564550282434,0.00564550282434,-0.00451609492302,0.0151669085026,-0.99778676033,-0.99778676033,-1.49211621284,95.0786056519,2018,2035,2125,2023,2023,2675,3300,3322,3125,3271,2981,2945,3031,3063,3146,2924,3371,3365,3204,3262,2912,3260,3285,3003,0.009961033,1.189949987,1.185362927,0.401425719261,4500.0,0.390899777412,0.0112910056487,-0.0105259548873,47.3667945862,0.0,6000.0,-0.00775095820427,-0.00451609492302,-0.00775095820427,47.8782577515,0.349065840244,0.0240919683129,0.00449950480834,0.293836265802,0.000198109381017,0.000198109381017,-0.014159547165,0.00248596747406,146.682479858,146.682479858,0.491154193878,-2.09061074257,2032,2019,2565,2043,2043,2889,3398,3395,3204,3326,3042,3019,3123,3113,3205,2813,3378,3383,3211,3331,3090,3323,3351,3150
1508405260976461400,120,1508405260976042791,plot_matl,0.25,-500.0,0.137644812465,0.0147240282968,-0.112355180085,-52.6373138428,0.349065840244,0.041833922267,-0.0077559822239,0.137644812465,0.00539615843445,0.00539615843445,-0.0044278325513,0.0147240282968,-1.14600121975,-1.14600121975,-1.21685183048,95.3557357788,2023,2043,2125,2023,2023,2675,3300,3321,3123,3270,2981,2946,3030,3063,3146,2924,3371,3365,3204,3262,2912,3260,3285,3003,0.010019983,1.199969691,1.20239796,0.401425719261,4500.0,0.390899777412,0.0107923168689,-0.0105259548873,47.3667945862,0.0,6000.0,-0.0077559822239,-0.0044278325513,-0.0077559822239,47.8332862854,0.349065840244,0.0216827709228,0.00450998311862,0.293959498405,-0.0236941855401,-0.0236941855401,0.000970401917584,-6.48541172268e-05,146.602127075,146.602127075,0.548832058907,-1.9596555233,2032,2023,2565,2043,2043,2892,3396,3394,3205,3325,3042,3020,3123,3113,3205,2813,3378,3383,3211,3331,3090,3323,3351,3150
1508405260986472551,121,1508405260986049452,plot_matl,0.25,-500.0,0.137614175677,-0.00542717985809,-0.112385831773,-57.5048980713,0.349065840244,0.041833922267,-0.00777047965676,0.137614175677,0.00465151155367,0.00465151155367,-0.0041157854721,-0.00542717985809,-1.15830731392,-1.15830731392,-0.992612183094,95.2248840332,2019,2045,2125,2023,2023,2675,3300,3321,3123,3270,2981,2946,3030,3063,3146,2923,3371,3363,3204,3262,2913,3257,3282,3003,0.010005857,1.209976131,1.210708697,0.401425719261,4500.0,0.390899777412,0.00930302310735,-0.0105259548873,47.3667945862,0.0,6000.0,-0.00777047965676,-0.0041157854721,-0.00777047965676,47.9046936035,0.349065840244,0.0240919683129,0.00451861694455,0.293965488672,0.000948577537201,0.000948577537201,0.00079384673154,-3.52560673491e-05,146.961044312,146.961044312,0.539993345737,-1.51488232613,2028,2023,2565,2043,2043,2892,3396,3394,3205,3325,3042,3020,3123,3114,3206,2813,3377,3382,3211,3329,3091,3321,3351,3150
1508405260996289612,122,1508405260996036350,plot_matl,0.25,-500.0,0.137603610754,-0.00519227562472,-0.112396389246,-57.3814582825,0.349065840244,0.0404844395816,-0.00774751929566,0.137603610754,-0.00929917860776,-0.00929917860776,0.00885820202529,-0.00519227562472,-1.24205207825,-1.24205207825,-1.01707053185,95.0837478638,2011,2038,2125,2022,2022,2674,3299,3322,3125,3269,2979,2946,3030,3063,3146,2923,3371,3363,3204,3262,2913,3257,3282,3004,0.009986322,1.219962722,1.218331284,0.401425719261,4500.0,0.389550298452,-0.0185983572155,-0.01187543571,53.4394645691,0.0,6000.0,-0.00774751929566,0.00885820202529,-0.00774751929566,43.8840866089,0.349065840244,0.0240919683129,0.00452565448359,0.294019579887,-9.22967738006e-05,-9.22967738006e-05,0.00064993131673,-0.00118282332551,146.974136353,146.974136353,0.478457897902,-1.82259678841,2032,2025,2566,2042,2042,2890,3397,3392,3205,3325,3041,3020,3123,3114,3206,2813,3377,3382,3211,3329,3091,3321,3351,3151
1508405261006375003,123,1508405261006049695,plot_matl,0.25,-500.0,0.137594714761,-0.00500793708488,-0.11240529269,-57.3705940247,0.349065840244,0.041833922267,-0.0077883717604,0.137594714761,0.0044835335575,0.0044835335575,-0.00373864290304,-0.00500793708488,-1.37902128696,-1.37902128696,-0.975074887276,95.1137619019,2025,2059,2125,2022,2022,2674,3299,3322,3125,3269,2979,2945,3030,3062,3144,2924,3371,3361,3205,3262,2912,3257,3282,3004,0.010014373,1.229976795,1.231767879,0.401425719261,4500.0,0.390899777412,0.00896706711501,-0.0105259548873,47.3667945862,0.0,6000.0,-0.0077883717604,-0.00373864290304,-0.0077883717604,47.8550491333,0.349065840244,0.0240919683129,0.00451848655939,0.293956965208,-0.000449418876087,-0.000449418876087,0.000790346064605,0.0618405714631,147.011520386,147.011520386,0.519293308258,-1.85668706894,2028,2030,2566,2042,2042,2890,3397,3392,3205,3325,3041,3019,3123,3114,3205,2815,3379,3387,3212,3330,3089,3321,3351,3151
1508405261016345685,124,1508405261016031729,plot_matl,0.25,-500.0,0.137624412775,-0.00561984768137,-0.112375587225,-57.5000762939,0.349065840244,0.041833922267,-0.00780866388232,0.137624412775,0.00414556497708,0.00414556497708,-0.0033112668898,-0.00561984768137,-1.23028373718,-1.23028373718,-1.07851660252,94.8301925659,2016,2059,2125,2021,2021,2674,3298,3322,3127,3269,2979,2945,3030,3062,3144,2924,3371,3361,3205,3262,2912,3258,3285,3004,0.009981001,1.239958463,1.237644124,0.401425719261,4500.0,0.390899777412,0.00829112995416,-0.0105259548873,47.3667945862,0.0,6000.0,-0.00780866388232,-0.0033112668898,-0.00780866388232,47.8535690308,0.349065840244,0.0265011657029,0.00452554598451,0.29394236207,0.023136742413,0.023136742413,0.000647105393,6.75531700836e-05,147.009429932,147.009429932,0.388753682375,-1.50551879406,2022,2030,2566,2042,2042,2890,3397,3394,3204,3325,3041,3019,3123,3114,3205,2815,3379,3387,3212,3330,3089,3320,3352,3153
1508405261026514884,125,1508405261026087789,plot_matl,0.25,-500.0,0.137668952346,-0.00649386318401,-0.112331047654,-57.7235946655,0.349065840244,0.041833922267,-0.00782516691834,0.137668952346,0.00461789453402,0.00461789453402,0.0104443021119,-0.00649386318401,-1.22122466564,-1.22122466564,-0.872578442097,94.8341140747,2024,2050,2125,2021,2021,2674,3298,3322,3127,3270,2979,2943,3031,3063,3146,2924,3370,3364,3203,3262,2912,3258,3285,3004,0.010056352,1.250014674,1.257044,0.401425719261,4500.0,0.390899777412,0.00923578906804,-0.0105259548873,47.3667945862,0.0,6000.0,-0.00782516691834,0.0104443021119,-0.00782516691834,43.7567367554,0.349065840244,0.0240919683129,0.00453133415431,0.293943792582,0.000358301971573,0.000358301971573,0.000529646058567,5.52912570129e-05,147.261917114,147.261917114,0.391436755657,-2.34913420677,2027,2023,2566,2042,2042,2890,3397,3394,3204,3325,3041,3018,3124,3113,3204,2813,3378,3382,3213,3330,3089,3320,3352,3153
1508405261036402016,126,1508405261036057630,plot_matl,0.25,-500.0,0.137648567557,-0.00604448793456,-0.112351424992,-57.6356124878,0.349065840244,0.0404844395816,-0.0078045995906,0.137648567557,-0.00882996898144,-0.00882996898144,-0.00341864279471,-0.00604448793456,-1.18149113655,-1.18149113655,-0.904118895531,94.5686950684,2030,2059,2125,2024,2024,2675,3298,3322,3127,3270,2979,2943,3031,3063,3146,2924,3370,3364,3203,3261,2914,3259,3284,3003,0.00996953,1.259984886,1.25616078,0.401425719261,4500.0,0.389550298452,-0.0176599379629,-0.01187543571,53.4394645691,0.0,6000.0,-0.0078045995906,-0.00341864279471,-0.0078045995906,47.8755722046,0.349065840244,0.0240919683129,0.00454942183569,0.293940275908,-0.000155778921908,-0.000155778921908,0.000173667547642,0.000185464436072,147.14414978,147.14414978,0.326392382383,-2.12072134018,2028,2023,2566,2045,2045,2890,3398,3394,3204,3325,3041,3018,3124,3113,3204,2813,3378,3382,3213,3330,3092,3322,3350,3151
1508405261046192983,127,1508405261046014205,plot_matl,0.25,-500.0,0.137670844793,0.0143627692014,-0.112329155207,-52.4120826721,0.349065840244,0.0404844395816,-0.00781258568168,0.137670844793,-0.00864908564836,-0.00864908564836,-0.00327994674444,0.0143627692014,-1.15291309357,-1.15291309357,-0.998373627663,94.7521438599,2023,2059,2125,2024,2024,2675,3298,3320,3126,3269,2982,2944,3029,3062,3144,2922,3371,3364,3203,3261,2914,3259,3284,3003,0.009953971,1.269940286,1.264154317,0.401425719261,4500.0,0.389550298452,-0.0172981712967,-0.01187543571,53.4394645691,0.0,6000.0,-0.00781258568168,-0.00327994674444,-0.00781258568168,47.9299430847,0.349065840244,0.0240919683129,0.00456511508673,0.294007480145,-0.000895719334949,-0.000895719334949,-0.000155535133672,0.0607347749174,147.056045532,147.056045532,0.428079903126,-1.83636915684,2022,2024,2566,2045,2045,2890,3398,3393,3204,3324,3042,3018,3123,3114,3203,2813,3378,3382,3213,3330,3092,3322,3350,3151
1508405261056574730,128,1508405261056079136,plot_matl,0.25,-500.0,0.137724936008,-0.00755835976452,-0.112275063992,-57.8037071228,0.349065840244,0.041833922267,-0.00780566129833,0.137724936008,0.00575468596071,0.00575468596071,0.0100025543943,-0.00755835976452,-1.30536830425,-1.30536830425,-0.964334130287,94.8643951416,2024,2078,2125,2021,2021,2675,3298,3320,3126,3269,2982,2944,3029,3062,3144,2922,3371,3365,3202,3262,2912,3258,3285,3002,0.010067008,1.280006402,1.288577024,0.401425719261,4500.0,0.390899777412,0.0115093719214,-0.0105259548873,47.3667945862,0.0,6000.0,-0.00780566129833,0.0100025543943,-0.00780566129833,44.043636322,0.349065840244,0.0240919683129,0.00454976642504,0.293992310762,-0.000734511471819,-0.000734511471819,-0.0151788992807,-0.000825168564916,146.880905151,146.880905151,0.398009598255,-2.02844834328,2024,2035,2566,2045,2045,2890,3398,3393,3204,3324,3042,3018,3123,3114,3203,2813,3378,3385,3212,3330,3089,3319,3352,3150
1508405261066172162,129,1508405261066025859,plot_matl,0.25,-500.0,0.137676090002,-0.00654786964878,-0.112323917449,-57.6242828369,0.349065840244,0.041833922267,-0.00779727520421,0.137676090002,0.00665077008307,0.00665077008307,0.00983574055135,-0.00654786964878,-1.44985663891,-1.44985663891,-0.972254812717,95.091758728,2038,2083,2125,2021,2021,2675,3300,3322,3125,3271,2981,2945,3030,3063,3143,2922,3371,3365,3202,3262,2912,3258,3285,3002,0.009944204,1.28995188,1.282802316,0.401425719261,4500.0,0.390899777412,0.0133015401661,-0.0105259548873,47.3667945862,0.0,6000.0,-0.00779727520421,0.00983574055135,-0.00779727520421,44.0105628967,0.349065840244,0.0240919683129,0.00453712511808,0.293807178736,-0.00106489274185,-0.00106489274185,0.000417860021116,-0.0590639486909,146.88053894,146.88053894,0.453593045473,-1.91052055359,2028,2032,2566,2045,2045,2891,3397,3392,3204,3327,3042,3020,3123,3115,3206,2813,3378,3385,3212,3330,3089,3319,3352,3150
1508405261076264139,130,1508405261076028900,plot_matl,0.25,-500.0,0.137656107545,-0.00613452261314,-0.112343885005,-57.5037384033,0.349065840244,0.0404844395816,-0.00776982586831,0.137656107545,-0.00741362059489,-0.00741362059489,-0.00414021871984,-0.00613452261314,-1.3096704483,-1.3096704483,-1.2667979002,94.8982543945,2037,2080,2125,2021,2021,2675,3300,3322,3125,3271,2981,2945,3030,3063,3143,2924,3369,3363,3202,3262,2911,3257,3284,3003,0.010004938,1.299956,1.30064194,0.401425719261,4500.0,0.389550298452,-0.0148272411898,-0.01187543571,53.4394645691,0.0,6000.0,-0.00776982586831,-0.00414021871984,-0.00776982586831,47.7429084778,0.349065840244,0.0216827709228,0.00452748779207,0.293780863285,-0.0260841287673,-0.0260841287673,0.000613109383266,0.00331352092326,147.161972046,147.161972046,0.357104837894,-2.02830290794,2026,2028,2566,2045,2045,2891,3397,3392,3204,3327,3042,3020,3123,3115,3206,2815,3379,3385,3210,3330,3090,3319,3351,3149
1508405261086426759,131,1508405261086065813,plot_matl,0.25,-500.0,0.13766130805,-0.00623419415206,-0.11233869195,-57.6429519653,0.349065840244,0.0404844395816,-0.00777259562165,0.137652516365,-0.00673953862861,-0.00673953862861,-0.00430723885074,-0.00606565969065,-1.40726697445,-1.40726697445,-1.26750123501,94.680770874,2037,2080,2125,2021,2021,2675,3300,3322,3125,3271,2981,2945,3030,3063,3143,2924,3369,3363,3202,3262,2911,3257,3284,3003,0.010036623,1.309992983,1.314797613,0.401425719261,4500.0,0.389550298452,-0.0129461465403,-0.01187543571,53.4394645691,0.0,6000.0,-0.00776751292869,0.00902164820582,-0.00776751292869,43.8546600342,0.349065840244,0.0240919683129,0.00452078040689,0.293918609619,-0.00277841370553,-0.00277841370553,0.000751371204387,0.00233033997938,147.234725952,147.234725952,0.419754385948,-2.36229944229,2026,2028,2566,2045,2045,2891,3397,3392,3204,3327,3042,3020,3123,3115,3206,2815,3379,3385,3210,3330,3090,3319,3351,3149
1508405261096175816,132,1508405261096019462,plot_matl,0.25,-500.0,0.137644991279,-0.00589815946296,-0.112355008721,-57.5510597229,0.349065840244,0.041833922267,-0.00772395869717,0.137635454535,0.00759601732716,0.00759601732716,0.00817694980651,0.0151505852118,-1.43531143665,-1.43531143665,-1.13850986958,94.4772796631,2037,2063,2125,2023,2023,2675,3307,3329,3131,3274,2985,2949,3033,3063,3143,2924,3369,3363,3202,3262,2911,3257,3284,3003,0.009951418,1.319945703,1.313587176,0.401425719261,4500.0,0.389550298452,-0.0121318204328,-0.01187543571,53.4394645691,0.0,6000.0,-0.00772052397951,-0.00530424062163,-0.00772052397951,47.8179168701,0.349065840244,0.0240919683129,0.00449852878228,0.293872028589,-0.00227408995852,-0.00227408995852,0.00119964382611,0.00295704393648,147.118499756,147.118499756,0.325158208609,-2.55271029472,2029,2026,2566,2038,2038,2889,3406,3400,3211,3333,3045,3022,3126,3115,3206,2815,3379,3385,3210,3330,3090,3319,3351,3149
1508405261106184997,133,1508405261106009927,plot_matl,0.25,-500.0,0.137629643083,-0.00558972079307,-0.112370356917,-57.5443878174,0.349065840244,0.041833922267,-0.00775793194771,0.137641146779,0.00720447441563,0.00720447441563,-0.00452015735209,0.0150454705581,-1.5376521349,-1.5376521349,-1.30267214775,94.8302230835,2043,2066,2125,2023,2023,2675,3307,3329,3131,3274,2985,2949,3033,3066,3147,2926,3374,3366,3207,3264,2915,3259,3283,3003,0.009990191,1.329936049,1.328695403,0.401425719261,4500.0,0.390899777412,0.0138309411705,-0.0105259548873,47.3667945862,0.0,6000.0,-0.0077665830031,-0.00433883350343,-0.0077665830031,47.8768882751,0.349065840244,0.0240919683129,0.00449555460364,0.293888628483,-0.00360827031545,-0.00360827031545,0.00125812378246,0.0642238259315,147.320007324,147.320007324,0.373150765896,-2.99850583076,2028,2024,2566,2038,2038,2889,3406,3400,3211,3333,3045,3022,3126,3116,3208,2816,3382,3386,3216,3331,3093,3322,3352,3149
1508405261116184548,134,1508405261116015836,plot_matl,0.25,-500.0,0.137653008103,-0.00605979096144,-0.112346991897,-57.6306114197,0.349065840244,0.041833922267,-0.00777135556564,0.137665182352,0.00637542037293,0.00637542037293,0.00920477602631,0.0145542658865,-1.43603003025,-1.43603003025,-1.05770230293,94.9724731445,2031,2057,2123,2023,2023,2675,3300,3320,3125,3271,2982,2949,3033,3066,3147,2926,3374,3366,3207,3264,2915,3259,3283,3003,0.010005725,1.339941897,1.34076715,0.401425719261,4500.0,0.389550298452,-0.0144688067958,-0.01187543571,53.4394645691,0.0,6000.0,-0.00777928158641,-0.0040520792827,-0.00777928158641,47.860534668,0.349065840244,0.0265011657029,0.0044938470237,0.293899178505,0.0200295951217,0.0200295951217,0.00128982763272,0.0018998302985,147.081741333,147.081741333,0.346858799458,-3.33156180382,2030,2028,2566,2042,2042,2891,3396,3395,3205,3326,3042,3022,3126,3116,3208,2816,3382,3386,3216,3331,3093,3322,3352,3150
1508405261126180126,135,1508405261126012258,plot_matl,0.25,-500.0,0.137693926692,0.0139861926436,-0.112306065857,-52.8097991943,0.349065840244,0.0404844395816,-0.00777246290818,0.137686595321,-0.00693643139675,-0.00693643139675,-0.00417697569355,0.0141353569925,-1.4159911871,-1.4159911871,-1.1987593174,94.9716567993,2001,2044,2123,2023,2023,2675,3300,3320,3125,3271,2982,2945,3031,3063,3144,2923,3371,3365,3203,3259,2912,3259,3283,3003,0.009996297,1.349938351,1.349500095,0.401425719261,4500.0,0.389550298452,-0.0128008434549,-0.01187543571,53.4394645691,0.0,6000.0,-0.00776724983007,0.00914460513741,-0.00776724983007,43.8412895203,0.349065840244,0.0265011657029,0.00452001206577,0.293853014708,0.0206853784621,0.0206853784621,0.000766696233768,0.00269909226336,147.071517944,147.071517944,0.376638829708,-2.91941571236,2018,2030,2566,2042,2042,2891,3396,3395,3205,3326,3042,3019,3125,3113,3204,2815,3379,3383,3213,3329,3089,3322,3352,3150
1508405261136638842,136,1508405261136099804,plot_matl,0.25,-500.0,0.137690156698,0.0140603305772,-0.112309843302,-52.7723197937,0.349065840244,0.0404844395816,-0.00777246290818,0.137686595321,-0.00693643139675,-0.00693643139675,-0.00417697569355,0.0141353569925,-1.4159911871,-1.4159911871,-1.1987593174,94.9716567993,1999,2056,2125,2021,2021,2676,3302,3321,3124,3271,2982,2945,3031,3063,3144,2923,3371,3365,3203,3259,2912,3259,3285,3001,0.010090424,1.360027,1.372297664,0.401425719261,4500.0,0.390899777412,0.0138033796102,-0.0105259548873,47.3667945862,0.0,6000.0,-0.00773151870817,0.00843609403819,-0.00773151870817,43.8263130188,0.349065840244,0.0265011657029,0.00452001206577,0.293853014708,0.0206853784621,0.0206853784621,0.000766696233768,0.00269909226336,147.071517944,147.071517944,0.376638829708,-2.91941571236,2019,2033,2565,2040,2040,2890,3395,3393,3204,3326,3042,3019,3125,3113,3204,2815,3379,3383,3213,3329,3089,3320,3352,3151
1508405261146724099,137,1508405261146102124,plot_matl,0.25,-500.0,0.137629285455,-0.00556914694607,-0.112370721996,-57.5158119202,0.349065840244,0.0404844395816,-0.00777246290818,0.137686595321,-0.00693643139675,-0.00693643139675,-0.00417697569355,0.0141353569925,-1.4159911871,-1.4159911871,-1.1987593174,94.9716567993,2019,2050,2125,2021,2021,2676,3302,3321,3124,3269,2981,2946,3032,3062,3145,2923,3372,3364,3200,3259,2912,3259,3285,3001,0.010002098,1.370029309,1.370287426,0.401425719261,4500.0,0.390899777412,0.0132526410744,-0.0105259548873,47.3667945862,0.0,6000.0,-0.00775018241256,-0.00458982586861,-0.00775018241256,47.8522987366,0.349065840244,0.0265011657029,0.00452001206577,0.293853014708,0.0206853784621,0.0206853784621,0.000766696233768,0.00269909226336,147.071517944,147.071517944,0.376638829708,-2.91941571236,2023,2022,2565,2040,2040,2890,3395,3393,3204,3326,3042,3018,3123,3114,3204,2814,3378,3383,3213,3329,3089,3320,3352,3151
1508405261156503407,138,1508405261156053382,plot_matl,0.25,-500.0,0.137655094266,0.014787488617,-0.112344905734,-52.3622398376,0.349065840244,0.0404844395816,-0.00777246290818,0.137686595321,-0.00693643139675,-0.00693643139675,-0.00417697569355,0.0141353569925,-1.4159911871,-1.4159911871,-1.1987593174,94.9716567993,2007,2034,2124,2020,2020,2673,3299,3321,3124,3269,2981,2946,3032,3062,3145,2923,3372,3364,3200,3261,2914,3259,3285,3001,0.009950867,1.379980703,1.373219646,0.401425719261,4500.0,0.390899777412,0.0138569930568,-0.0105259548873,47.3667945862,0.0,6000.0,-0.00776735832915,-0.00423291185871,-0.00776735832915,47.9460411072,0.349065840244,0.0265011657029,0.00452001206577,0.293853014708,0.0206853784621,0.0206853784621,0.000766696233768,0.00269909226336,147.071517944,147.071517944,0.376638829708,-2.91941571236,2027,2027,2566,2039,2039,2891,3396,3393,3204,3326,3042,3018,3123,3114,3204,2814,3378,3383,3213,3330,3090,3322,3349,3149
1508405261166398884,139,1508405261166054834,plot_matl,0.25,-500.0,0.137653544545,-0.00603327713907,-0.112346462905,-57.6022033691,0.349065840244,0.0404844395816,-0.00775862438604,0.137644976377,-0.00669457484037,-0.00669457484037,0.00901105813682,-0.00588644528762,-1.20008707047,-1.20008707047,-1.13751101494,95.113609314,2011,2048,2124,2020,2020,2673,3299,3322,3126,3269,2979,2943,3031,3062,3147,2924,3371,3364,3200,3261,2914,3259,3285,3001,0.009999512,1.389981829,1.389932168,0.401425719261,4500.0,0.389550298452,-0.0139487916604,-0.01187543571,53.4394645691,0.0,6000.0,-0.0077321943827,0.00849150680006,-0.0077321943827,43.8676300049,0.349065840244,0.0240919683129,0.00450494932011,0.293780118227,-0.00430409377441,-0.00430409377441,0.00106949103065,0.00383045501076,147.010559082,147.010559082,0.417461514473,-1.49243605137,2026,2025,2566,2039,2039,2891,3396,3394,3206,3326,3041,3019,3124,3113,3206,2814,3377,3383,3213,3330,3090,3322,3349,3149
1508405261176617524,140,1508405261176077194,plot_matl,0.25,-500.0,0.137656882405,0.0147586734965,-0.112343117595,-52.5276947021,0.349065840244,0.0404844395816,-0.00775862438604,0.137644976377,-0.00669457484037,-0.00669457484037,0.00901105813682,-0.00588644528762,-1.20008707047,-1.20008707047,-1.13751101494,95.113609314,2009,2060,2125,2024,2024,2673,3299,3322,3126,3269,2979,2943,3031,3062,3147,2924,3371,3361,3203,3262,2913,3256,3284,3003,0.010023342,1.400004364,1.40326788,0.401425719261,4500.0,0.390899777412,0.0124092027545,-0.0105259548873,47.3667945862,0.0,6000.0,-0.00771479029208,0.00814688764513,-0.00771479029208,43.7581481934,0.349065840244,0.0240919683129,0.00450494932011,0.293780118227,-0.00430409377441,-0.00430409377441,0.00106949103065,0.00383045501076,147.010559082,147.010559082,0.417461514473,-1.49243605137,2024,2032,2566,2042,2042,2891,3396,3394,3206,3326,3041,3019,3124,3113,3206,2814,3377,3382,3212,3329,3090,3320,3351,3151
1508405261186401743,141,1508405261186036972,plot_matl,0.25,-500.0,0.137642517686,0.0150536764413,-0.112357474864,-52.4962539673,0.349065840244,0.0404844395816,-0.00775862438604,0.137644976377,-0.00669457484037,-0.00669457484037,0.00901105813682,-0.00588644528762,-1.20008707047,-1.20008707047,-1.13751101494,95.113609314,2018,2057,2125,2024,2024,2675,3300,3322,3126,3269,2980,2944,3031,3062,3148,2924,3371,3361,3203,3262,2913,3256,3284,3003,0.009957402,1.409963541,1.403993682,0.401425719261,4500.0,0.390899777412,0.0111833931878,-0.0105259548873,47.3667945862,0.0,6000.0,-0.00770013220608,0.00786553323269,-0.00770013220608,43.7833328247,0.349065840244,0.0240919683129,0.00450494932011,0.293780118227,-0.00430409377441,-0.00430409377441,0.00106949103065,0.00383045501076,147.010559082,147.010559082,0.417461514473,-1.49243605137,2027,2030,2566,2042,2042,2890,3396,3395,3206,3325,3042,3018,3121,3115,3206,2814,3377,3382,3212,3329,3090,3320,3351,3151
1508405261196294174,142,1508405261196025322,plot_matl,0.25,-500.0,0.137666046619,0.0145705603063,-0.11233394593,-52.6993675232,0.349065840244,0.0404844395816,-0.00775862438604,0.137644976377,-0.00669457484037,-0.00669457484037,0.00901105813682,-0.00588644528762,-1.20008707047,-1.20008707047,-1.13751101494,95.113609314,2014,2061,2124,2024,2024,2675,3300,3322,3126,3269,2980,2944,3031,3062,3148,2923,3373,3364,3205,3262,2913,3258,3285,3003,0.009987972,1.419952058,1.418292024,0.401425719261,4500.0,0.389550298452,-0.0156647264957,-0.01187543571,53.4394645691,0.0,6000.0,-0.00770013220608,0.00786553323269,-0.00770013220608,43.7833328247,0.349065840244,0.0240919683129,0.00450494932011,0.293780118227,-0.00430409377441,-0.00430409377441,0.00106949103065,0.00383045501076,147.010559082,147.010559082,0.417461514473,-1.49243605137,2026,2030,2567,2042,2042,2890,3396,3395,3206,3325,3042,3018,3121,3115,3206,2814,3377,3385,3212,3330,3089,3322,3353,3152
1508405261206358809,143,1508405261206064216,plot_matl,0.25,-500.0,0.137666046619,0.0145705603063,-0.11233394593,-52.6993675232,0.349065840244,0.041833922267,-0.00766647420824,0.137657672167,0.00575534626842,0.00575534626842,0.00719501217827,0.014743892476,-1.18331205845,-1.18331205845,-1.0222107172,95.0255203247,2034,2067,2124,2023,2023,2674,3301,3321,3126,3269,2980,2945,3030,3062,3148,2923,3373,3364,3205,3262,2913,3258,3285,3003,0.01003944,1.429991351,1.43563992,0.401425719261,4500.0,0.389550298452,-0.0147452382371,-0.01187543571,53.4394645691,0.0,6000.0,-0.00767852831632,-0.00598492100835,-0.00767852831632,47.8449935913,0.349065840244,0.0240919683129,0.00447295652702,0.293964773417,-0.00580957345665,-0.00580957345665,-0.013634567149,-9.8710452221e-06,146.925643921,146.925643921,0.349847406149,-1.70355796814,2023,2026,2567,2037,2037,2890,3395,3393,3204,3327,3042,3019,3123,3115,3206,2814,3377,3385,3212,3330,3089,3322,3353,3152
1508405261216393248,144,1508405261216028404,plot_matl,0.25,-500.0,0.137687951326,-0.00671251351014,-0.112312041223,-57.7735061646,0.349065840244,0.041833922267,-0.00766647420824,0.137657672167,0.00575534626842,0.00575534626842,0.00719501217827,0.014743892476,-1.18331205845,-1.18331205845,-1.0222107172,95.0255203247,2037,2067,2124,2023,2023,2674,3301,3321,3126,3269,2980,2945,3030,3062,3146,2921,3372,3364,3202,3260,2912,3258,3286,3003,0.009964769,1.43995608,1.434926736,0.401425719261,4500.0,0.389550298452,-0.0140805849805,-0.01187543571,53.4394645691,0.0,6000.0,-0.00766177196056,0.00710638705641,-0.00766177196056,43.8335762024,0.349065840244,0.0240919683129,0.00447295652702,0.293964773417,-0.00580957345665,-0.00580957345665,-0.013634567149,-9.8710452221e-06,146.925643921,146.925643921,0.349847406149,-1.70355796814,2028,2028,2567,2037,2037,2890,3395,3393,3204,3327,3042,3019,3123,3113,3205,2813,3379,3383,3212,3330,3089,3320,3351,3152
1508405261226208587,145,1508405261226033009,plot_matl,0.25,-500.0,0.137699827552,-0.00696136849001,-0.112300164998,-57.8203086853,0.349065840244,0.041833922267,-0.00766647420824,0.137657672167,0.00575534626842,0.00575534626842,0.00719501217827,0.014743892476,-1.18331205845,-1.18331205845,-1.0222107172,95.0255203247,2027,2078,2125,2023,2023,2676,3299,3322,3125,3270,2980,2945,3030,3062,3146,2921,3372,3364,3202,3260,2912,3258,3286,2999,0.010002064,1.449959486,1.45029928,0.401425719261,4500.0,0.389550298452,-0.0135446460918,-0.01187543571,53.4394645691,0.0,6000.0,-0.00766848865896,0.00725246919319,-0.00766848865896,43.839466095,0.349065840244,0.0240919683129,0.00447295652702,0.293964773417,-0.00580957345665,-0.00580957345665,-0.013634567149,-9.8710452221e-06,146.925643921,146.925643921,0.349847406149,-1.70355796814,2026,2033,2566,2038,2038,2890,3398,3393,3206,3327,3042,3019,3123,3113,3205,2813,3379,3383,3212,3330,3089,3320,3351,3149
1508405261236272470,146,1508405261236038194,plot_matl,0.25,-500.0,0.137699827552,-0.00696136849001,-0.112300164998,-57.8203086853,0.349065840244,0.041833922267,-0.00766647420824,0.137657672167,0.00575534626842,0.00575534626842,0.00719501217827,0.014743892476,-1.18331205845,-1.18331205845,-1.0222107172,95.0255203247,2012,2066,2125,2023,2023,2676,3299,3322,3125,3270,2980,2944,3031,3062,3145,2922,3371,3364,3204,3261,2913,3258,3286,2999,0.010006799,1.45996591,1.460992654,0.401425719261,4500.0,0.390899777412,0.0136880828068,-0.0105259548873,47.3667945862,0.0,6000.0,-0.00767644541338,0.00741761922836,-0.00767644541338,43.8343048096,0.349065840244,0.0240919683129,0.00447295652702,0.293964773417,-0.00580957345665,-0.00580957345665,-0.013634567149,-9.8710452221e-06,146.925643921,146.925643921,0.349847406149,-1.70355796814,2020,2026,2566,2038,2038,2890,3398,3393,3206,3327,3042,3018,3123,3114,3205,2814,3378,3386,3212,3330,3092,3320,3351,3149
1508405261246377341,147,1508405261246035171,plot_matl,0.25,-500.0,0.137738570571,0.0131126139313,-0.112261421978,-52.9641952515,0.349065840244,0.0404844395816,-0.0076781148091,0.137726575136,-0.00678020669147,-0.00678020669147,-0.00597175909206,0.0133697986603,-1.15854406357,-1.15854406357,-0.751303315163,94.8424758911,2025,2061,2124,2024,2024,2674,3300,3322,3125,3270,2980,2944,3031,3062,3145,2922,3371,3364,3204,3261,2913,3257,3286,3001,0.009996757,1.469962923,1.469523279,0.401425719261,4500.0,0.390899777412,0.0141726480797,-0.0105259548873,47.3667945862,0.0,6000.0,-0.00770579231903,-0.00540368072689,-0.00770579231903,47.8692932129,0.349065840244,0.0240919683129,0.00449149683118,0.294109761715,-0.00287660188042,-0.00287660188042,0.00133595441002,-0.0030361446552,146.452575684,146.452575684,0.297968715429,-1.89023697376,2022,2025,2566,2041,2041,2890,3396,3393,3204,3327,3042,3018,3123,3114,3205,2814,3378,3386,3212,3330,3092,3321,3352,3149
1508405261256274682,148,1508405261256044574,plot_matl,0.25,-500.0,0.137724354863,-0.00746371550485,-0.112275652587,-57.9356269836,0.349065840244,0.0404844395816,-0.0076781148091,0.137726575136,-0.00678020669147,-0.00678020669147,-0.00597175909206,0.0133697986603,-1.15854406357,-1.15854406357,-0.751303315163,94.8424758911,2018,2069,2124,2024,2024,2674,3300,3322,3125,3269,2981,2945,3030,3062,3145,2923,3371,3364,3202,3261,2913,3257,3286,3001,0.010008376,1.479972143,1.481239648,0.401425719261,4500.0,0.390899777412,0.0111002745107,-0.0105259548873,47.3667945862,0.0,6000.0,-0.0077057024464,0.00801676884294,-0.0077057024464,43.8257331848,0.349065840244,0.0240919683129,0.00449149683118,0.294109761715,-0.00287660188042,-0.00287660188042,0.00133595441002,-0.0030361446552,146.452575684,146.452575684,0.297968715429,-1.89023697376,2023,2033,2566,2041,2041,2890,3396,3393,3204,3328,3040,3018,3124,3114,3204,2814,3377,3384,3213,3330,3092,3321,3352,3149
1508405261266273573,149,1508405261266040686,plot_matl,0.25,-500.0,0.137724354863,-0.00746371550485,-0.112275652587,-57.9356269836,0.349065840244,0.0404844395816,-0.0076781148091,0.137726575136,-0.00678020669147,-0.00678020669147,-0.00597175909206,0.0133697986603,-1.15854406357,-1.15854406357,-0.751303315163,94.8424758911,2015,2045,2123,2025,2025,2675,3300,3322,3125,3269,2981,2945,3030,3062,3145,2923,3371,3364,3202,3260,2913,3258,3287,3003,0.00999465,1.489967561,1.48920285,0.401425719261,4500.0,0.390899777412,0.0111002745107,-0.0105259548873,47.3667945862,0.0,6000.0,-0.00771689880639,0.00824754312634,-0.00771689880639,43.8296737671,0.349065840244,0.0240919683129,0.00449149683118,0.294109761715,-0.00287660188042,-0.00287660188042,0.00133595441002,-0.0030361446552,146.452575684,146.452575684,0.297968715429,-1.89023697376,2030,2028,2566,2042,2042,2889,3397,3393,3204,3328,3040,3018,3124,3114,3204,2814,3377,3384,3213,3328,3089,3321,3349,3151
1508405261276471703,150,1508405261276031690,plot_matl,0.25,-500.0,0.137652739882,-0.0060286289081,-0.112347267568,-57.5225257874,0.349065840244,0.0404844395816,-0.0076781148091,0.137726575136,-0.00678020669147,-0.00678020669147,-0.00597175909206,0.0133697986603,-1.15854406357,-1.15854406357,-0.751303315163,94.8424758911,2025,2049,2123,2025,2025,2675,3300,3322,3124,3270,2981,2943,3030,3064,3146,2923,3372,3364,3202,3260,2913,3258,3287,3003,0.009991886,1.499959125,1.4987829,0.401425719261,4500.0,0.390899777412,0.0102320797741,-0.0105259548873,47.3667945862,0.0,6000.0,-0.00771686015651,-0.00518745137379,-0.00771686015651,47.7516937256,0.349065840244,0.0240919683129,0.00449149683118,0.294109761715,-0.00287660188042,-0.00287660188042,0.00133595441002,-0.0030361446552,146.452575684,146.452575684,0.297968715429,-1.89023697376,2031,2023,2566,2042,2042,2889,3397,3394,3204,3326,3041,3019,3125,3114,3206,2813,3377,3384,3213,3328,3089,3321,3349,3151
1508405261286491163,151,1508405261286039858,plot_matl,0.25,-500.0,0.137618601322,0.0155184054747,-0.112381391227,-52.5594711304,0.349065840244,0.041833922267,-0.00770634552464,0.137664958835,0.00504910387099,0.00504910387099,-0.00539991213009,-0.00627554161474,-0.858677685261,-0.858677685261,-1.02737808228,95.0071640015,2031,2050,2124,2022,2022,2675,3300,3322,3124,3270,2981,2943,3030,3064,3146,2923,3372,3361,3204,3262,2911,3258,3284,3003,0.010006836,1.509966838,1.511032236,0.401425719261,4500.0,0.389550298452,-0.016880383715,-0.01187543571,53.4394645691,0.0,6000.0,-0.00767852179706,0.00746528944001,-0.00767852179706,43.8891639709,0.349065840244,0.0240919683129,0.00448076007888,0.294169872999,-0.000337285746355,-0.000337285746355,0.00155915913638,-0.00436542229727,146.463027954,146.463027954,0.231708213687,-2.98999714851,2024,2020,2566,2038,2038,2889,3397,3394,3204,3326,3041,3019,3125,3114,3206,2813,3377,3383,3211,3330,3090,3318,3351,3151
