%time,field.header.seq,field.header.stamp,field.header.frame_id,field.FFJ4_set_point,field.FFJ4_position_gain,field.FFJ4_process_value,field.FFJ4_process_value_dot,field.FFJ4_error,field.FFJ4_command,field.FFJ1,field.FFJ2,field.FFJ3,field.FFJ4,field.FFJ1_dot,field.FFJ2_dot,field.FFJ3_dot,field.FFJ4_dot,field.FFJ1_tao,field.FFJ2_tao,field.FFJ3_tao,field.FFJ4_tao,field.pac0,field.pac1,field.pdc0,field.tac0,field.tdc0,field.el0,field.el1,field.el2,field.el3,field.el4,field.el5,field.el6,field.el7,field.el8,field.el9,field.el10,field.el11,field.el12,field.el13,field.el14,field.el15,field.el16,field.el17,field.el18,field.dt,field.time,field.test_time2,field.FFJ0_set_point,field.FFJ0_position_gain,field.FFJ0_process_value,field.FFJ0_process_value_dot,field.FFJ0_error,field.FFJ0_command,field.FFJ3_set_point,field.FFJ3_position_gain,field.FFJ3_process_value,field.FFJ3_process_value_dot,field.FFJ3_error,field.FFJ3_command,field.MFJ1,field.MFJ2,field.MFJ3,field.MFJ4,field.MFJ1_dot,field.MFJ2_dot,field.MFJ3_dot,field.MFJ4_dot,field.MFJ1_tao,field.MFJ2_tao,field.MFJ3_tao,field.MFJ4_tao,field.Mpac0,field.Mpac1,field.Mpdc0,field.Mtac0,field.Mtdc0,field.Mel0,field.Mel1,field.Mel2,field.Mel3,field.Mel4,field.Mel5,field.Mel6,field.Mel7,field.Mel8,field.Mel9,field.Mel10,field.Mel11,field.Mel12,field.Mel13,field.Mel14,field.Mel15,field.Mel16,field.Mel17,field.Mel18
1508404922757042988,103,1508404922756509239,plot_matl,0.25,-5000.0,0.230978056788,-0.00290084490553,-0.0190219432116,-95.8087310791,0.349065840244,0.0256401468068,5.17190783285e-05,0.230975165963,-0.00165106216446,-0.00165106216446,-0.00111265748274,-0.00284271710552,-69.8809509277,-69.8809509277,-0.385589331388,90.5184707642,2022,2064,2114,2030,2030,2694,3314,3335,3139,3283,2994,2966,3049,3077,3157,2926,3379,3374,3210,3271,2921,3268,3307,3029,0.009969639,1.030013402,1.026872817,0.401425719261,4500.0,0.37470600009,-0.00336964591406,-0.02671973221,120.238792419,0.0,6000.0,5.27766278537e-05,-0.00113540911116,0.0,0.0,0.349065840244,0.0216827709228,0.00391497043893,0.295140594244,-0.000297694496112,-0.000297694496112,-0.00229446566664,-0.024752901867,150.124252319,150.124252319,-1.0882447958,0.533234834671,2024,2021,2557,2038,2038,2907,3411,3409,3223,3343,3062,3030,3136,3125,3216,2824,3389,3394,3224,3341,3106,3331,3377,3182
1508404922766786026,104,1508404922766565104,plot_matl,0.25,-5000.0,0.230914145708,-0.00162410130724,-0.0190858505666,-95.8196716309,0.349065840244,0.0256401468068,5.57740131626e-05,0.230912521482,-0.00184849766083,-0.00184849766083,0.0122438641265,-0.00159121572506,-69.8231735229,-69.8231735229,-0.287065178156,90.5201644897,1997,2065,2114,2032,2032,2694,3314,3335,3139,3283,2994,2966,3049,3077,3157,2926,3379,3373,3210,3269,2922,3270,3294,3011,0.010057073,1.040069924,1.045935592,0.401425719261,4500.0,0.37605547905,0.0234941728413,-0.0253702495247,114.166122437,0.0,6000.0,4.31942025898e-05,-0.000929257716052,0.0,0.0,0.349065840244,0.0216827709228,0.00390754593536,0.295261710882,-0.000243591086473,-0.000243591086473,-0.00215471466072,0.0347838439047,150.1431427,150.1431427,-1.00264692307,0.436324030161,2024,2035,2557,2035,2035,2907,3411,3409,3223,3343,3062,3030,3136,3125,3216,2824,3389,3397,3225,3343,3104,3329,3365,3164
1508404922776835292,105,1508404922776560663,plot_matl,0.25,-5000.0,0.230914145708,-0.00162410130724,-0.0190858505666,-95.8196716309,0.349065840244,0.0256401468068,7.18899682397e-05,0.230929523706,-0.00223476882093,-0.00223476882093,0.0119387796149,0.03597728163,-69.8226089478,-69.8226089478,-0.266967594624,90.2788162231,2024,2082,2114,2032,2032,2687,3307,3329,3134,3277,2989,2963,3044,3074,3155,2926,3379,3373,3210,3269,2922,3270,3294,3011,0.009995269,1.050065613,1.049503245,0.401425719261,4500.0,0.37605547905,0.0234941728413,-0.0253702495247,114.166122437,0.0,6000.0,5.98594815528e-05,-0.00124259619042,0.0,0.0,0.349065840244,0.0216827709228,0.00388775160536,0.295359730721,-0.00105819082819,-0.00105819082819,-0.00176585686859,0.0329400859773,150.11730957,150.11730957,-1.00392830372,0.291739702225,2026,2036,2557,2035,2035,2902,3406,3404,3217,3339,3058,3028,3130,3123,3214,2824,3389,3397,3225,3343,3104,3329,3365,3164
1508404922786789304,106,1508404922786527366,plot_matl,0.25,-5000.0,0.230948120356,-0.00234596780501,-0.0190518721938,-95.7763595581,0.349065840244,0.0256401468068,7.24998099031e-05,0.230983436108,-0.00282886973582,-0.00282886973582,-0.00147178117186,0.0348576791584,-69.8547973633,-69.8547973633,-0.318431735039,90.197769165,2036,2087,2113,2032,2032,2687,3307,3329,3134,3277,2989,2963,3044,3074,3155,2924,3377,3369,3209,3268,2919,3266,3293,3011,0.009964914,1.060031524,1.056280884,0.401425719261,4500.0,0.37740495801,0.0487558469176,-0.024020768702,108.093460083,0.0,6000.0,7.3982286267e-05,-0.00150187616237,0.0,0.0,0.349065840244,0.0192735753953,0.00388412945904,0.295395970345,-0.0242696274072,-0.0242696274072,-0.00169871689286,0.0323468409479,150.017578125,150.017578125,-1.15422928333,0.323093056679,2024,2032,2557,2035,2035,2902,3406,3404,3217,3339,3058,3028,3130,3123,3214,2822,3388,3392,3221,3340,3101,3329,3360,3161
1508404922796737772,107,1508404922796510706,plot_matl,0.25,-5000.0,0.230948120356,-0.00234596780501,-0.0190518721938,-95.7763595581,0.349065840244,0.0256401468068,7.24998099031e-05,0.230983436108,-0.00282886973582,-0.00282886973582,-0.00147178117186,0.0348576791584,-69.8547973633,-69.8547973633,-0.318431735039,90.197769165,2026,2054,2113,2031,2031,2686,3307,3329,3132,3277,2988,2962,3042,3074,3155,2924,3377,3369,3209,3268,2919,3266,3293,3011,0.009982424,1.070014647,1.068119368,0.401425719261,4500.0,0.37740495801,0.0487558469176,-0.024020768702,108.093460083,0.0,6000.0,7.3982286267e-05,-0.00150187616237,0.0,0.0,0.349065840244,0.0192735753953,0.00388412945904,0.295395970345,-0.0242696274072,-0.0242696274072,-0.00169871689286,0.0323468409479,150.017578125,150.017578125,-1.15422928333,0.323093056679,2034,2025,2557,2035,2035,2901,3406,3403,3216,3339,3058,3027,3130,3123,3214,2822,3388,3392,3221,3340,3101,3329,3360,3161
1508404922806968345,108,1508404922806574987,plot_matl,0.25,-5000.0,0.231203198433,0.0321473032236,-0.0187967997044,-86.7044906616,0.349065840244,0.0256401468068,6.02686486673e-05,0.231174021959,-0.00219437526539,-0.00219437526539,-0.00122432981152,-0.0432044714689,-69.9016418457,-69.9016418457,-0.671100914478,90.5582809448,2041,2067,2113,2031,2031,2686,3307,3329,3132,3277,2988,2962,3042,3074,3169,2934,3388,3379,3217,3276,2925,3275,3298,3011,0.010065461,1.080079576,1.087069788,0.401425719261,4500.0,0.37470600009,-0.00475341035053,-0.02671973221,120.238792419,0.0,6000.0,6.52763555991e-05,-0.00132605899125,0.0,0.0,0.349065840244,0.0216827709228,0.00385629967786,0.295597046614,-0.000366217369447,-0.000366217369447,-0.00115070352331,-0.0365787521005,150.302932739,150.302932739,-1.15104961395,0.486587166786,2032,2026,2557,2035,2035,2901,3406,3403,3216,3339,3058,3027,3130,3122,3229,2833,3397,3402,3229,3350,3109,3337,3366,3161
1508404922816890604,109,1508404922816517636,plot_matl,0.25,-5000.0,0.231174215674,-0.00540343811736,-0.0188257806003,-95.7824859619,0.349065840244,0.0256401468068,6.02686486673e-05,0.231174021959,-0.00219437526539,-0.00219437526539,-0.00122432981152,-0.0432044714689,-69.9016418457,-69.9016418457,-0.671100914478,90.5582809448,2020,2061,2114,2030,2030,2690,3309,3330,3134,3280,2991,2962,3042,3074,3169,2934,3388,3379,3217,3276,2925,3275,3298,3016,0.009942795,1.090022516,1.083764655,0.401425719261,4500.0,0.37470600009,-0.00389161566272,-0.02671973221,120.238792419,0.0,6000.0,5.34417304152e-05,-0.00108564412221,0.0,0.0,0.349065840244,0.0216827709228,0.00385629967786,0.295597046614,-0.000366217369447,-0.000366217369447,-0.00115070352331,-0.0365787521005,150.302932739,150.302932739,-1.15104961395,0.486587166786,2031,2035,2557,2036,2036,2902,3406,3404,3217,3341,3060,3027,3130,3122,3229,2833,3397,3402,3229,3350,3109,3337,3366,3169
1508404922826853597,110,1508404922826528189,plot_matl,0.25,-5000.0,0.231113314629,-0.00443879980594,-0.0188866816461,-95.7881698608,0.349065840244,0.0256401468068,6.02686486673e-05,0.231174021959,-0.00219437526539,-0.00219437526539,-0.00122432981152,-0.0432044714689,-69.9016418457,-69.9016418457,-0.671100914478,90.5582809448,2006,2043,2114,2030,2030,2690,3309,3330,3134,3280,2991,2964,3045,3074,3156,2926,3380,3372,3208,3268,2920,3275,3298,3016,0.010008689,1.100032197,1.10095579,0.401425719261,4500.0,0.37335652113,-0.0308951102197,-0.0280692130327,126.311454773,0.0,6000.0,5.53391873837e-05,-0.00112479773816,0.0,0.0,0.349065840244,0.0216827709228,0.00385629967786,0.295597046614,-0.000366217369447,-0.000366217369447,-0.00115070352331,-0.0365787521005,150.302932739,150.302932739,-1.15104961395,0.486587166786,2028,2033,2557,2036,2036,2902,3406,3404,3217,3341,3060,3028,3134,3123,3216,2824,3386,3391,3222,3341,3105,3337,3366,3169
1508404922836775148,111,1508404922836515810,plot_matl,0.25,-5000.0,0.231129482388,-0.00497702741995,-0.0188705231994,-95.8364639282,0.349065840244,0.0256401468068,6.02686486673e-05,0.231174021959,-0.00219437526539,-0.00219437526539,-0.00122432981152,-0.0432044714689,-69.9016418457,-69.9016418457,-0.671100914478,90.5582809448,2022,2045,2114,2032,2032,2685,3306,3329,3133,3280,2991,2964,3045,3074,3156,2926,3380,3372,3208,3268,2920,3267,3294,3011,0.009988413,1.110020414,1.108713843,0.401425719261,4500.0,0.37470600009,-0.00300658913329,-0.02671973221,120.238792419,0.0,6000.0,4.52509011666e-05,-0.000919748097658,0.0,0.0,0.349065840244,0.0216827709228,0.00385629967786,0.295597046614,-0.000366217369447,-0.000366217369447,-0.00115070352331,-0.0365787521005,150.302932739,150.302932739,-1.15104961395,0.486587166786,2029,2017,2557,2036,2036,2900,3403,3404,3216,3341,3060,3028,3134,3123,3216,2824,3386,3391,3222,3341,3105,3328,3362,3163
1508404922846664372,112,1508404922846500765,plot_matl,0.25,-5000.0,0.231175765395,-0.00611107330769,-0.0188242327422,-95.7902526855,0.349065840244,0.0256401468068,2.99329203699e-05,0.231140568852,-0.00112736632582,-0.00112736632582,-0.000602781132329,-0.00529673229903,-69.9133758545,-69.9133758545,-0.54368442297,90.3797149658,2019,2046,2114,2032,2032,2685,3306,3329,3133,3276,2990,2961,3043,3073,3155,2924,3376,3367,3208,3268,2920,3267,3294,3011,0.009982312,1.120004287,1.118018944,0.401425719261,4500.0,0.37470600009,-0.00300658913329,-0.02671973221,120.238792419,0.0,6000.0,4.52509011666e-05,-0.000919748097658,0.0,0.0,0.349065840244,0.0216827709228,0.00389915774576,0.295578509569,0.000869739975315,0.000869739975315,0.0133141605183,-0.0347063466907,150.358383179,150.358383179,-0.944162786007,0.889207184315,2033,2027,2557,2036,2036,2900,3403,3404,3216,3337,3056,3026,3133,3122,3213,2822,3384,3392,3221,3341,3105,3328,3362,3163
1508404922856704077,113,1508404922856500364,plot_matl,0.25,-5000.0,0.23107996583,-0.00432175816968,-0.0189200323075,-95.7693939209,0.349065840244,0.0256401468068,2.99329203699e-05,0.231140568852,-0.00112736632582,-0.00112736632582,-0.000602781132329,-0.00529673229903,-69.9133758545,-69.9133758545,-0.54368442297,90.3797149658,2017,2045,2114,2030,2030,2686,3306,3329,3133,3276,2990,2961,3043,3073,3155,2924,3376,3367,3208,3266,2919,3264,3291,3009,0.009999916,1.130003972,1.129990508,0.401425719261,4500.0,0.37470600009,-0.00166000192985,-0.02671973221,120.238792419,0.0,6000.0,3.26535991917e-05,-0.000659055134747,0.0,0.0,0.349065840244,0.0216827709228,0.00389915774576,0.295578509569,0.000869739975315,0.000869739975315,0.0133141605183,-0.0347063466907,150.358383179,150.358383179,-0.944162786007,0.889207184315,2033,2027,2557,2036,2036,2899,3404,3404,3216,3337,3056,3026,3133,3122,3213,2822,3384,3392,3221,3340,3102,3327,3361,3162
1508404922866637422,114,1508404922866498641,plot_matl,0.25,-5000.0,0.23107996583,-0.00432175816968,-0.0189200323075,-95.7693939209,0.349065840244,0.0256401468068,2.99329203699e-05,0.231140568852,-0.00112736632582,-0.00112736632582,-0.000602781132329,-0.00529673229903,-69.9133758545,-69.9133758545,-0.54368442297,90.3797149658,2017,2045,2114,2030,2030,2686,3306,3329,3133,3276,2990,2961,3043,3073,3155,2924,3376,3367,3208,3266,2919,3264,3291,3009,0.009997868,1.140002256,1.139756952,0.401425719261,4500.0,0.37470600009,-0.00166000192985,-0.02671973221,120.238792419,0.0,6000.0,3.26535991917e-05,-0.000659055134747,0.0,0.0,0.349065840244,0.0216827709228,0.00389915774576,0.295578509569,0.000869739975315,0.000869739975315,0.0133141605183,-0.0347063466907,150.358383179,150.358383179,-0.944162786007,0.889207184315,2033,2027,2557,2036,2036,2899,3404,3404,3216,3337,3056,3026,3133,3122,3213,2822,3384,3392,3221,3340,3102,3327,3361,3162
1508404922876772095,115,1508404922876538096,plot_matl,0.25,-5000.0,0.230791151524,-0.000376576936105,-0.0192088540643,-95.842590332,0.349065840244,0.0256401468068,2.99329203699e-05,0.231140568852,-0.00112736632582,-0.00112736632582,-0.000602781132329,-0.00529673229903,-69.9133758545,-69.9133758545,-0.54368442297,90.3797149658,2046,2074,2114,2030,2030,2686,3306,3327,3133,3276,2989,2977,3053,3087,3169,2934,3389,3367,3208,3266,2919,3264,3291,3009,0.010040946,1.150042475,1.15470879,0.401425719261,4500.0,0.37605547905,0.0251452773809,-0.0253702495247,114.166122437,0.0,6000.0,2.50088419307e-06,-5.21600704815e-05,0.0,0.0,0.349065840244,0.0216827709228,0.00389915774576,0.295578509569,0.000869739975315,0.000869739975315,0.0133141605183,-0.0347063466907,150.358383179,150.358383179,-0.944162786007,0.889207184315,2030,2027,2557,2036,2036,2899,3404,3403,3216,3338,3055,3042,3143,3132,3226,2833,3398,3392,3221,3340,3102,3327,3361,3162
1508404922886947192,116,1508404922886532457,plot_matl,0.25,-5000.0,0.230801597238,-0.0382143743336,-0.0191984008998,-104.114021301,0.349065840244,0.0256401468068,-2.66835577349e-05,0.230796158314,-0.00159162958153,-0.00159162958153,0.000420505268266,-0.000294132012641,-69.8702316284,-69.8702316284,0.262149363756,89.9435043335,2020,2062,2113,2030,2030,2686,3306,3327,3133,3276,2989,2977,3053,3087,3169,2934,3389,3378,3217,3277,2925,3273,3298,3016,0.009994827,1.160037312,1.159399932,0.401425719261,4500.0,0.37470600009,-0.00293999328278,-0.02671973221,120.238792419,0.0,6000.0,-1.17676172522e-05,0.000123561665532,0.0,0.0,0.349065840244,0.0240919683129,0.00388163584284,0.29526284337,0.0257133301347,0.0257133301347,0.0136558078229,-0.0276437457651,150.365371704,150.365371704,-0.693735361099,1.94044101238,2028,2029,2557,2034,2034,2899,3404,3403,3216,3338,3055,3042,3143,3132,3226,2833,3398,3402,3229,3347,3110,3335,3366,3168
1508404922896945410,117,1508404922896524718,plot_matl,0.25,-5000.0,0.230773687363,0.000447391532362,-0.0192263107747,-95.8462677002,0.349065840244,0.0256401468068,-2.66835577349e-05,0.230796158314,-0.00159162958153,-0.00159162958153,0.000420505268266,-0.000294132012641,-69.8702316284,-69.8702316284,0.262149363756,89.9435043335,2025,2071,2113,2030,2030,2689,3310,3332,3135,3280,2990,2964,3043,3073,3156,2934,3389,3378,3217,3277,2925,3273,3298,3016,0.009991274,1.170029317,1.168979058,0.401425719261,4500.0,0.37470600009,-0.00246011069976,-0.02671973221,120.238792419,0.0,6000.0,1.86730562746e-06,-0.000126757615362,0.0,0.0,0.349065840244,0.0240919683129,0.00388163584284,0.29526284337,0.0257133301347,0.0257133301347,0.0136558078229,-0.0276437457651,150.365371704,150.365371704,-0.693735361099,1.94044101238,2022,2030,2557,2034,2034,2904,3407,3407,3219,3340,3060,3029,3133,3124,3215,2833,3398,3402,3229,3347,3110,3335,3366,3168
1508404922906826075,118,1508404922906548751,plot_matl,0.25,-5000.0,0.230749502778,0.0010816383874,-0.0192505009472,-95.8422012329,0.349065840244,0.0256401468068,-2.66835577349e-05,0.230796158314,-0.00159162958153,-0.00159162958153,0.000420505268266,-0.000294132012641,-69.8702316284,-69.8702316284,0.262149363756,89.9435043335,2035,2064,2114,2030,2030,2689,3310,3332,3135,3280,2990,2964,3043,3073,3156,2926,3379,3374,3207,3270,2920,3268,3293,3011,0.010022901,1.180052975,1.182702318,0.401425719261,4500.0,0.37335652113,-0.0297454427928,-0.0280692130327,126.311454773,0.0,6000.0,1.52780785356e-06,-0.000103711616248,0.0,0.0,0.349065840244,0.0240919683129,0.00388163584284,0.29526284337,0.0257133301347,0.0257133301347,0.0136558078229,-0.0276437457651,150.365371704,150.365371704,-0.693735361099,1.94044101238,2029,2022,2557,2034,2034,2904,3407,3407,3219,3340,3060,3029,3133,3124,3215,2824,3388,3394,3223,3341,3102,3330,3362,3164
1508404922916730857,119,1508404922916523278,plot_matl,0.25,-5000.0,0.230764821172,0.000885304762051,-0.0192351862788,-95.8485717773,0.349065840244,0.0256401468068,-2.66835577349e-05,0.230796158314,-0.00159162958153,-0.00159162958153,0.000420505268266,-0.000294132012641,-69.8702316284,-69.8702316284,0.262149363756,89.9435043335,2030,2060,2114,2029,2029,2685,3307,3330,3132,3278,2991,2962,3044,3073,3156,2926,3379,3374,3207,3270,2920,3268,3293,3011,0.009974927,1.190027847,1.187016313,0.401425719261,4500.0,0.37470600009,-0.00156767223962,-0.02671973221,120.238792419,0.0,6000.0,1.38161594805e-05,-0.000328405818436,0.0,0.0,0.349065840244,0.0240919683129,0.00388163584284,0.29526284337,0.0257133301347,0.0257133301347,0.0136558078229,-0.0276437457651,150.365371704,150.365371704,-0.693735361099,1.94044101238,2032,2025,2557,2035,2035,2901,3404,3403,3217,3338,3058,3028,3131,3124,3215,2824,3388,3394,3223,3341,3102,3330,3362,3164
1508404922926824074,120,1508404922926541218,plot_matl,0.25,-5000.0,0.230876818299,-0.00127398071345,-0.0191231761128,-95.8245773315,0.349065840244,0.0256401468068,2.43568847509e-05,0.230841368437,-0.000695355527569,-0.000695355527569,-0.000541251327377,-0.000596495403443,-69.9374008179,-69.9374008179,-0.330392926931,88.7765045166,2027,2056,2114,2029,2029,2685,3307,3330,3132,3278,2991,2962,3044,3074,3156,2923,3375,3369,3207,3268,2919,3267,3293,3011,0.010007871,1.200045962,1.20094452,0.401425719261,4500.0,0.37470600009,-0.00178701081313,-0.02671973221,120.238792419,0.0,6000.0,3.5249740904e-05,-0.000755897955969,0.0,0.0,0.349065840244,0.0216827709228,0.00389455491677,0.295430004597,0.00220164097846,0.00220164097846,-0.00194272433873,0.0314047895372,150.288192749,150.288192749,-1.0195826292,1.54101908207,2029,2026,2557,2035,2035,2901,3404,3403,3217,3338,3058,3028,3131,3123,3212,2822,3385,3393,3219,3339,3103,3329,3360,3164
1508404922936906549,121,1508404922936539577,plot_matl,0.25,-5000.0,0.230902671814,-0.00171686022077,-0.0190973300487,-95.8215637207,0.349065840244,0.0256401468068,2.43568847509e-05,0.230841368437,-0.000695355527569,-0.000695355527569,-0.000541251327377,-0.000596495403443,-69.9374008179,-69.9374008179,-0.330392926931,88.7765045166,2018,2063,2113,2029,2029,2687,3305,3328,3131,3278,2988,2962,3044,3074,3156,2923,3375,3369,3207,3268,2919,3267,3293,3010,0.00999802,1.210044217,1.20976042,0.401425719261,4500.0,0.37470600009,-0.00199204985984,-0.02671973221,120.238792419,0.0,6000.0,4.27639024565e-05,-0.000868414179422,0.0,0.0,0.349065840244,0.0216827709228,0.00389455491677,0.295430004597,0.00220164097846,0.00220164097846,-0.00194272433873,0.0314047895372,150.288192749,150.288192749,-1.0195826292,1.54101908207,2025,2026,2557,2039,2039,2899,3404,3402,3216,3338,3056,3028,3131,3123,3212,2822,3385,3393,3219,3339,3103,3329,3360,3163
1508404922947037911,122,1508404922946556845,plot_matl,0.25,-5000.0,0.230923175812,-0.00206434470601,-0.0190768241882,-95.8192672729,0.349065840244,0.0256401468068,2.43568847509e-05,0.230841368437,-0.000695355527569,-0.000695355527569,-0.000541251327377,-0.000596495403443,-69.9374008179,-69.9374008179,-0.330392926931,88.7765045166,2008,2039,2113,2029,2029,2687,3305,3328,3131,3278,2988,2961,3043,3074,3155,2923,3376,3370,3208,3267,2919,3267,3293,3010,0.010017133,1.220061425,1.222090226,0.401425719261,4500.0,0.37470600009,-0.00210459250957,-0.02671973221,120.238792419,0.0,6000.0,3.44971485902e-05,-0.000698707823176,0.0,0.0,0.349065840244,0.0216827709228,0.00389455491677,0.295430004597,0.00220164097846,0.00220164097846,-0.00194272433873,0.0314047895372,150.288192749,150.288192749,-1.0195826292,1.54101908207,2023,2024,2557,2039,2039,2899,3404,3402,3216,3338,3056,3025,3130,3122,3213,2822,3385,3392,3222,3340,3101,3329,3360,3163
1508404922956883784,123,1508404922956647690,plot_matl,0.25,-5000.0,0.230974137783,-0.00306557514705,-0.0190258622169,-95.8402938843,0.349065840244,0.0256401468068,2.43568847509e-05,0.230841368437,-0.000695355527569,-0.000695355527569,-0.000541251327377,-0.000596495403443,-69.9374008179,-69.9374008179,-0.330392926931,88.7765045166,2010,2043,2113,2029,2029,2687,3304,3328,3132,3278,2988,2961,3043,3074,3155,2923,3376,3370,3208,3267,2919,3265,3291,3010,0.010089146,1.230151678,1.240964958,0.401425719261,4500.0,0.37470600009,-0.00223776511848,-0.02671973221,120.238792419,0.0,6000.0,5.41724220966e-05,0.0123336724937,0.0,0.0,0.349065840244,0.0216827709228,0.00389455491677,0.295430004597,0.00220164097846,0.00220164097846,-0.00194272433873,0.0314047895372,150.288192749,150.288192749,-1.0195826292,1.54101908207,2027,2027,2557,2035,2035,2899,3404,3402,3217,3338,3056,3025,3130,3122,3213,2822,3385,3392,3222,3340,3101,3330,3361,3162
1508404922966824084,124,1508404922966543308,plot_matl,0.25,-5000.0,0.230951562524,-0.00256534246728,-0.0190484430641,-95.8185348511,0.349065840244,0.0256401468068,4.81043571199e-05,0.230923444033,-0.000993552152067,-0.000993552152067,-0.000963190512266,-0.00201447843574,-69.9175949097,-69.9175949097,-0.427819728851,88.5719299316,2011,2061,2113,2029,2029,2687,3304,3328,3132,3279,2988,2961,3042,3072,3153,2924,3374,3369,3207,3267,2919,3265,3291,3010,0.009896264,1.240047726,1.227136736,0.401425719261,4500.0,0.37470600009,-0.00183396297507,-0.02671973221,120.238792419,0.0,6000.0,5.67967035749e-05,-0.00113896746188,0.0,0.0,0.349065840244,0.0216827709228,0.003883310128,0.295639544725,0.00246431306005,0.00246431306005,-0.00173392042052,-0.0343016572297,150.635803223,150.635803223,-0.544726490974,0.97926646471,2021,2032,2557,2035,2035,2899,3404,3402,3217,3338,3055,3026,3131,3122,3213,2821,3385,3391,3221,3340,3101,3330,3361,3162
1508404922976985414,125,1508404922976541212,plot_matl,0.25,-5000.0,0.231030523777,-0.00412933947518,-0.018969476223,-95.8209686279,0.349065840244,0.0256401468068,4.81043571199e-05,0.230923444033,-0.000993552152067,-0.000993552152067,-0.000963190512266,-0.00201447843574,-69.9175949097,-69.9175949097,-0.427819728851,88.5719299316,2017,2054,2114,2030,2030,2686,3304,3328,3132,3279,2988,2961,3042,3072,3153,2924,3374,3369,3207,3267,2918,3265,3294,3012,0.009997919,1.250045921,1.249739875,0.401425719261,4500.0,0.37470600009,-0.000988224637695,-0.02671973221,120.238792419,0.0,6000.0,8.12377256807e-05,-0.0016372614773,0.0,0.0,0.349065840244,0.0216827709228,0.003883310128,0.295639544725,0.00246431306005,0.00246431306005,-0.00173392042052,-0.0343016572297,150.635803223,150.635803223,-0.544726490974,0.97926646471,2027,2027,2557,2033,2033,2899,3403,3402,3217,3338,3055,3026,3131,3122,3213,2821,3385,3391,3221,3340,3101,3328,3362,3161
1508404922986968284,126,1508404922986524167,plot_matl,0.25,-5000.0,0.231164336205,-0.00679077068344,-0.0188356563449,-95.7970046997,0.349065840244,0.0256401468068,4.81043571199e-05,0.230923444033,-0.000993552152067,-0.000993552152067,-0.000963190512266,-0.00201447843574,-69.9175949097,-69.9175949097,-0.427819728851,88.5719299316,2020,2054,2114,2030,2030,2686,3304,3329,3130,3280,2989,2962,3043,3072,3154,2921,3376,3369,3207,3267,2918,3265,3294,3012,0.009982078,1.260028531,1.257741828,0.401425719261,4500.0,0.37470600009,-0.000299201870803,-0.02671973221,120.238792419,0.0,6000.0,7.71240811446e-05,-0.00156922033057,0.0,0.0,0.349065840244,0.0216827709228,0.003883310128,0.295639544725,0.00246431306005,0.00246431306005,-0.00173392042052,-0.0343016572297,150.635803223,150.635803223,-0.544726490974,0.97926646471,2033,2030,2557,2033,2033,2899,3403,3402,3215,3337,3056,3025,3129,3122,3212,2823,3383,3391,3221,3340,3101,3328,3362,3161
1508404922996885074,127,1508404922996517396,plot_matl,0.25,-5000.0,0.231214240193,0.0301411002874,-0.0187857616693,-86.5348739624,0.349065840244,0.0256401468068,4.81043571199e-05,0.230923444033,-0.000993552152067,-0.000993552152067,-0.000963190512266,-0.00201447843574,-69.9175949097,-69.9175949097,-0.427819728851,88.5719299316,2023,2062,2114,2030,2030,2686,3304,3329,3130,3280,2989,2962,3043,3072,3154,2921,3376,3369,3207,3266,2917,3266,3291,3011,0.009993414,1.270021995,1.269163578,0.401425719261,4500.0,0.37605547905,0.0274044219404,-0.0253702495247,114.166122437,0.0,6000.0,7.57380694267e-05,-0.00154441641644,0.0,0.0,0.349065840244,0.0216827709228,0.003883310128,0.295639544725,0.00246431306005,0.00246431306005,-0.00173392042052,-0.0343016572297,150.635803223,150.635803223,-0.544726490974,0.97926646471,2027,2029,2557,2036,2036,2899,3403,3402,3215,3337,3056,3025,3129,3122,3212,2823,3383,3391,3221,3339,3100,3327,3360,3162
1508404923006902384,128,1508404923006562186,plot_matl,0.25,-5000.0,0.231115147471,-0.00574120273814,-0.0188848488033,-95.7452087402,0.349065840244,0.0256401468068,0.000104879502032,0.231138452888,-0.000215079751797,-0.000215079751797,-0.002119674813,-0.00621675513685,-69.924369812,-69.924369812,0.000423231889727,89.0240859985,2021,2061,2114,2030,2030,2685,3305,3329,3130,3278,2988,2961,3042,3074,3152,2921,3376,3369,3207,3266,2917,3266,3291,3011,0.010045321,1.280066685,1.285801088,0.401425719261,4500.0,0.37470600009,-0.00039725433453,-0.02671973221,120.238792419,0.0,6000.0,0.000109609209176,0.0112038422376,0.0,0.0,0.349065840244,0.0216827709228,0.00388429220766,0.295747101307,0.0035627244506,0.0035627244506,-0.00176996528171,-0.0364528261125,150.480865479,150.480865479,-0.491262227297,0.715900659561,2024,2029,2557,2036,2036,2900,3404,3402,3215,3337,3056,3024,3130,3122,3213,2823,3383,3391,3221,3339,3100,3327,3360,3162
1508404923016690898,129,1508404923016498057,plot_matl,0.25,-5000.0,0.231132164598,-0.00603441754356,-0.0188678316772,-95.7577972412,0.349065840244,0.0256401468068,0.000104879502032,0.231138452888,-0.000215079751797,-0.000215079751797,-0.002119674813,-0.00621675513685,-69.924369812,-69.924369812,0.000423231889727,89.0240859985,2021,2061,2114,2030,2030,2685,3305,3329,3130,3278,2988,2961,3042,3074,3152,2921,3376,3369,3207,3266,2917,3266,3291,3011,0.009933048,1.290001815,1.281363192,0.401425719261,4500.0,0.37470600009,-0.00125362875406,-0.02671973221,120.238792419,0.0,6000.0,0.000112292749691,-0.00229020812549,0.0,0.0,0.349065840244,0.0216827709228,0.00388429220766,0.295747101307,0.0035627244506,0.0035627244506,-0.00176996528171,-0.0364528261125,150.480865479,150.480865479,-0.491262227297,0.715900659561,2024,2029,2557,2036,2036,2900,3404,3402,3215,3337,3056,3024,3130,3122,3213,2823,3383,3391,3221,3339,3100,3327,3360,3162
1508404923026864309,130,1508404923026537939,plot_matl,0.25,-5000.0,0.231109797955,-0.00559493293986,-0.0188902020454,-95.7104644775,0.349065840244,0.0256401468068,0.000104879502032,0.231138452888,-0.000215079751797,-0.000215079751797,-0.002119674813,-0.00621675513685,-69.924369812,-69.924369812,0.000423231889727,89.0240859985,2035,2065,2114,2027,2027,2687,3303,3328,3132,3275,2988,2963,3043,3074,3152,2924,3376,3371,3207,3268,2918,3266,3292,3011,0.01004089,1.300042127,1.3053157,0.401425719261,4500.0,0.37470600009,-0.00100658915471,-0.02671973221,120.238792419,0.0,6000.0,0.000130450542201,0.0107805412263,0.0,0.0,0.349065840244,0.0216827709228,0.00388429220766,0.295747101307,0.0035627244506,0.0035627244506,-0.00176996528171,-0.0364528261125,150.480865479,150.480865479,-0.491262227297,0.715900659561,2029,2023,2557,2036,2036,2899,3402,3401,3215,3337,3056,3026,3132,3122,3213,2821,3383,3390,3220,3339,3102,3328,3362,3162
1508404923037035745,131,1508404923036557486,plot_matl,0.25,-5000.0,0.231092885137,-0.0052469628863,-0.0189071111381,-95.8469467163,0.349065840244,0.0256401468068,0.000104879502032,0.231138452888,-0.000215079751797,-0.000215079751797,-0.002119674813,-0.00621675513685,-69.924369812,-69.924369812,0.000423231889727,89.0240859985,2029,2057,2114,2027,2027,2687,3303,3328,3132,3275,2988,2963,3043,3073,3153,2923,3375,3370,3210,3266,2919,3264,3292,3011,0.010023272,1.310063169,1.313048632,0.401425719261,4500.0,0.37470600009,-0.00129412079696,-0.02671973221,120.238792419,0.0,6000.0,0.000118386749818,-0.00239992048591,0.0,0.0,0.349065840244,0.0216827709228,0.00388429220766,0.295747101307,0.0035627244506,0.0035627244506,-0.00176996528171,-0.0364528261125,150.480865479,150.480865479,-0.491262227297,0.715900659561,2031,2026,2557,2036,2036,2899,3402,3401,3215,3337,3056,3026,3132,3120,3213,2822,3384,3390,3220,3338,3100,3327,3361,3162
1508404923046716484,132,1508404923046519989,plot_matl,0.25,-5000.0,0.231014594436,-0.00367534882389,-0.0189854092896,-95.8059234619,0.349065840244,0.0256401468068,0.00010509621643,0.231029644608,-0.000835033715703,-0.000835033715703,-0.00213049654849,-0.00398137792945,-69.9380493164,-69.9380493164,0.0445610396564,89.756401062,2021,2053,2113,2028,2028,2685,3304,3328,3131,3276,2988,2963,3043,3073,3153,2923,3375,3370,3210,3266,2919,3264,3292,3008,0.009957238,1.320023786,1.314355416,0.401425719261,4500.0,0.37470600009,-0.00205910671502,-0.02671973221,120.238792419,0.0,6000.0,7.13494591764e-05,-0.0148669900373,0.0,0.0,0.349065840244,0.0216827709228,0.00385516975075,0.295459270477,0.0021617366001,0.0021617366001,-0.00119074794929,-0.0305005051196,150.496505737,150.496505737,-0.629435956478,1.01137280464,2033,2030,2557,2036,2036,2899,3403,3402,3215,3338,3056,3026,3132,3120,3213,2822,3384,3390,3220,3338,3100,3327,3361,3162
1508404923056671141,133,1508404923056490289,plot_matl,0.25,-5000.0,0.230947420001,-0.00231599085964,-0.0190525818616,-95.8135223389,0.349065840244,0.0256401468068,0.00010509621643,0.231029644608,-0.000835033715703,-0.000835033715703,-0.00213049654849,-0.00398137792945,-69.9380493164,-69.9380493164,0.0445610396564,89.756401062,2014,2066,2113,2028,2028,2685,3304,3328,3131,3276,2988,2960,3043,3074,3153,2925,3376,3369,3205,3267,2917,3264,3292,3008,0.009968936,1.329993562,1.325868488,0.401425719261,4500.0,0.37605547905,0.02599253878,-0.0253702495247,114.166122437,0.0,6000.0,8.22630972834e-05,-0.00166739500128,0.0,0.0,0.349065840244,0.0216827709228,0.00385516975075,0.295459270477,0.0021617366001,0.0021617366001,-0.00119074794929,-0.0305005051196,150.496505737,150.496505737,-0.629435956478,1.01137280464,2023,2030,2557,2036,2036,2899,3403,3402,3215,3338,3056,3026,3131,3121,3211,2820,3383,3392,3220,3339,3101,3327,3361,3162
1508404923066798613,134,1508404923066536696,plot_matl,0.25,-5000.0,0.230960950255,0.0353508889675,-0.019039047882,-86.4393539429,0.349065840244,0.0256401468068,0.00010509621643,0.231029644608,-0.000835033715703,-0.000835033715703,-0.00213049654849,-0.00398137792945,-69.9380493164,-69.9380493164,0.0445610396564,89.756401062,2008,2062,2115,2029,2029,2687,3304,3329,3131,3276,2988,2960,3043,3074,3153,2925,3376,3369,3205,3267,2917,3265,3290,3011,0.010048613,1.340041135,1.346514142,0.401425719261,4500.0,0.37605547905,0.0257150512189,-0.0253702495247,114.166122437,0.0,6000.0,0.000104571998236,-0.0021172366105,0.0,0.0,0.349065840244,0.0216827709228,0.00385516975075,0.295459270477,0.0021617366001,0.0021617366001,-0.00119074794929,-0.0305005051196,150.496505737,150.496505737,-0.629435956478,1.01137280464,2021,2029,2557,2038,2038,2899,3404,3402,3215,3338,3056,3026,3131,3121,3211,2820,3383,3392,3220,3339,3101,3327,3361,3162
1508404923076789805,135,1508404923076567099,plot_matl,0.25,-5000.0,0.230905011296,-0.00140177842695,-0.0190949905664,-95.8244094849,0.349065840244,0.0256401468068,0.00010509621643,0.231029644608,-0.000835033715703,-0.000835033715703,-0.00213049654849,-0.00398137792945,-69.9380493164,-69.9380493164,0.0445610396564,89.756401062,2011,2074,2115,2029,2029,2687,3304,3329,3131,3275,2990,2960,3043,3071,3154,2923,3376,3369,3207,3267,2917,3265,3290,3011,0.010030382,1.350071709,1.35410157,0.401425719261,4500.0,0.37470600009,-0.00178710080218,-0.02671973221,120.238792419,0.0,6000.0,8.56796250446e-05,-0.00173472880851,0.0,0.0,0.349065840244,0.0216827709228,0.00385516975075,0.295459270477,0.0021617366001,0.0021617366001,-0.00119074794929,-0.0305005051196,150.496505737,150.496505737,-0.629435956478,1.01137280464,2022,2040,2557,2038,2038,2899,3404,3402,3215,3336,3054,3025,3131,3121,3214,2820,3386,3391,3221,3339,3101,3327,3361,3162
1508404923086946087,136,1508404923086524482,plot_matl,0.25,-5000.0,0.23099078238,-0.00314176641405,-0.0190092176199,-95.8506088257,0.349065840244,0.0256401468068,7.59224931244e-05,0.230969309807,-0.000791793572716,-0.000791793572716,-0.00153717922512,0.0352377705276,-69.911781311,-69.911781311,-0.238113150001,89.8860931396,2019,2069,2114,2031,2031,2686,3302,3329,3131,3275,2990,2960,3043,3071,3154,2923,3376,3369,3207,3266,2918,3265,3291,3010,0.009957873,1.360029996,1.354270728,0.401425719261,4500.0,0.37335652113,-0.0281681232154,-0.0280692130327,126.311454773,0.0,6000.0,7.00813543517e-05,-0.00141891546082,0.0,0.0,0.349065840244,0.0216827709228,0.00389524130151,0.295212894678,0.00031950281118,0.00031950281118,-0.00199930905364,-0.0253710169345,150.457107544,150.457107544,-1.20895302296,0.908235251904,2025,2029,2557,2034,2034,2899,3403,3402,3215,3336,3054,3025,3131,3121,3214,2820,3386,3391,3221,3340,3103,3328,3358,3162
1508404923096700849,137,1508404923096500586,plot_matl,0.25,-5000.0,0.231027305126,-0.00387059524655,-0.0189727023244,-95.8211288452,0.349065840244,0.0256401468068,7.59224931244e-05,0.230969309807,-0.000791793572716,-0.000791793572716,-0.00153717922512,0.0352377705276,-69.911781311,-69.911781311,-0.238113150001,89.8860931396,2017,2047,2114,2031,2031,2686,3302,3328,3129,3279,2989,2962,3044,3075,3153,2923,3377,3369,3207,3266,2918,3265,3291,3010,0.009973284,1.370004304,1.366339908,0.401425719261,4500.0,0.37470600009,-0.00130532775074,-0.02671973221,120.238792419,0.0,6000.0,6.97658324498e-05,-0.00140752771404,0.0,0.0,0.349065840244,0.0216827709228,0.00389524130151,0.295212894678,0.00031950281118,0.00031950281118,-0.00199930905364,-0.0253710169345,150.457107544,150.457107544,-1.20895302296,0.908235251904,2028,2028,2557,2034,2034,2899,3403,3401,3215,3338,3055,3026,3131,3122,3212,2821,3386,3391,3221,3340,3103,3328,3358,3162
1508404923106681102,138,1508404923106500444,plot_matl,0.25,-5000.0,0.231100305915,0.0325974337757,-0.0188996884972,-86.7878494263,0.349065840244,0.0256401468068,7.59224931244e-05,0.230969309807,-0.000791793572716,-0.000791793572716,-0.00153717922512,0.0352377705276,-69.911781311,-69.911781311,-0.238113150001,89.8860931396,2028,2054,2115,2031,2031,2686,3302,3328,3129,3279,2989,2962,3044,3075,3153,2923,3377,3369,3207,3266,2917,3264,3292,3011,0.009999655,1.380004141,1.37995239,0.401425719261,4500.0,0.37470600009,-0.00156613672152,-0.02671973221,120.238792419,0.0,6000.0,6.85510458425e-05,-0.00140393862966,0.0,0.0,0.349065840244,0.0216827709228,0.00389524130151,0.295212894678,0.00031950281118,0.00031950281118,-0.00199930905364,-0.0253710169345,150.457107544,150.457107544,-1.20895302296,0.908235251904,2030,2025,2557,2035,2035,2899,3403,3401,3215,3338,3055,3026,3131,3122,3212,2821,3386,3391,3222,3339,3101,3327,3361,3161
1508404923116889310,139,1508404923116515282,plot_matl,0.25,-5000.0,0.231020405889,-0.00370708340779,-0.0189795941114,-95.8251724243,0.349065840244,0.0256401468068,7.59224931244e-05,0.230969309807,-0.000791793572716,-0.000791793572716,-0.00153717922512,0.0352377705276,-69.911781311,-69.911781311,-0.238113150001,89.8860931396,2028,2054,2115,2031,2031,2686,3302,3328,3129,3279,2989,2962,3044,3075,3153,2923,3377,3369,3207,3266,2917,3264,3292,3011,0.010016527,1.390019726,1.392297253,0.401425719261,4500.0,0.37470600009,-0.00128707138356,-0.02671973221,120.238792419,0.0,6000.0,5.61235210625e-05,-0.00114942051005,0.0,0.0,0.349065840244,0.0216827709228,0.00389524130151,0.295212894678,0.00031950281118,0.00031950281118,-0.00199930905364,-0.0253710169345,150.457107544,150.457107544,-1.20895302296,0.908235251904,2030,2025,2557,2035,2035,2899,3403,3401,3215,3338,3055,3026,3131,3122,3212,2821,3386,3391,3222,3339,3101,3327,3361,3161
1508404923126887555,140,1508404923126526106,plot_matl,0.25,-5000.0,0.23101568222,-0.00365050090477,-0.0189843196422,-95.797706604,0.349065840244,0.0256401468068,4.97374312545e-05,0.231071218848,-0.000839169195388,-0.000839169195388,-0.00101863220334,-0.00472217891365,-69.9108047485,-69.9108047485,-0.363158732653,90.4347610474,2018,2050,2114,2031,2031,2686,3305,3329,3132,3276,2989,2959,3041,3072,3154,2924,3376,3369,3207,3267,2918,3266,3291,3011,0.010010503,1.400030695,1.40147042,0.401425719261,4500.0,0.37470600009,-0.00155599950813,-0.02671973221,120.238792419,0.0,6000.0,5.92690121266e-05,-0.00119423505384,0.0,0.0,0.349065840244,0.0216827709228,0.003898459021,0.2953338027,0.00052973208949,0.00052973208949,-0.00202344753779,0.0338418968022,150.450134277,150.450134277,-1.10407459736,0.834607243538,2030,2027,2556,2035,2035,2900,3402,3403,3216,3335,3057,3025,3131,3121,3213,2821,3383,3389,3221,3338,3101,3328,3362,3162
1508404923136964564,141,1508404923136527468,plot_matl,0.25,-5000.0,0.231014356017,-0.0036224371288,-0.018985638395,-95.8173370361,0.349065840244,0.0256401468068,4.97374312545e-05,0.231071218848,-0.000839169195388,-0.000839169195388,-0.00101863220334,-0.00472217891365,-69.9108047485,-69.9108047485,-0.363158732653,90.4347610474,2029,2063,2114,2034,2034,2686,3303,3328,3129,3277,2987,2960,3043,3072,3154,2924,3376,3369,3207,3267,2918,3266,3291,3011,0.010010524,1.410031866,1.411483884,0.401425719261,4500.0,0.37470600009,-0.00130476884078,-0.02671973221,120.238792419,0.0,6000.0,7.33551714802e-05,-0.00148613937199,0.0,0.0,0.349065840244,0.0216827709228,0.003898459021,0.2953338027,0.00052973208949,0.00052973208949,-0.00202344753779,0.0338418968022,150.450134277,150.450134277,-1.10407459736,0.834607243538,2028,2024,2556,2039,2039,2900,3403,3403,3215,3336,3056,3025,3129,3121,3213,2821,3383,3389,3221,3338,3101,3328,3362,3162
1508404923147010492,142,1508404923146550185,plot_matl,0.25,-5000.0,0.231013178825,-0.00361041305587,-0.0189868286252,-95.8052825928,0.349065840244,0.0256401468068,4.97374312545e-05,0.231071218848,-0.000839169195388,-0.000839169195388,-0.00101863220334,-0.00472217891365,-69.9108047485,-69.9108047485,-0.363158732653,90.4347610474,2018,2056,2114,2034,2034,2686,3303,3328,3129,3277,2987,2960,3043,3074,3154,2923,3378,3370,3206,3267,2918,3266,3292,3011,0.010011583,1.420054236,1.421644786,0.401425719261,4500.0,0.37470600009,-0.00154613819905,-0.02671973221,120.238792419,0.0,6000.0,7.27016013116e-05,-0.00146919384133,0.0,0.0,0.349065840244,0.0216827709228,0.003898459021,0.2953338027,0.00052973208949,0.00052973208949,-0.00202344753779,0.0338418968022,150.450134277,150.450134277,-1.10407459736,0.834607243538,2025,2036,2556,2039,2039,2900,3403,3403,3215,3336,3056,3025,3129,3122,3213,2821,3386,3390,3222,3339,3103,3328,3361,3162
1508404923156945796,143,1508404923156519497,plot_matl,0.25,-5000.0,0.230980604887,-0.00295458990149,-0.0190193969756,-95.823600769,0.349065840244,0.0256401468068,4.97374312545e-05,0.231071218848,-0.000839169195388,-0.000839169195388,-0.00101863220334,-0.00472217891365,-69.9108047485,-69.9108047485,-0.363158732653,90.4347610474,2020,2067,2114,2028,2028,2686,3303,3328,3130,3278,2994,2960,3043,3074,3154,2923,3378,3370,3206,3267,2918,3266,3292,3012,0.009969443,1.430023716,1.425630349,0.401425719261,4500.0,0.37470600009,-0.00128101557493,-0.02671973221,120.238792419,0.0,6000.0,7.09361920599e-05,-0.00143780140206,0.0,0.0,0.349065840244,0.0216827709228,0.003898459021,0.2953338027,0.00052973208949,0.00052973208949,-0.00202344753779,0.0338418968022,150.450134277,150.450134277,-1.10407459736,0.834607243538,2038,2040,2557,2039,2039,2897,3402,3402,3215,3336,3060,3025,3129,3122,3213,2821,3386,3390,3222,3339,3103,3328,3361,3162
1508404923166928303,144,1508404923166535082,plot_matl,0.25,-5000.0,0.231022000313,0.03411719203,-0.0189779996872,-86.5717773438,0.349065840244,0.0256401468068,6.28823181614e-05,0.231000110507,6.81141391397e-05,6.81141391397e-05,-0.0012745577842,0.0345519855618,-69.9244766235,-69.9244766235,-0.39275059104,89.9573898315,2021,2060,2114,2028,2028,2686,3303,3328,3130,3278,2994,2963,3046,3074,3156,2924,3379,3371,3209,3267,2921,3266,3292,3012,0.010015408,1.440039681,1.442218752,0.401425719261,4500.0,0.37335652113,-0.0265940520912,-0.0280692130327,126.311454773,0.0,6000.0,6.94002883392e-05,-0.0148183982819,0.0,0.0,0.349065840244,0.0216827709228,0.00385156902485,0.29507240653,0.000431473337812,0.000431473337812,-0.00108980876394,0.038825891912,150.407592773,150.407592773,-1.10206747055,1.06356489658,2024,2028,2557,2039,2039,2897,3402,3402,3215,3336,3060,3028,3131,3124,3213,2822,3387,3390,3222,3341,3101,3328,3361,3162
1508404923176699933,145,1508404923176505521,plot_matl,0.25,-5000.0,0.230983406305,-0.0030161277391,-0.0190166011453,-95.7904663086,0.349065840244,0.0256401468068,6.28823181614e-05,0.231000110507,6.81141391397e-05,6.81141391397e-05,-0.0012745577842,0.0345519855618,-69.9244766235,-69.9244766235,-0.39275059104,89.9573898315,2019,2057,2114,2030,2030,2685,3305,3328,3131,3278,2994,2963,3046,3074,3156,2924,3379,3371,3209,3267,2921,3267,3294,3011,0.009968482,1.450009255,1.44542989,0.401425719261,4500.0,0.37470600009,0.000587765476666,-0.02671973221,120.238792419,0.0,6000.0,9.30587993935e-05,-0.00189352151938,0.0,0.0,0.349065840244,0.0216827709228,0.00385156902485,0.29507240653,0.000431473337812,0.000431473337812,-0.00108980876394,0.038825891912,150.407592773,150.407592773,-1.10206747055,1.06356489658,2023,2027,2557,2038,2038,2899,3403,3402,3216,3336,3060,3028,3131,3124,3213,2822,3387,3390,3222,3341,3101,3327,3364,3162
1508404923186750077,146,1508404923186529112,plot_matl,0.25,-5000.0,0.231024220586,-0.00382424728014,-0.0189757831395,-95.8168334961,0.349065840244,0.0256401468068,6.28823181614e-05,0.231000110507,6.81141391397e-05,6.81141391397e-05,-0.0012745577842,0.0345519855618,-69.9244766235,-69.9244766235,-0.39275059104,89.9573898315,2016,2052,2114,2030,2030,2685,3305,3328,3131,3277,2989,2961,3041,3074,3154,2923,3377,3369,3208,3267,2921,3267,3294,3011,0.010024612,1.460033443,1.463593352,0.401425719261,4500.0,0.37470600009,0.000480682792841,-0.02671973221,120.238792419,0.0,6000.0,8.79123545019e-05,-0.00178997265175,0.0,0.0,0.349065840244,0.0216827709228,0.00385156902485,0.29507240653,0.000431473337812,0.000431473337812,-0.00108980876394,0.038825891912,150.407592773,150.407592773,-1.10206747055,1.06356489658,2024,2024,2557,2038,2038,2899,3403,3402,3216,3337,3057,3027,3131,3121,3213,2822,3384,3390,3222,3341,3101,3327,3364,3162
1508404923196601154,147,1508404923196493572,plot_matl,0.25,-5000.0,0.230989933014,-0.00313560129143,-0.0190100595355,-95.8016433716,0.349065840244,0.0256401468068,6.28823181614e-05,0.231000110507,6.81141391397e-05,6.81141391397e-05,-0.0012745577842,0.0345519855618,-69.9244766235,-69.9244766235,-0.39275059104,89.9573898315,2021,2065,2114,2029,2029,2687,3303,3328,3131,3277,2989,2961,3041,3074,3154,2923,3377,3369,3208,3268,2918,3266,3289,3010,0.009962767,1.4699972,1.464526749,0.401425719261,4500.0,0.37470600009,0.000438141461927,-0.02671973221,120.238792419,0.0,6000.0,8.23425580165e-05,-0.00168119778391,0.0,0.0,0.349065840244,0.0216827709228,0.00385156902485,0.29507240653,0.000431473337812,0.000431473337812,-0.00108980876394,0.038825891912,150.407592773,150.407592773,-1.10206747055,1.06356489658,2026,2028,2557,2038,2038,2900,3405,3402,3216,3337,3057,3027,3131,3121,3213,2822,3384,3390,3222,3339,3100,3330,3359,3162
1508404923207108307,148,1508404923206541186,plot_matl,0.25,-5000.0,0.231027245522,-0.00392962712795,-0.0189727600664,-95.6840057373,0.349065840244,0.0269896276295,8.678555605e-05,0.23101079464,0.0135591020808,0.0135591020808,-0.00177706882823,-0.00356407789513,-69.9467391968,-69.9467391968,-0.69431167841,89.9766921997,2025,2072,2114,2029,2029,2687,3303,3329,3130,3279,2989,2961,3043,3073,3153,2923,3376,3369,3208,3268,2918,3266,3289,3010,0.010050216,1.480045986,1.487431968,0.401425719261,4500.0,0.37335652113,-0.0273807272315,-0.0280692130327,126.311454773,0.0,6000.0,9.03268664842e-05,-0.00185783440247,0.0,0.0,0.349065840244,0.0216827709228,0.00391283771023,0.295066773891,0.00283001596108,0.00283001596108,-0.00231901789084,0.0393775850534,150.616699219,150.616699219,-1.05366528034,1.07279109955,2022,2026,2557,2038,2038,2900,3405,3402,3215,3339,3056,3025,3129,3121,3212,2821,3385,3390,3222,3339,3100,3330,3359,3162
1508404923216720590,149,1508404923216520739,plot_matl,0.25,-5000.0,0.231093406677,-0.00525054475293,-0.0189065877348,-95.8293914795,0.349065840244,0.0269896276295,8.678555605e-05,0.23101079464,0.0135591020808,0.0135591020808,-0.00177706882823,-0.00356407789513,-69.9467391968,-69.9467391968,-0.69431167841,89.9766921997,2025,2072,2114,2029,2029,2687,3303,3329,3130,3279,2989,2961,3043,3073,3153,2923,3376,3369,3208,3268,2918,3266,3289,3010,0.009978465,1.490025298,1.486791285,0.401425719261,4500.0,0.37470600009,0.000373942864826,-0.02671973221,120.238792419,0.0,6000.0,8.73784301803e-05,-0.00178959860932,0.0,0.0,0.349065840244,0.0216827709228,0.00391283771023,0.295066773891,0.00283001596108,0.00283001596108,-0.00231901789084,0.0393775850534,150.616699219,150.616699219,-1.05366528034,1.07279109955,2022,2026,2557,2038,2038,2900,3405,3402,3215,3339,3056,3025,3129,3121,3212,2821,3385,3390,3222,3339,3100,3330,3359,3162
1508404923226899672,150,1508404923226541419,plot_matl,0.25,-5000.0,0.231082856655,-0.00502184592187,-0.0189171377569,-95.7744903564,0.349065840244,0.0269896276295,8.678555605e-05,0.23101079464,0.0135591020808,0.0135591020808,-0.00177706882823,-0.00356407789513,-69.9467391968,-69.9467391968,-0.69431167841,89.9766921997,2019,2058,2114,2029,2029,2686,3303,3327,3130,3276,2989,2960,3042,3073,3151,2923,3376,3368,3206,3266,2918,3266,3290,3009,0.010018455,1.500044996,1.50276825,0.401425719261,4500.0,0.37470600009,-0.000154418419697,-0.02671973221,120.238792419,0.0,6000.0,7.16295326129e-05,-0.00146704539657,0.0,0.0,0.349065840244,0.0216827709228,0.00391283771023,0.295066773891,0.00283001596108,0.00283001596108,-0.00231901789084,0.0393775850534,150.616699219,150.616699219,-1.05366528034,1.07279109955,2026,2027,2557,2038,2038,2899,3403,3403,3216,3336,3056,3026,3132,3120,3212,2821,3385,3392,3221,3338,3102,3329,3360,3161
1508404923237044556,151,1508404923236535526,plot_matl,0.25,-5000.0,0.231107398868,-0.00549621321261,-0.0188926067203,-95.8012084961,0.349065840244,0.0269896276295,8.678555605e-05,0.23101079464,0.0135591020808,0.0135591020808,-0.00177706882823,-0.00356407789513,-69.9467391968,-69.9467391968,-0.69431167841,89.9766921997,2038,2061,2113,2029,2029,2686,3303,3327,3130,3276,2989,2960,3042,3073,3151,2923,3376,3368,3205,3267,2918,3265,3289,3008,0.009994488,1.51003939,1.509167688,0.401425719261,4500.0,0.37470600009,-0.000142410441185,-0.02671973221,120.238792419,0.0,6000.0,4.53603315691e-05,-0.0143570164219,0.0,0.0,0.349065840244,0.0216827709228,0.00391283771023,0.295066773891,0.00283001596108,0.00283001596108,-0.00231901789084,0.0393775850534,150.616699219,150.616699219,-1.05366528034,1.07279109955,2033,2024,2557,2038,2038,2899,3403,3403,3216,3336,3056,3026,3132,3120,3212,2822,3385,3389,3219,3339,3102,3326,3360,3161
1508404923246663674,152,1508404923246501610,plot_matl,0.25,-5000.0,0.231128767133,0.0319663621485,-0.0188712384552,-86.6931915283,0.349065840244,0.0256401468068,4.10659486079e-05,0.231117531657,-6.44640313112e-05,-6.44640313112e-05,-0.000843190122396,-0.00570340640843,-69.9481811523,-69.9481811523,-0.339664548635,90.1237411499,2031,2039,2113,2030,2030,2685,3303,3327,3131,3276,2989,2960,3044,3073,3151,2923,3376,3368,3205,3267,2918,3265,3289,3008,0.009971105,1.52000526,1.51560796,0.401425719261,4500.0,0.37470600009,-0.000653340830468,-0.02671973221,120.238792419,0.0,6000.0,3.71393216483e-05,-0.000762566283811,0.0,0.0,0.349065840244,0.0216827709228,0.0039084260352,0.295571416616,0.00244959141128,0.00244959141128,-0.00222985749133,0.029065232724,150.459411621,150.459411621,-0.397582948208,0.802127182484,2031,2017,2557,2036,2036,2899,3402,3403,3215,3338,3055,3025,3130,3120,3212,2822,3385,3389,3219,3339,3102,3326,3360,3161
1508404923256680727,153,1508404923256507318,plot_matl,0.25,-5000.0,0.231208473444,0.0303432624787,-0.0187915209681,-86.6737823486,0.349065840244,0.0256401468068,4.10659486079e-05,0.231117531657,-6.44640313112e-05,-6.44640313112e-05,-0.000843190122396,-0.00570340640843,-69.9481811523,-69.9481811523,-0.339664548635,90.1237411499,2031,2039,2113,2030,2030,2685,3303,3327,3131,3276,2989,2960,3044,3073,3151,2923,3376,3368,3205,3267,2918,3265,3289,3008,0.009999544,1.530010778,1.529930232,0.401425719261,4500.0,0.37470600009,-8.01590358606e-05,-0.02671973221,120.238792419,0.0,6000.0,3.71393216483e-05,-0.000762566283811,0.0,0.0,0.349065840244,0.0216827709228,0.0039084260352,0.295571416616,0.00244959141128,0.00244959141128,-0.00222985749133,0.029065232724,150.459411621,150.459411621,-0.397582948208,0.802127182484,2031,2017,2557,2036,2036,2899,3402,3403,3215,3338,3055,3025,3130,3120,3212,2822,3385,3389,3219,3339,3102,3326,3360,3161
1508404923266673893,154,1508404923266498824,plot_matl,0.25,-5000.0,0.231283932924,0.0288188625127,-0.0187160633504,-86.607421875,0.349065840244,0.0256401468068,4.10659486079e-05,0.231117531657,-6.44640313112e-05,-6.44640313112e-05,-0.000843190122396,-0.00570340640843,-69.9481811523,-69.9481811523,-0.339664548635,90.1237411499,2021,2052,2113,2029,2029,2685,3306,3327,3131,3274,2988,2960,3044,3074,3153,2922,3374,3367,3208,3268,2918,3264,3292,3008,0.009991847,1.540002529,1.538744438,0.401425719261,4500.0,0.37470600009,-0.000538048043381,-0.02671973221,120.238792419,0.0,6000.0,2.49630083999e-05,-0.000507476972416,0.0,0.0,0.349065840244,0.0216827709228,0.0039084260352,0.295571416616,0.00244959141128,0.00244959141128,-0.00222985749133,0.029065232724,150.459411621,150.459411621,-0.397582948208,0.802127182484,2025,2025,2556,2034,2034,2899,3403,3402,3216,3338,3056,3025,3130,3122,3211,2820,3384,3392,3220,3339,3101,3326,3360,3162
1508404923276712251,155,1508404923276493402,plot_matl,0.25,-5000.0,0.231341972947,0.0276037249714,-0.0186580289155,-86.6616287231,0.349065840244,0.0256401468068,4.10659486079e-05,0.231117531657,-6.44640313112e-05,-6.44640313112e-05,-0.000843190122396,-0.00570340640843,-69.9481811523,-69.9481811523,-0.339664548635,90.1237411499,2021,2052,2113,2029,2029,2685,3306,3327,3131,3274,2988,2960,3044,3074,3153,2922,3374,3367,3208,3268,2918,3264,3292,3008,0.009994162,1.549996952,1.54909511,0.401425719261,4500.0,0.37605547905,0.0272113215178,-0.0253702495247,114.166122437,0.0,6000.0,3.24792490574e-05,-0.000664478226099,0.0,0.0,0.349065840244,0.0216827709228,0.0039084260352,0.295571416616,0.00244959141128,0.00244959141128,-0.00222985749133,0.029065232724,150.459411621,150.459411621,-0.397582948208,0.802127182484,2025,2025,2556,2034,2034,2899,3403,3402,3216,3338,3056,3025,3130,3122,3211,2820,3384,3392,3220,3339,3101,3326,3360,3162
1508404923286948491,156,1508404923286541498,plot_matl,0.25,-5000.0,0.231341972947,0.0276037249714,-0.0186580289155,-86.6616287231,0.349065840244,0.0256401468068,0.000106964289444,0.231476709247,0.000220282439841,0.000220282439841,0.0119270766154,0.0249189846218,-69.8346405029,-69.8346405029,-0.16142295301,90.2384262085,2011,2048,2113,2029,2029,2685,3306,3327,3131,3274,2988,2962,3044,3073,3154,2924,3374,3367,3208,3267,2919,3264,3292,3008,0.010049378,1.560045646,1.567702968,0.401425719261,4500.0,0.37605547905,0.0272113215178,-0.0253702495247,114.166122437,0.0,6000.0,3.24792490574e-05,-0.000664478226099,0.0,0.0,0.349065840244,0.0216827709228,0.00391025468707,0.295369952917,0.0024274229072,0.0024274229072,-0.00229628407396,-0.031682997942,150.97996521,150.97996521,-0.0448931381106,0.541137754917,2021,2025,2556,2034,2034,2899,3403,3402,3216,3338,3056,3026,3130,3121,3212,2821,3384,3391,3220,3339,3101,3326,3360,3162
1508404923296611479,157,1508404923296498542,plot_matl,0.25,-5000.0,0.231489494443,-0.0132419811562,-0.0185105036944,-97.2375488281,0.349065840244,0.0256401468068,0.000106964289444,0.231476709247,0.000220282439841,0.000220282439841,0.0119270766154,0.0249189846218,-69.8346405029,-69.8346405029,-0.16142295301,90.2384262085,2014,2034,2114,2030,2030,2692,3306,3336,3131,3280,2992,2962,3044,3073,3154,2924,3374,3367,3208,3267,2919,3267,3308,3026,0.00995477,1.570001782,1.56289889,0.401425719261,4500.0,0.37470600009,0.000454630120657,-0.02671973221,120.238792419,0.0,6000.0,9.0377376182e-05,-0.00139397161547,0.0,0.0,0.349065840244,0.0216827709228,0.00391025468707,0.295369952917,0.0024274229072,0.0024274229072,-0.00229628407396,-0.031682997942,150.97996521,150.97996521,-0.0448931381106,0.541137754917,2035,2030,2557,2032,2032,2906,3403,3408,3216,3339,3060,3026,3130,3121,3212,2821,3384,3391,3220,3339,3101,3327,3377,3182
1508404923306751166,158,1508404923306533879,plot_matl,0.25,-5000.0,0.231424570084,-0.0117784989998,-0.0185754261911,-95.7353286743,0.349065840244,0.0256401468068,0.000106964289444,0.231476709247,0.000220282439841,0.000220282439841,0.0119270766154,0.0249189846218,-69.8346405029,-69.8346405029,-0.16142295301,90.2384262085,2014,2034,2114,2030,2030,2692,3306,3336,3131,3280,2992,2962,3044,3073,3154,2924,3374,3367,3208,3267,2919,3267,3308,3026,0.01003733,1.580038112,1.58589814,0.401425719261,4500.0,0.37470600009,0.000454630120657,-0.02671973221,120.238792419,0.0,6000.0,9.0377376182e-05,-0.00139397161547,0.0,0.0,0.349065840244,0.0216827709228,0.00391025468707,0.295369952917,0.0024274229072,0.0024274229072,-0.00229628407396,-0.031682997942,150.97996521,150.97996521,-0.0448931381106,0.541137754917,2035,2030,2557,2032,2032,2906,3403,3408,3216,3339,3060,3026,3130,3121,3212,2821,3384,3391,3220,3339,3101,3327,3377,3182
1508404923316865540,159,1508404923316510755,plot_matl,0.25,-5000.0,0.231424570084,-0.0117784989998,-0.0185754261911,-95.7353286743,0.349065840244,0.0256401468068,0.000106964289444,0.231476709247,0.000220282439841,0.000220282439841,0.0119270766154,0.0249189846218,-69.8346405029,-69.8346405029,-0.16142295301,90.2384262085,2014,2054,2114,2030,2030,2692,3306,3336,3131,3280,2992,2965,3045,3077,3157,2927,3378,3373,3230,3288,2933,3267,3308,3026,0.009975915,1.590014793,1.586170485,0.401425719261,4500.0,0.37470600009,0.000454630120657,-0.02671973221,120.238792419,0.0,6000.0,9.0377376182e-05,-0.00139397161547,0.0,0.0,0.349065840244,0.0216827709228,0.00391025468707,0.295369952917,0.0024274229072,0.0024274229072,-0.00229628407396,-0.031682997942,150.97996521,150.97996521,-0.0448931381106,0.541137754917,2033,2034,2557,2032,2032,2906,3403,3408,3216,3339,3060,3029,3134,3122,3214,2823,3389,3394,3243,3359,3117,3327,3377,3182
1508404923326691856,160,1508404923326494860,plot_matl,0.25,-5000.0,0.231435000896,0.0243992786855,-0.0185650046915,-68.6506195068,0.349065840244,0.0256401468068,8.9372311777e-05,0.231334269047,0.000156907757628,0.000156907757628,-0.00152543815784,-0.0126711539924,-69.7818603516,-69.7818603516,-0.335903465748,90.6319656372,2014,2054,2114,2030,2030,2692,3306,3336,3131,3280,2992,2965,3045,3077,3157,2927,3378,3373,3230,3288,2933,3267,3308,3026,0.009982773,1.599998495,1.59724368,0.401425719261,4500.0,0.37470600009,0.000290848402074,-0.02671973221,120.238792419,0.0,6000.0,8.28314514365e-05,-0.00141379644629,0.0,0.0,0.349065840244,0.0216827709228,0.00391424400732,0.295281618834,0.000630995375104,0.000630995375104,-0.002365763532,-0.0320310518146,150.748458862,150.748458862,0.493843495846,0.980001628399,2033,2034,2557,2032,2032,2906,3403,3408,3216,3339,3060,3029,3134,3122,3214,2823,3389,3394,3243,3359,3117,3327,3377,3182
1508404923336973953,161,1508404923336522554,plot_matl,0.25,-5000.0,0.231630310416,-0.0171045605093,-0.0183696933091,-95.8035125732,0.349065840244,0.0256401468068,8.9372311777e-05,0.231334269047,0.000156907757628,0.000156907757628,-0.00152543815784,-0.0126711539924,-69.7818603516,-69.7818603516,-0.335903465748,90.6319656372,2047,2076,2114,2031,2031,2703,3325,3345,3147,3280,2992,2965,3045,3077,3157,2927,3378,3373,3230,3288,2933,3281,3307,3025,0.010029493,1.610026948,1.614748373,0.401425719261,4500.0,0.37470600009,0.000736368063372,-0.02671973221,120.238792419,0.0,6000.0,8.4236227849e-05,-0.00151470955461,0.0,0.0,0.349065840244,0.0216827709228,0.00391424400732,0.295281618834,0.000630995375104,0.000630995375104,-0.002365763532,-0.0320310518146,150.748458862,150.748458862,0.493843495846,0.980001628399,2027,2020,2557,2034,2034,2915,3423,3419,3230,3339,3060,3029,3134,3122,3214,2823,3389,3394,3243,3359,3117,3342,3373,3177
1508404923346988820,162,1508404923346525976,plot_matl,0.25,-5000.0,0.231630310416,-0.0171045605093,-0.0183696933091,-95.8035125732,0.349065840244,0.0256401468068,8.9372311777e-05,0.231334269047,0.000156907757628,0.000156907757628,-0.00152543815784,-0.0126711539924,-69.7818603516,-69.7818603516,-0.335903465748,90.6319656372,2026,2058,2114,2031,2031,2703,3325,3345,3147,3292,3002,2975,3055,3084,3163,2932,3396,3385,3222,3288,2933,3281,3307,3025,0.010002976,1.62003043,1.620482112,0.401425719261,4500.0,0.37470600009,0.000736368063372,-0.02671973221,120.238792419,0.0,6000.0,8.4236227849e-05,-0.00151470955461,0.0,0.0,0.349065840244,0.0216827709228,0.00391424400732,0.295281618834,0.000630995375104,0.000630995375104,-0.002365763532,-0.0320310518146,150.748458862,150.748458862,0.493843495846,0.980001628399,2031,2030,2557,2034,2034,2915,3423,3419,3230,3350,3068,3037,3142,3131,3221,2830,3403,3409,3236,3359,3117,3342,3373,3177
1508404923356650529,163,1508404923356497531,plot_matl,0.25,-5000.0,0.23158402741,-0.0158957522362,-0.0184159688652,-95.6912078857,0.349065840244,0.0256401468068,8.9372311777e-05,0.231334269047,0.000156907757628,0.000156907757628,-0.00152543815784,-0.0126711539924,-69.7818603516,-69.7818603516,-0.335903465748,90.6319656372,2026,2058,2114,2031,2031,2703,3325,3345,3147,3292,3002,2975,3055,3084,3163,2932,3396,3385,3222,3288,2933,3281,3307,3025,0.009969684,1.630001227,1.625058492,0.401425719261,4500.0,0.37470600009,0.000529814278707,-0.02671973221,120.238792419,0.0,6000.0,6.06076755503e-05,-0.00108982820529,0.0,0.0,0.349065840244,0.0216827709228,0.00391424400732,0.295281618834,0.000630995375104,0.000630995375104,-0.002365763532,-0.0320310518146,150.748458862,150.748458862,0.493843495846,0.980001628399,2031,2030,2557,2034,2034,2915,3423,3419,3230,3350,3068,3037,3142,3131,3221,2830,3403,3409,3236,3359,3117,3342,3373,3177
1508404923366926196,164,1508404923366544481,plot_matl,0.25,-5000.0,0.23158402741,-0.0158957522362,-0.0184159688652,-95.6912078857,0.349065840244,0.0256401468068,5.59704058105e-05,0.231526628137,0.000244052367634,0.000244052367634,-0.00100644235499,-0.0146795222536,-69.7032165527,-69.7032165527,-0.06595697999,90.9012298584,2052,2080,2114,2032,2032,2696,3314,3345,3147,3292,3002,2975,3055,3084,3163,2932,3396,3385,3222,3282,2928,3281,3306,3025,0.010049217,1.64004927,1.648071588,0.401425719261,4500.0,0.37470600009,0.000529814278707,-0.02671973221,120.238792419,0.0,6000.0,6.06076755503e-05,-0.00108982820529,0.0,0.0,0.349065840244,0.0216827709228,0.00387821020558,0.296037822962,-0.00133126869332,-0.00133126869332,-0.00158455898054,0.0184685364366,150.668304443,150.668304443,1.18321716785,0.48370629549,2030,2028,2557,2037,2037,2906,3412,3419,3230,3350,3068,3037,3142,3131,3221,2830,3403,3409,3236,3354,3112,3342,3375,3177
1508404923376918227,165,1508404923376574027,plot_matl,0.25,-5000.0,0.231701910496,-0.0154099557549,-0.0182980969548,-95.7250366211,0.349065840244,0.0256401468068,5.59704058105e-05,0.231526628137,0.000244052367634,0.000244052367634,-0.00100644235499,-0.0146795222536,-69.7032165527,-69.7032165527,-0.06595697999,90.9012298584,2052,2080,2114,2032,2032,2696,3314,3345,3147,3292,3002,2975,3055,3084,3163,2932,3396,3385,3222,3282,2928,3281,3306,3025,0.01002876,1.650078536,1.6547454,0.401425719261,4500.0,0.37470600009,-0.00172863784246,-0.02671973221,120.238792419,0.0,6000.0,4.1561001126e-05,-0.000747336889617,0.0,0.0,0.349065840244,0.0216827709228,0.00387821020558,0.296037822962,-0.00133126869332,-0.00133126869332,-0.00158455898054,0.0184685364366,150.668304443,150.668304443,1.18321716785,0.48370629549,2030,2028,2557,2037,2037,2906,3412,3419,3230,3350,3068,3037,3142,3131,3221,2830,3403,3409,3236,3354,3112,3342,3375,3177
