%time,field.header.seq,field.header.stamp,field.header.frame_id,field.FFJ4_set_point,field.FFJ4_position_gain,field.FFJ4_process_value,field.FFJ4_process_value_dot,field.FFJ4_error,field.FFJ4_command,field.FFJ1,field.FFJ2,field.FFJ3,field.FFJ4,field.FFJ1_dot,field.FFJ2_dot,field.FFJ3_dot,field.FFJ4_dot,field.FFJ1_tao,field.FFJ2_tao,field.FFJ3_tao,field.FFJ4_tao,field.pac0,field.pac1,field.pdc0,field.tac0,field.tdc0,field.el0,field.el1,field.el2,field.el3,field.el4,field.el5,field.el6,field.el7,field.el8,field.el9,field.el10,field.el11,field.el12,field.el13,field.el14,field.el15,field.el16,field.el17,field.el18,field.dt,field.time,field.test_time2,field.FFJ0_set_point,field.FFJ0_position_gain,field.FFJ0_process_value,field.FFJ0_process_value_dot,field.FFJ0_error,field.FFJ0_command,field.FFJ3_set_point,field.FFJ3_position_gain,field.FFJ3_process_value,field.FFJ3_process_value_dot,field.FFJ3_error,field.FFJ3_command,field.MFJ1,field.MFJ2,field.MFJ3,field.MFJ4,field.MFJ1_dot,field.MFJ2_dot,field.MFJ3_dot,field.MFJ4_dot,field.MFJ1_tao,field.MFJ2_tao,field.MFJ3_tao,field.MFJ4_tao,field.Mpac0,field.Mpac1,field.Mpdc0,field.Mtac0,field.Mtdc0,field.Mel0,field.Mel1,field.Mel2,field.Mel3,field.Mel4,field.Mel5,field.Mel6,field.Mel7,field.Mel8,field.Mel9,field.Mel10,field.Mel11,field.Mel12,field.Mel13,field.Mel14,field.Mel15,field.Mel16,field.Mel17,field.Mel18
1508405131241104522,113,1508405131240663816,plot_matl,0.25,-3000.0,0.225051864982,0.00300453137606,-0.0249481275678,-74.1577682495,0.349065840244,0.0242906641215,-0.00127473962493,0.225005462766,-0.00983450002968,-0.00983450002968,-0.0010728512425,0.0039631659165,-80.7832794189,-80.7832794189,0.0302831046283,91.5947494507,2017,2073,2111,2029,2029,2681,3300,3324,3125,3273,2981,2954,3038,3066,3147,2912,3369,3361,3197,3257,2905,3259,3285,3002,0.010005467,1.130003358,1.130617771,0.401425719261,4500.0,0.37470600009,0.00767466053367,-0.02671973221,120.238792419,0.0,6000.0,-0.00127785268705,-0.00101122108754,0.0,0.0,0.349065840244,0.0216827709228,0.00473896414042,0.295514017344,-0.00445324834436,-0.00445324834436,0.0116921970621,-0.0314084738493,148.907180786,148.907180786,-0.266196399927,0.661733627319,2022,2032,2561,2037,2037,2897,3400,3399,3211,3332,3051,3024,3129,3121,3210,2821,3384,3388,3218,3337,3094,3327,3357,3156
1508405131251160866,114,1508405131250685262,plot_matl,0.25,-3000.0,0.225011363626,0.00384087325074,-0.0249886382371,-73.9481124878,0.349065840244,0.0242906641215,-0.00127473962493,0.225005462766,-0.00983450002968,-0.00983450002968,-0.0010728512425,0.0039631659165,-80.7832794189,-80.7832794189,0.0302831046283,91.5947494507,2009,2052,2111,2029,2029,2681,3301,3323,3126,3271,2981,2954,3037,3067,3147,2912,3369,3361,3197,3257,2905,3259,3285,3002,0.01002271,1.140026083,1.14258894,0.401425719261,4500.0,0.37605547905,0.035314809531,-0.0253702495247,114.166122437,0.0,6000.0,-0.00128717173357,-0.000826726609375,0.0,0.0,0.349065840244,0.0216827709228,0.00473896414042,0.295514017344,-0.00445324834436,-0.00445324834436,0.0116921970621,-0.0314084738493,148.907180786,148.907180786,-0.266196399927,0.661733627319,2024,2033,2561,2037,2037,2898,3401,3399,3212,3331,3050,3025,3129,3119,3210,2821,3384,3388,3218,3337,3094,3327,3357,3156
1508405131261076296,115,1508405131260765034,plot_matl,0.25,-3000.0,0.225079700351,0.00245485082269,-0.0249203015119,-74.125328064,0.349065840244,0.0242906641215,-0.00127473962493,0.225005462766,-0.00983450002968,-0.00983450002968,-0.0010728512425,0.0039631659165,-80.7832794189,-80.7832794189,0.0302831046283,91.5947494507,2037,2067,2111,2029,2029,2681,3301,3323,3126,3271,2981,2954,3037,3067,3145,2910,3370,3361,3198,3257,2908,3260,3284,3003,0.010076847,1.150104535,1.158837405,0.401425719261,4500.0,0.37470600009,0.00762899359688,-0.02671973221,120.238792419,0.0,6000.0,-0.00126905518118,-0.00118458957877,0.0,0.0,0.349065840244,0.0216827709228,0.00473896414042,0.295514017344,-0.00445324834436,-0.00445324834436,0.0116921970621,-0.0314084738493,148.907180786,148.907180786,-0.266196399927,0.661733627319,2028,2024,2561,2037,2037,2898,3401,3399,3212,3331,3050,3025,3129,3119,3210,2820,3384,3389,3217,3337,3098,3324,3356,3157
1508405131270931363,116,1508405131270695173,plot_matl,0.25,-3000.0,0.225035592914,0.00335743022151,-0.024964408949,-74.0745391846,0.349065840244,0.0242906641215,-0.00127473962493,0.225005462766,-0.00983450002968,-0.00983450002968,-0.0010728512425,0.0039631659165,-80.7832794189,-80.7832794189,0.0302831046283,91.5947494507,2037,2067,2111,2029,2029,2681,3301,3323,3126,3271,2981,2954,3037,3067,3145,2910,3370,3361,3198,3257,2908,3260,3284,3003,0.00993058,1.160034879,1.15194728,0.401425719261,4500.0,0.37470600009,0.00674181710929,-0.02671973221,120.238792419,0.0,6000.0,-0.00129111332353,-0.000740285380743,0.0,0.0,0.349065840244,0.0216827709228,0.00473896414042,0.295514017344,-0.00445324834436,-0.00445324834436,0.0116921970621,-0.0314084738493,148.907180786,148.907180786,-0.266196399927,0.661733627319,2028,2024,2561,2037,2037,2898,3401,3399,3212,3331,3050,3025,3129,3119,3210,2820,3384,3389,3217,3337,3098,3324,3356,3157
1508405131281135274,117,1508405131280692145,plot_matl,0.25,-3000.0,0.225065588951,0.00271845422685,-0.0249344129115,-74.1434783936,0.349065840244,0.0242906641215,-0.00129601103254,0.225057020783,-0.0099318549037,-0.0099318549037,-0.000644411891699,0.00288684433326,-80.8994369507,-80.8994369507,-0.14578846097,91.8176345825,2003,2037,2110,2029,2029,2680,3302,3322,3125,3269,2982,2956,3038,3066,3146,2912,3368,3363,3195,3259,2906,3260,3284,3003,0.009998876,1.170032985,1.169868492,0.401425719261,4500.0,0.37335652113,-0.0192360598594,-0.0280692130327,126.311454773,0.0,6000.0,-0.00129793130327,-0.000606823246926,0.0,0.0,0.349065840244,0.0216827709228,0.00472612725571,0.295600116253,-0.00413998076692,-0.00413998076692,0.0119754169136,-0.0332817472517,148.520614624,148.520614624,-0.575542867184,0.938879191875,2026,2030,2562,2032,2032,2898,3403,3398,3211,3333,3051,3025,3127,3120,3210,2821,3382,3388,3218,3336,3097,3326,3356,3157
1508405131290994459,118,1508405131290672780,plot_matl,0.25,-3000.0,0.225061774254,0.00286958692595,-0.0249382276088,-74.1262664795,0.349065840244,0.0242906641215,-0.00129601103254,0.225057020783,-0.0099318549037,-0.0099318549037,-0.000644411891699,0.00288684433326,-80.8994369507,-80.8994369507,-0.14578846097,91.8176345825,2025,2064,2110,2027,2027,2679,3300,3325,3124,3270,2982,2956,3038,3066,3146,2912,3368,3363,3195,3259,2906,3260,3284,3003,0.009979386,1.180013043,1.177567548,0.401425719261,4500.0,0.37470600009,0.008480489254,-0.02671973221,120.238792419,0.0,6000.0,-0.00129234860651,-0.000730655854568,0.0,0.0,0.349065840244,0.0216827709228,0.00472612725571,0.295600116253,-0.00413998076692,-0.00413998076692,0.0119754169136,-0.0332817472517,148.520614624,148.520614624,-0.575542867184,0.938879191875,2026,2028,2562,2031,2031,2897,3401,3401,3212,3334,3051,3025,3127,3120,3210,2821,3382,3388,3218,3336,3097,3326,3357,3157
1508405131300962164,119,1508405131300671309,plot_matl,0.25,-3000.0,0.225051447749,0.00307716685347,-0.0249485578388,-74.1162414551,0.349065840244,0.0242906641215,-0.00129601103254,0.225057020783,-0.0099318549037,-0.0099318549037,-0.000644411891699,0.00288684433326,-80.8994369507,-80.8994369507,-0.14578846097,91.8176345825,2017,2053,2110,2027,2027,2679,3300,3325,3124,3270,2980,2956,3037,3065,3147,2911,3370,3362,3199,3259,2906,3260,3284,3003,0.009997925,1.190011398,1.189753075,0.401425719261,4500.0,0.37470600009,0.00846229773015,-0.02671973221,120.238792419,0.0,6000.0,-0.00129898148589,-0.000598176324274,0.0,0.0,0.349065840244,0.0216827709228,0.00472612725571,0.295600116253,-0.00413998076692,-0.00413998076692,0.0119754169136,-0.0332817472517,148.520614624,148.520614624,-0.575542867184,0.938879191875,2010,2013,2562,2031,2031,2897,3401,3401,3212,3334,3052,3026,3129,3120,3210,2821,3382,3389,3217,3335,3097,3326,3357,3157
1508405131310887863,120,1508405131310680625,plot_matl,0.25,-3000.0,0.225012376904,0.00389149878174,-0.0249876286834,-74.0340805054,0.349065840244,0.0242906641215,-0.00129601103254,0.225057020783,-0.0099318549037,-0.0099318549037,-0.000644411891699,0.00288684433326,-80.8994369507,-80.8994369507,-0.14578846097,91.8176345825,1983,2016,2110,2027,2027,2678,3301,3322,3124,3270,2980,2956,3037,3065,3147,2911,3370,3362,3199,3259,2907,3259,3286,3001,0.010009854,1.20002116,1.20118248,0.401425719261,4500.0,0.37335652113,-0.0183034073561,-0.0280692130327,126.311454773,0.0,6000.0,-0.00129259866662,-0.000728805083781,0.0,0.0,0.349065840244,0.0216827709228,0.00472612725571,0.295600116253,-0.00413998076692,-0.00413998076692,0.0119754169136,-0.0332817472517,148.520614624,148.520614624,-0.575542867184,0.938879191875,2033,2026,2561,2029,2029,2898,3400,3398,3212,3334,3052,3026,3129,3120,3210,2821,3382,3389,3217,3335,3095,3325,3358,3158
1508405131320949619,121,1508405131320741440,plot_matl,0.25,-3000.0,0.224942773581,0.00529249943793,-0.0250572282821,-73.8783111572,0.349065840244,0.0269896276295,-0.00127266254276,0.224965021014,0.0182823427022,0.0182823427022,-0.00112808356062,0.00483595579863,-81.0007324219,-81.0007324219,-0.0141487987712,91.7632217407,2018,2040,2110,2027,2027,2678,3301,3322,3125,3270,2983,2954,3038,3067,3147,2912,3370,3360,3199,3259,2907,3259,3286,3001,0.010058375,1.210081136,1.217063375,0.401425719261,4500.0,0.37470600009,0.00821001920849,-0.02671973221,120.238792419,0.0,6000.0,-0.00127600808628,-0.00106101157144,0.0,0.0,0.349065840244,0.0216827709228,0.00469250045717,0.295267820358,-0.00242767715827,-0.00242767715827,-0.00272019975819,-0.0265376828611,148.561538696,148.561538696,-0.360089302063,1.35966527462,2022,2016,2561,2029,2029,2898,3400,3398,3211,3333,3051,3024,3128,3118,3209,2821,3380,3390,3217,3335,3095,3325,3358,3158
1508405131330827823,122,1508405131330660431,plot_matl,0.25,-3000.0,0.224921941757,0.00571455806494,-0.0250780545175,-73.8056488037,0.349065840244,0.0269896276295,-0.00127266254276,0.224965021014,0.0182823427022,0.0182823427022,-0.00112808356062,0.00483595579863,-81.0007324219,-81.0007324219,-0.0141487987712,91.7632217407,2024,2045,2110,2024,2024,2679,3301,3322,3125,3270,2983,2954,3038,3067,3147,2912,3370,3360,3199,3259,2907,3260,3285,3002,0.009919086,1.220000014,1.210128492,0.401425719261,4500.0,0.37335652113,-0.0185587480664,-0.0280692130327,126.311454773,0.0,6000.0,-0.00127333204728,-0.00112513138447,0.0,0.0,0.349065840244,0.0216827709228,0.00469250045717,0.295267820358,-0.00242767715827,-0.00242767715827,-0.00272019975819,-0.0265376828611,148.561538696,148.561538696,-0.360089302063,1.35966527462,2020,2017,2562,2030,2030,2897,3400,3398,3211,3333,3051,3024,3128,3118,3209,2821,3380,3390,3219,3337,3097,3327,3357,3158
1508405131340988440,123,1508405131340691567,plot_matl,0.25,-3000.0,0.224875539541,0.00661918660626,-0.0251244679093,-73.8108291626,0.349065840244,0.0269896276295,-0.00127266254276,0.224965021014,0.0182823427022,0.0182823427022,-0.00112808356062,0.00483595579863,-81.0007324219,-81.0007324219,-0.0141487987712,91.7632217407,1995,2037,2110,2024,2024,2679,3301,3323,3124,3269,2981,2955,3036,3067,3149,2913,3370,3360,3199,3259,2907,3260,3285,3002,0.010032985,1.230032427,1.234057155,0.401425719261,4500.0,0.37335652113,-0.0181299578398,-0.0280692130327,126.311454773,0.0,6000.0,-0.00128333561588,-0.000922692124732,0.0,0.0,0.349065840244,0.0216827709228,0.00469250045717,0.295267820358,-0.00242767715827,-0.00242767715827,-0.00272019975819,-0.0265376828611,148.561538696,148.561538696,-0.360089302063,1.35966527462,2022,2032,2562,2030,2030,2897,3400,3401,3211,3333,3051,3025,3129,3119,3210,2821,3380,3390,3219,3337,3097,3327,3357,3158
1508405131350829444,124,1508405131350661754,plot_matl,0.25,-3000.0,0.22479569912,0.00816050637513,-0.0252043027431,-73.6321792603,0.349065840244,0.0269896276295,-0.00127266254276,0.224965021014,0.0182823427022,0.0182823427022,-0.00112808356062,0.00483595579863,-81.0007324219,-81.0007324219,-0.0141487987712,91.7632217407,2011,2067,2110,2025,2025,2679,3301,3323,3124,3269,2981,2955,3036,3067,3149,2913,3370,3363,3197,3258,2907,3260,3284,3005,0.009968614,1.240001384,1.236108136,0.401425719261,4500.0,0.37470600009,0.0103528099135,-0.02671973221,120.238792419,0.0,6000.0,-0.00129159993958,-0.000755450979341,0.0,0.0,0.349065840244,0.0216827709228,0.00469250045717,0.295267820358,-0.00242767715827,-0.00242767715827,-0.00272019975819,-0.0265376828611,148.561538696,148.561538696,-0.360089302063,1.35966527462,2022,2032,2562,2033,2033,2897,3400,3401,3211,3333,3051,3025,3129,3119,3210,2821,3381,3390,3217,3337,3096,3325,3356,3159
1508405131361052608,125,1508405131360680094,plot_matl,0.25,-3000.0,0.224871650338,0.0445313155651,-0.0251283422112,-64.0135955811,0.349065840244,0.0242906641215,-0.00129648018628,0.224849045277,-0.00862156134099,-0.00862156134099,-0.000656692194752,0.00709369732067,-80.6140899658,-80.6140899658,-0.0776713043451,91.5408401489,2030,2054,2110,2025,2025,2680,3300,3322,3125,3271,2980,2957,3036,3067,3149,2913,3370,3363,3197,3258,2907,3260,3284,3005,0.010019745,1.250020879,1.252468125,0.401425719261,4500.0,0.37470600009,0.00995709467679,-0.02671973221,120.238792419,0.0,6000.0,-0.00129709159955,-0.000612419215031,0.0,0.0,0.349065840244,0.0216827709228,0.00470116455108,0.295193463564,-0.00248772907071,-0.00248772907071,0.0124645810574,-0.0251103080809,148.716140747,148.716140747,-0.707696199417,1.37730586529,2029,2027,2562,2033,2033,2898,3401,3397,3211,3333,3052,3025,3130,3120,3210,2821,3381,3390,3217,3337,3096,3325,3356,3159
1508405131371030647,126,1508405131370677697,plot_matl,0.25,-3000.0,0.224973574281,0.00467804213986,-0.0250264275819,-74.0148544312,0.349065840244,0.0242906641215,-0.00129648018628,0.224849045277,-0.00862156134099,-0.00862156134099,-0.000656692194752,0.00709369732067,-80.6140899658,-80.6140899658,-0.0776713043451,91.5408401489,2019,2039,2110,2025,2025,2680,3300,3322,3125,3271,2980,2957,3036,3067,3147,2912,3369,3362,3198,3259,2907,3259,3286,3003,0.009996401,1.260018061,1.259546526,0.401425719261,4500.0,0.37470600009,0.00912512745708,-0.02671973221,120.238792419,0.0,6000.0,-0.00131547253113,-0.000229896540986,0.0,0.0,0.349065840244,0.0216827709228,0.00470116455108,0.295193463564,-0.00248772907071,-0.00248772907071,0.0124645810574,-0.0251103080809,148.716140747,148.716140747,-0.707696199417,1.37730586529,2030,2026,2562,2033,2033,2898,3401,3397,3211,3333,3052,3025,3130,3120,3210,2821,3382,3389,3217,3337,3094,3327,3358,3157
1508405131380791667,127,1508405131380659275,plot_matl,0.25,-3000.0,0.22501501441,0.00383588811383,-0.02498498559,-74.0453643799,0.349065840244,0.0242906641215,-0.00129648018628,0.224849045277,-0.00862156134099,-0.00862156134099,-0.000656692194752,0.00709369732067,-80.6140899658,-80.6140899658,-0.0776713043451,91.5408401489,2014,2039,2110,2026,2026,2680,3300,3323,3125,3273,2980,2955,3036,3067,3147,2912,3369,3362,3198,3259,2907,3259,3286,3003,0.009979615,1.269998702,1.267411105,0.401425719261,4500.0,0.37470600009,0.00895483326167,-0.02671973221,120.238792419,0.0,6000.0,-0.00131789536681,-0.00018850993365,0.0,0.0,0.349065840244,0.0216827709228,0.00470116455108,0.295193463564,-0.00248772907071,-0.00248772907071,0.0124645810574,-0.0251103080809,148.716140747,148.716140747,-0.707696199417,1.37730586529,2027,2027,2562,2037,2037,2897,3400,3402,3213,3333,3050,3025,3130,3120,3210,2821,3382,3389,3217,3337,3094,3327,3358,3157
1508405131390766016,128,1508405131390655338,plot_matl,0.25,-3000.0,0.224978610873,0.00455221300945,-0.0250213891268,-73.9770507812,0.349065840244,0.0242906641215,-0.00129648018628,0.224849045277,-0.00862156134099,-0.00862156134099,-0.000656692194752,0.00709369732067,-80.6140899658,-80.6140899658,-0.0776713043451,91.5408401489,2039,2062,2110,2026,2026,2680,3300,3323,3125,3273,2980,2955,3038,3067,3148,2912,3368,3362,3197,3259,2907,3260,3286,3003,0.009996321,1.279995014,1.279529088,0.401425719261,4500.0,0.37605547905,0.0340272970498,-0.0253702495247,114.166122437,0.0,6000.0,-0.00130875001196,-0.000380166340619,0.0,0.0,0.349065840244,0.0216827709228,0.00470116455108,0.295193463564,-0.00248772907071,-0.00248772907071,0.0124645810574,-0.0251103080809,148.716140747,148.716140747,-0.707696199417,1.37730586529,2027,2027,2562,2037,2037,2897,3400,3402,3213,3333,3050,3025,3128,3119,3211,2822,3383,3389,3219,3336,3095,3325,3358,3157
1508405131400790449,129,1508405131400653149,plot_matl,0.25,-3000.0,0.225019440055,0.00372673547827,-0.0249805580825,-74.0463104248,0.349065840244,0.0256401468068,-0.00131138786674,0.225008040667,0.00270641292445,0.00270641292445,-0.000330474140355,0.00395718542859,-80.3558425903,-80.3558425903,-0.0353007428348,92.091178894,2017,2055,2110,2027,2027,2679,3301,3323,3126,3271,2980,2955,3038,3067,3148,2912,3368,3362,3197,3259,2907,3260,3283,3002,0.009996698,1.289992269,1.289574042,0.401425719261,4500.0,0.37335652113,-0.0210888739675,-0.0280692130327,126.311454773,0.0,6000.0,-0.0013000338804,-0.000566331553273,0.0,0.0,0.349065840244,0.0216827709228,0.00474733300507,0.29519739747,-0.00153861939907,-0.00153861939907,-0.00383945577778,-0.0251496937126,148.52130127,148.52130127,-0.870214402676,1.62269806862,2021,2026,2562,2038,2038,2897,3401,3400,3210,3333,3050,3025,3128,3119,3211,2822,3383,3389,3219,3336,3095,3325,3356,3157
1508405131411093193,130,1508405131410746072,plot_matl,0.25,-3000.0,0.224950060248,-0.0327817089856,-0.0250499341637,-82.843711853,0.349065840244,0.0256401468068,-0.00131138786674,0.225008040667,0.00270641292445,0.00270641292445,-0.000330474140355,0.00395718542859,-80.3558425903,-80.3558425903,-0.0353007428348,92.091178894,2008,2056,2110,2027,2027,2679,3301,3323,3126,3271,2982,2955,3036,3066,3149,2912,3366,3361,3198,3259,2907,3260,3283,3002,0.010096549,1.300086678,1.31255137,0.401425719261,4500.0,0.37470600009,0.00657210731879,-0.02671973221,120.238792419,0.0,6000.0,-0.00129239342641,0.0126963537186,0.0,0.0,0.349065840244,0.0216827709228,0.00474733300507,0.29519739747,-0.00153861939907,-0.00153861939907,-0.00383945577778,-0.0251496937126,148.52130127,148.52130127,-0.870214402676,1.62269806862,2023,2027,2562,2038,2038,2897,3401,3400,3210,3333,3049,3025,3128,3121,3210,2821,3383,3389,3218,3338,3095,3325,3356,3157
1508405131420796170,131,1508405131420674669,plot_matl,0.25,-3000.0,0.224962294102,0.00492525240406,-0.0250377040356,-73.9068984985,0.349065840244,0.0256401468068,-0.00131138786674,0.225008040667,0.00270641292445,0.00270641292445,-0.000330474140355,0.00395718542859,-80.3558425903,-80.3558425903,-0.0353007428348,92.091178894,2021,2062,2110,2026,2026,2680,3300,3322,3126,3271,2982,2955,3036,3066,3149,2912,3366,3361,3198,3259,2907,3260,3284,3003,0.009926582,1.310014794,1.300382242,0.401425719261,4500.0,0.37335652113,-0.0203851480037,-0.0280692130327,126.311454773,0.0,6000.0,-0.00128531118389,-0.000854850048199,0.0,0.0,0.349065840244,0.0216827709228,0.00474733300507,0.29519739747,-0.00153861939907,-0.00153861939907,-0.00383945577778,-0.0251496937126,148.52130127,148.52130127,-0.870214402676,1.62269806862,2024,2025,2561,2033,2033,2897,3401,3399,3210,3333,3049,3025,3128,3121,3210,2821,3383,3389,3218,3338,3096,3327,3356,3158
1508405131430957173,132,1508405131430670808,plot_matl,0.25,-3000.0,0.2249763906,0.00464695831761,-0.0250236075372,-74.0029830933,0.349065840244,0.0256401468068,-0.00131138786674,0.225008040667,0.00270641292445,0.00270641292445,-0.000330474140355,0.00395718542859,-80.3558425903,-80.3558425903,-0.0353007428348,92.091178894,2022,2071,2110,2026,2026,2680,3300,3322,3126,3272,2980,2955,3036,3067,3146,2914,3369,3362,3198,3259,2907,3260,3284,3003,0.009996443,1.320011203,1.319530476,0.401425719261,4500.0,0.37470600009,0.00654664076865,-0.02671973221,120.238792419,0.0,6000.0,-0.00129318097606,-0.000700620061252,0.0,0.0,0.349065840244,0.0216827709228,0.00474733300507,0.29519739747,-0.00153861939907,-0.00153861939907,-0.00383945577778,-0.0251496937126,148.52130127,148.52130127,-0.870214402676,1.62269806862,2021,2025,2561,2033,2033,2897,3401,3399,3211,3332,3051,3024,3127,3119,3211,2822,3382,3389,3218,3338,3096,3327,3356,3158
1508405131440805955,133,1508405131440668411,plot_matl,0.25,-3000.0,0.225049898028,0.00318415276706,-0.0249501038343,-74.159072876,0.349065840244,0.0242906641215,-0.00128624914214,0.225040525198,-0.00949903950095,-0.00949903950095,-0.000850354786962,0.00337821501307,-80.0243530273,-80.0243530273,-0.311602085829,91.7187652588,2006,2049,2111,2026,2026,2680,3300,3322,3126,3272,2980,2955,3036,3067,3146,2914,3369,3362,3199,3259,2907,3259,3284,3002,0.00999596,1.330008442,1.32946268,0.401425719261,4500.0,0.37470600009,0.00778265064582,-0.02671973221,120.238792419,0.0,6000.0,-0.00128870108165,-0.000801506044809,0.0,0.0,0.349065840244,0.0216827709228,0.00477485172451,0.29495754838,-0.000624961627182,-0.000624961627182,-0.00437860796228,-0.0203607510775,148.593490601,148.593490601,-0.695683062077,1.20851361752,2031,2029,2562,2033,2033,2897,3401,3399,3211,3332,3051,3024,3127,3119,3211,2822,3382,3389,3216,3337,3098,3325,3356,3156
1508405131450909227,134,1508405131450678462,plot_matl,0.25,-3000.0,0.225010231137,0.00394871691242,-0.0249897744507,-73.9713134766,0.349065840244,0.0242906641215,-0.00128624914214,0.225040525198,-0.00949903950095,-0.00949903950095,-0.000850354786962,0.00337821501307,-80.0243530273,-80.0243530273,-0.311602085829,91.7187652588,2013,2055,2111,2026,2026,2680,3301,3323,3126,3269,2983,2955,3037,3066,3146,2914,3369,3362,3199,3259,2907,3259,3284,3002,0.01001104,1.340018904,1.34147936,0.401425719261,4500.0,0.37470600009,0.00779462326318,-0.02671973221,120.238792419,0.0,6000.0,-0.00128458114341,-0.000890736526344,0.0,0.0,0.349065840244,0.0216827709228,0.00477485172451,0.29495754838,-0.000624961627182,-0.000624961627182,-0.00437860796228,-0.0203607510775,148.593490601,148.593490601,-0.695683062077,1.20851361752,2022,2025,2562,2033,2033,2897,3402,3398,3213,3332,3052,3025,3129,3120,3212,2821,3382,3389,3216,3337,3098,3325,3356,3156
1508405131460849399,135,1508405131460659946,plot_matl,0.25,-3000.0,0.22497215867,-0.0332502312958,-0.0250278376043,-83.1894607544,0.349065840244,0.0242906641215,-0.00128624914214,0.225040525198,-0.00949903950095,-0.00949903950095,-0.000850354786962,0.00337821501307,-80.0243530273,-80.0243530273,-0.311602085829,91.7187652588,2027,2061,2110,2028,2028,2680,3301,3323,3126,3269,2983,2955,3037,3066,3146,2914,3369,3361,3199,3257,2908,3259,3284,3003,0.009979558,1.349999445,1.34724033,0.401425719261,4500.0,0.37470600009,0.00790832936764,-0.02671973221,120.238792419,0.0,6000.0,-0.0012800822733,-0.000988188548945,0.0,0.0,0.349065840244,0.0216827709228,0.00477485172451,0.29495754838,-0.000624961627182,-0.000624961627182,-0.00437860796228,-0.0203607510775,148.593490601,148.593490601,-0.695683062077,1.20851361752,2026,2028,2561,2035,2035,2897,3402,3398,3213,3332,3052,3025,3129,3120,3212,2821,3383,3388,3217,3336,3097,3324,3357,3159
1508405131471012437,136,1508405131470686030,plot_matl,0.25,-3000.0,0.224979519844,0.00450098048896,-0.0250204782933,-73.878616333,0.349065840244,0.0242906641215,-0.00128624914214,0.225040525198,-0.00949903950095,-0.00949903950095,-0.000850354786962,0.00337821501307,-80.0243530273,-80.0243530273,-0.311602085829,91.7187652588,2027,2061,2110,2028,2028,2680,3301,3323,3126,3269,2983,2955,3037,3066,3146,2914,3369,3361,3199,3257,2908,3259,3284,3003,0.010027631,1.360026249,1.363757816,0.401425719261,4500.0,0.37335652113,-0.0186932533979,-0.0280692130327,126.311454773,0.0,6000.0,-0.0012889362406,-0.000809075951111,0.0,0.0,0.349065840244,0.0216827709228,0.00477485172451,0.29495754838,-0.000624961627182,-0.000624961627182,-0.00437860796228,-0.0203607510775,148.593490601,148.593490601,-0.695683062077,1.20851361752,2026,2028,2561,2035,2035,2897,3402,3398,3213,3332,3052,3025,3129,3120,3212,2821,3383,3388,3217,3336,3097,3324,3357,3159
1508405131481133914,137,1508405131480680662,plot_matl,0.25,-3000.0,0.224991977215,0.0422047115862,-0.0250080227852,-65.2671737671,0.349065840244,0.0256401468068,-0.0012822416611,0.224940940738,0.00374995591119,0.00374995591119,-0.000938292010687,0.00533904973418,-79.6882858276,-79.6882858276,-0.358130306005,92.1577224731,2019,2051,2110,2028,2028,2678,3300,3322,3125,3269,2983,2953,3035,3065,3148,2912,3371,3361,3197,3259,2907,3259,3286,3003,0.009995459,1.370021803,1.369377883,0.401425719261,4500.0,0.37470600009,0.00706611201167,-0.02671973221,120.238792419,0.0,6000.0,-0.00128494214732,-0.000884020642843,0.0,0.0,0.349065840244,0.0216827709228,0.0048014675267,0.294870764017,-0.000563040201087,-0.000563040201087,0.0104307280853,0.0432843342423,148.577529907,148.577529907,-0.771852135658,0.916103065014,2032,2030,2561,2035,2035,2897,3401,3399,3212,3334,3051,3024,3129,3120,3210,2821,3382,3388,3218,3336,3096,3325,3357,3158
1508405131491137120,138,1508405131490718862,plot_matl,0.25,-3000.0,0.224960774183,0.00489747384563,-0.0250392220914,-73.943031311,0.349065840244,0.0256401468068,-0.0012822416611,0.224940940738,0.00374995591119,0.00374995591119,-0.000938292010687,0.00533904973418,-79.6882858276,-79.6882858276,-0.358130306005,92.1577224731,2049,2067,2112,2029,2029,2680,3301,3322,3125,3271,2982,2954,3035,3065,3148,2912,3371,3361,3197,3259,2907,3259,3286,3003,0.010037254,1.380059337,1.385141052,0.401425719261,4500.0,0.37335652113,-0.0185003764927,-0.0280692130327,126.311454773,0.0,6000.0,-0.00127968192101,-0.000987106701359,0.0,0.0,0.349065840244,0.0216827709228,0.0048014675267,0.294870764017,-0.000563040201087,-0.000563040201087,0.0104307280853,0.0432843342423,148.577529907,148.577529907,-0.771852135658,0.916103065014,2020,2013,2562,2033,2033,2897,3400,3400,3212,3334,3051,3025,3129,3120,3210,2821,3382,3388,3218,3336,3096,3325,3357,3158
1508405131501121363,139,1508405131500681386,plot_matl,0.25,-3000.0,0.224931940436,-0.0324307009578,-0.0250680595636,-83.1494293213,0.349065840244,0.0256401468068,-0.0012822416611,0.224940940738,0.00374995591119,0.00374995591119,-0.000938292010687,0.00533904973418,-79.6882858276,-79.6882858276,-0.358130306005,92.1577224731,2003,2018,2112,2029,2029,2680,3301,3322,3125,3271,2982,2954,3036,3067,3148,2912,3370,3362,3198,3259,2908,3257,3286,3003,0.00996255,1.390022166,1.38479445,0.401425719261,4500.0,0.37470600009,0.00903664622456,-0.02671973221,120.238792419,0.0,6000.0,-0.0012651119614,-0.00127981917467,0.0,0.0,0.349065840244,0.0216827709228,0.0048014675267,0.294870764017,-0.000563040201087,-0.000563040201087,0.0104307280853,0.0432843342423,148.577529907,148.577529907,-0.771852135658,0.916103065014,2038,2033,2562,2033,2033,2897,3400,3400,3212,3334,3051,3025,3130,3119,3210,2822,3383,3388,3219,3335,3096,3326,3357,3158
1508405131511585454,140,1508405131510765395,plot_matl,0.25,-3000.0,0.224915280938,0.00580692663789,-0.0250847153366,-73.8569030762,0.349065840244,0.0256401468068,-0.0012822416611,0.224940940738,0.00374995591119,0.00374995591119,-0.000938292010687,0.00533904973418,-79.6882858276,-79.6882858276,-0.358130306005,92.1577224731,2010,2041,2112,2026,2026,2680,3301,3323,3124,3270,2982,2954,3036,3067,3148,2912,3370,3362,3198,3259,2908,3257,3287,3003,0.010085838,1.400107444,1.41201732,0.401425719261,4500.0,0.37470600009,0.00836905837059,-0.02671973221,120.238792419,0.0,6000.0,-0.00126355537213,-0.00130747957155,0.0,0.0,0.349065840244,0.0216827709228,0.0048014675267,0.294870764017,-0.000563040201087,-0.000563040201087,0.0104307280853,0.0432843342423,148.577529907,148.577529907,-0.771852135658,0.916103065014,2027,2023,2561,2035,2035,2897,3400,3398,3211,3332,3051,3025,3130,3119,3210,2822,3383,3388,3219,3335,3096,3326,3356,3158
1508405131520942411,141,1508405131520667016,plot_matl,0.25,-3000.0,0.224903792143,0.00611726846546,-0.0250962097198,-73.7561721802,0.349065840244,0.0242906641215,-0.00127207231708,0.224884793162,-0.00918825622648,-0.00918825622648,-0.00113714591134,-0.0314500294626,-79.5621337891,-79.5621337891,-0.213539943099,91.6162872314,2043,2081,2112,2026,2026,2680,3301,3323,3124,3270,2982,2955,3038,3066,3149,2912,3370,3361,3196,3259,2908,3257,3287,3003,0.009897872,1.410006981,1.395599952,0.401425719261,4500.0,0.37470600009,0.00838459655643,-0.02671973221,120.238792419,0.0,6000.0,-0.00127545953728,-0.001069402555,0.0,0.0,0.349065840244,0.0216827709228,0.00475719477981,0.295004785061,3.82743201044e-05,3.82743201044e-05,-0.00399580737576,-0.0214281491935,148.70161438,148.70161438,-0.684120059013,1.0013936758,2020,2019,2561,2035,2035,2897,3400,3398,3211,3332,3049,3024,3129,3120,3211,2821,3383,3388,3217,3337,3096,3326,3356,3158
1508405131530816450,142,1508405131530657603,plot_matl,0.25,-3000.0,0.225025817752,0.00367147871293,-0.0249741785228,-74.0396652222,0.349065840244,0.0242906641215,-0.00127207231708,0.224884793162,-0.00918825622648,-0.00918825622648,-0.00113714591134,-0.0314500294626,-79.5621337891,-79.5621337891,-0.213539943099,91.6162872314,2001,2044,2110,2024,2024,2680,3303,3322,3124,3270,2982,2955,3038,3066,3149,2912,3370,3361,3196,3259,2907,3259,3287,3003,0.009989092,1.419997256,1.418451064,0.401425719261,4500.0,0.37470600009,0.00828192848712,-0.02671973221,120.238792419,0.0,6000.0,-0.00127370690461,-0.00110501796007,0.0,0.0,0.349065840244,0.0216827709228,0.00475719477981,0.295004785061,3.82743201044e-05,3.82743201044e-05,-0.00399580737576,-0.0214281491935,148.70161438,148.70161438,-0.684120059013,1.0013936758,2030,2032,2562,2035,2035,2898,3402,3398,3211,3332,3049,3024,3129,3120,3211,2821,3383,3388,3217,3337,3096,3324,3357,3156
1508405131540887511,143,1508405131540667614,plot_matl,0.25,-3000.0,0.225059047341,0.0029803046491,-0.0249409582466,-74.1034698486,0.349065840244,0.0242906641215,-0.00127207231708,0.224884793162,-0.00918825622648,-0.00918825622648,-0.00113714591134,-0.0314500294626,-79.5621337891,-79.5621337891,-0.213539943099,91.6162872314,1998,2059,2110,2024,2024,2680,3303,3322,3127,3272,2982,2956,3036,3065,3149,2910,3370,3363,3196,3259,2907,3259,3287,3003,0.010010356,1.430007486,1.431480908,0.401425719261,4500.0,0.37335652113,-0.0189773663878,-0.0280692130327,126.311454773,0.0,6000.0,-0.00127334403805,-0.00111820152961,0.0,0.0,0.349065840244,0.0216827709228,0.00475719477981,0.295004785061,3.82743201044e-05,3.82743201044e-05,-0.00399580737576,-0.0214281491935,148.70161438,148.70161438,-0.684120059013,1.0013936758,2032,2045,2562,2035,2035,2898,3402,3398,3213,3333,3052,3025,3129,3119,3209,2820,3383,3389,3217,3337,3096,3324,3357,3156
1508405131550812978,144,1508405131550660601,plot_matl,0.25,-3000.0,0.224980041385,-0.0333360284567,-0.0250199530274,-83.3649215698,0.349065840244,0.0242906641215,-0.00127207231708,0.224884793162,-0.00918825622648,-0.00918825622648,-0.00113714591134,-0.0314500294626,-79.5621337891,-79.5621337891,-0.213539943099,91.6162872314,2039,2100,2111,2024,2024,2679,3303,3322,3127,3272,2982,2956,3036,3065,3149,2910,3370,3363,3197,3259,2908,3260,3285,3002,0.009992929,1.440000586,1.438981776,0.401425719261,4500.0,0.37470600009,0.00774508109316,-0.02671973221,120.238792419,0.0,6000.0,-0.00126964168157,-0.00116071314551,0.0,0.0,0.349065840244,0.0216827709228,0.00475719477981,0.295004785061,3.82743201044e-05,3.82743201044e-05,-0.00399580737576,-0.0214281491935,148.70161438,148.70161438,-0.684120059013,1.0013936758,2017,2029,2561,2039,2039,2897,3402,3398,3213,3333,3052,3025,3129,3119,3209,2820,3383,3389,3216,3336,3097,3325,3355,3158
1508405131561058107,145,1508405131560676343,plot_matl,0.25,-3000.0,0.224983140826,-0.0334298685193,-0.0250168647617,-83.0887832642,0.349065840244,0.0242906641215,-0.00126595131587,0.225044816732,-0.00951779820025,-0.00951779820025,-0.00123295839876,0.00326221529394,-79.3612213135,-79.3612213135,-0.0315145663917,91.5280380249,2005,2037,2111,2024,2024,2679,3302,3323,3125,3270,2981,2955,3037,3064,3146,2914,3370,3363,3197,3259,2908,3260,3285,3002,0.010017182,1.450017058,1.45249139,0.401425719261,4500.0,0.37470600009,0.00734991487116,-0.02671973221,120.238792419,0.0,6000.0,-0.0012589028338,-0.00139149243478,0.0,0.0,0.349065840244,0.0216827709228,0.00478493468836,0.295012354851,0.000161237010616,0.000161237010616,-0.00454861670732,-0.0215689092875,149.004882812,149.004882812,-0.495772778988,1.47857141495,2032,2034,2561,2039,2039,2897,3403,3400,3213,3334,3050,3025,3129,3120,3210,2821,3383,3389,3216,3336,3097,3325,3355,3158
1508405131570948240,146,1508405131570680005,plot_matl,0.25,-3000.0,0.225023522973,0.00366534944624,-0.0249764788896,-73.9626693726,0.349065840244,0.0242906641215,-0.00126595131587,0.225044816732,-0.00951779820025,-0.00951779820025,-0.00123295839876,0.00326221529394,-79.3612213135,-79.3612213135,-0.0315145663917,91.5280380249,2014,2052,2111,2025,2025,2679,3302,3323,3125,3270,2981,2955,3037,3064,3146,2914,3369,3361,3198,3261,2907,3260,3286,3003,0.010002349,1.460020274,1.460342954,0.401425719261,4500.0,0.37470600009,0.0064570819959,-0.02671973221,120.238792419,0.0,6000.0,-0.00128282047808,-0.000915239565074,0.0,0.0,0.349065840244,0.0216827709228,0.00478493468836,0.295012354851,0.000161237010616,0.000161237010616,-0.00454861670732,-0.0215689092875,149.004882812,149.004882812,-0.495772778988,1.47857141495,2029,2024,2563,2036,2036,2897,3403,3400,3213,3334,3050,3025,3129,3120,3210,2821,3383,3388,3216,3335,3098,3324,3357,3156
1508405131581111001,147,1508405131580709556,plot_matl,0.25,-3000.0,0.224947795272,-0.0327633917332,-0.0250522084534,-82.8567733765,0.349065840244,0.0242906641215,-0.00126595131587,0.225044816732,-0.00951779820025,-0.00951779820025,-0.00123295839876,0.00326221529394,-79.3612213135,-79.3612213135,-0.0315145663917,91.5280380249,2049,2076,2111,2025,2025,2679,3299,3322,3124,3271,2981,2956,3036,3066,3146,2914,3369,3361,3198,3261,2907,3260,3286,3003,0.010029465,1.470050106,1.474331355,0.401425719261,4500.0,0.37470600009,0.00726896105334,-0.02671973221,120.238792419,0.0,6000.0,-0.00127926131245,-0.000978412223049,0.0,0.0,0.349065840244,0.0216827709228,0.00478493468836,0.295012354851,0.000161237010616,0.000161237010616,-0.00454861670732,-0.0215689092875,149.004882812,149.004882812,-0.495772778988,1.47857141495,2020,2017,2563,2036,2036,2896,3401,3400,3211,3333,3050,3025,3129,3120,3210,2821,3383,3388,3216,3335,3098,3324,3357,3156
1508405131591072495,148,1508405131590677202,plot_matl,0.25,-3000.0,0.224789097905,0.00832783803344,-0.0252109020948,-73.6509246826,0.349065840244,0.0242906641215,-0.00126595131587,0.225044816732,-0.00951779820025,-0.00951779820025,-0.00123295839876,0.00326221529394,-79.3612213135,-79.3612213135,-0.0315145663917,91.5280380249,2014,2044,2111,2025,2025,2679,3299,3322,3124,3271,2981,2956,3036,3066,3147,2912,3367,3364,3194,3259,2907,3261,3284,3001,0.00996715,1.480017502,1.4751382,0.401425719261,4500.0,0.37335652113,-0.0207480750978,-0.0280692130327,126.311454773,0.0,6000.0,-0.00126287213061,0.0121068293229,0.0,0.0,0.349065840244,0.0216827709228,0.00478493468836,0.295012354851,0.000161237010616,0.000161237010616,-0.00454861670732,-0.0215689092875,149.004882812,149.004882812,-0.495772778988,1.47857141495,2018,2021,2563,2036,2036,2896,3401,3400,3211,3333,3050,3025,3129,3120,3209,2821,3382,3389,3217,3336,3097,3324,3356,3158
1508405131601076069,149,1508405131600675712,plot_matl,0.25,-3000.0,0.224798947573,0.00814597774297,-0.025201048702,-73.5810089111,0.349065840244,0.0256401468068,-0.00125461712014,0.22500911355,0.00362890027463,0.00362890027463,-0.00147665059194,0.00395915517583,-79.232208252,-79.232208252,-0.0380299948156,91.4758300781,2002,2058,2111,2027,2027,2680,3300,3324,3124,3271,2981,2955,3036,3066,3147,2912,3367,3364,3194,3259,2907,3261,3284,3001,0.009998843,1.490016432,1.489827607,0.401425719261,4500.0,0.37470600009,0.00684774294496,-0.02671973221,120.238792419,0.0,6000.0,-0.00125032907818,-0.00157944706734,0.0,0.0,0.349065840244,0.0216827709228,0.00475802458823,0.294932186604,0.000544515729416,0.000544515729416,-0.00401237187907,-0.0199261698872,148.849777222,148.849777222,-0.439030885696,1.34806859493,2020,2032,2562,2034,2034,2897,3401,3400,3211,3332,3051,3023,3129,3120,3209,2821,3382,3389,3217,3336,3097,3324,3356,3158
1508405131611174401,150,1508405131610676929,plot_matl,0.25,-3000.0,0.224768802524,-0.0291413329542,-0.025231204927,-82.2675018311,0.349065840244,0.0256401468068,-0.00125461712014,0.22500911355,0.00362890027463,0.00362890027463,-0.00147665059194,0.00395915517583,-79.232208252,-79.232208252,-0.0380299948156,91.4758300781,2033,2065,2111,2027,2027,2680,3300,3324,3124,3271,2981,2955,3038,3065,3147,2912,3367,3361,3199,3258,2908,3258,3284,3001,0.010000926,1.500017493,1.5001389,0.401425719261,4500.0,0.37470600009,0.00662001594901,-0.02671973221,120.238792419,0.0,6000.0,-0.00125363876577,-0.00152346270625,0.0,0.0,0.349065840244,0.0216827709228,0.00475802458823,0.294932186604,0.000544515729416,0.000544515729416,-0.00401237187907,-0.0199261698872,148.849777222,148.849777222,-0.439030885696,1.34806859493,2022,2025,2562,2034,2034,2897,3401,3400,3211,3332,3051,3023,3129,3120,3210,2822,3382,3388,3217,3335,3098,3326,3356,3158
1508405131621071707,151,1508405131620687136,plot_matl,0.25,-3000.0,0.224812313914,-0.0299936477095,-0.0251876935363,-82.4358444214,0.349065840244,0.0256401468068,-0.00125461712014,0.22500911355,0.00362890027463,0.00362890027463,-0.00147665059194,0.00395915517583,-79.232208252,-79.232208252,-0.0380299948156,91.4758300781,2028,2056,2110,2026,2026,2679,3301,3321,3123,3270,2981,2955,3038,3065,3147,2912,3367,3361,3199,3258,2908,3258,3285,3003,0.010010257,1.510027916,1.511548807,0.401425719261,4500.0,0.37470600009,0.00729859946296,-0.02671973221,120.238792419,0.0,6000.0,-0.00125576392747,-0.00147925026249,0.0,0.0,0.349065840244,0.0216827709228,0.00475802458823,0.294932186604,0.000544515729416,0.000544515729416,-0.00401237187907,-0.0199261698872,148.849777222,148.849777222,-0.439030885696,1.34806859493,2029,2027,2562,2038,2038,2897,3400,3399,3211,3333,3051,3023,3129,3120,3210,2822,3382,3388,3217,3335,3098,3326,3357,3159
1508405131630793358,152,1508405131630660922,plot_matl,0.25,-3000.0,0.224780485034,0.00856910366565,-0.0252195205539,-73.6810379028,0.349065840244,0.0256401468068,-0.00125461712014,0.22500911355,0.00362890027463,0.00362890027463,-0.00147665059194,0.00395915517583,-79.232208252,-79.232208252,-0.0380299948156,91.4758300781,2019,2045,2110,2026,2026,2679,3301,3321,3123,3270,2981,2955,3038,3067,3148,2911,3369,3359,3197,3259,2908,3258,3285,3003,0.00997131,1.520000538,1.51563912,0.401425719261,4500.0,0.37470600009,0.00737765664235,-0.02671973221,120.238792419,0.0,6000.0,-0.00125632050913,0.0119505338371,0.0,0.0,0.349065840244,0.0216827709228,0.00475802458823,0.294932186604,0.000544515729416,0.000544515729416,-0.00401237187907,-0.0199261698872,148.849777222,148.849777222,-0.439030885696,1.34806859493,2036,2033,2562,2038,2038,2897,3400,3399,3211,3333,3052,3024,3128,3120,3210,2820,3382,3386,3216,3336,3098,3326,3357,3159
1508405131641177615,153,1508405131640703821,plot_matl,0.25,-3000.0,0.224857658148,0.00700016319752,-0.0251423493028,-73.7995529175,0.349065840244,0.0256401468068,-0.00125921051949,0.224773854017,0.00335042085499,0.00335042085499,-0.00139598618262,0.00865106098354,-79.2980117798,-79.2980117798,-0.137256503105,91.9787445068,2025,2051,2110,2025,2025,2679,3299,3321,3123,3270,2981,2955,3038,3067,3148,2911,3369,3359,3197,3259,2907,3259,3285,3002,0.01004453,1.530044537,1.53681309,0.401425719261,4500.0,0.37470600009,0.00800645258278,-0.02671973221,120.238792419,0.0,6000.0,-0.00128201930784,-0.000953958078753,0.0,0.0,0.349065840244,0.0216827709228,0.00478355865926,0.294965445995,0.000248987111263,0.000248987111263,-0.00458832178265,-0.0205255933106,148.861587524,148.861587524,-0.611763656139,0.944484531879,2028,2022,2562,2037,2037,2897,3400,3400,3211,3333,3052,3024,3128,3120,3210,2820,3382,3386,3216,3336,3097,3327,3358,3158
1508405131651018691,154,1508405131650706195,plot_matl,0.25,-3000.0,0.224920660257,0.00572597794235,-0.0250793471932,-73.8056259155,0.349065840244,0.0256401468068,-0.00125921051949,0.224773854017,0.00335042085499,0.00335042085499,-0.00139598618262,0.00865106098354,-79.2980117798,-79.2980117798,-0.137256503105,91.9787445068,2025,2048,2110,2025,2025,2679,3299,3321,3125,3271,2981,2955,3037,3065,3147,2913,3369,3364,3197,3259,2907,3259,3285,3002,0.010001272,1.54004659,1.540195888,0.401425719261,4500.0,0.37605547905,0.0332591496408,-0.0253702495247,114.166122437,0.0,6000.0,-0.00127762276679,-0.00102225912269,0.0,0.0,0.349065840244,0.0216827709228,0.00478355865926,0.294965445995,0.000248987111263,0.000248987111263,-0.00458832178265,-0.0205255933106,148.861587524,148.861587524,-0.611763656139,0.944484531879,2033,2025,2562,2037,2037,2897,3400,3400,3211,3334,3053,3025,3129,3120,3210,2821,3384,3388,3216,3336,3097,3327,3358,3158
1508405131661076950,155,1508405131660680686,plot_matl,0.25,-3000.0,0.224870234728,-0.0311333518475,-0.0251297634095,-82.9461593628,0.349065840244,0.0256401468068,-0.00125921051949,0.224773854017,0.00335042085499,0.00335042085499,-0.00139598618262,0.00865106098354,-79.2980117798,-79.2980117798,-0.137256503105,91.9787445068,2001,2045,2110,2021,2021,2680,3299,3321,3125,3271,2981,2955,3037,3065,3147,2913,3369,3364,3199,3259,2908,3259,3285,3002,0.009974882,1.550021602,1.54610671,0.401425719261,4500.0,0.37470600009,0.00595138128847,-0.02671973221,120.238792419,0.0,6000.0,-0.00127391319256,-0.00109777017497,0.0,0.0,0.349065840244,0.0216827709228,0.00478355865926,0.294965445995,0.000248987111263,0.000248987111263,-0.00458832178265,-0.0205255933106,148.861587524,148.861587524,-0.611763656139,0.944484531879,2027,2028,2561,2033,2033,2897,3400,3400,3211,3334,3053,3025,3129,3120,3210,2821,3384,3388,3218,3336,3097,3326,3355,3158
1508405131671405052,156,1508405131670689796,plot_matl,0.25,-3000.0,0.224895954132,0.00626736553386,-0.0251040477306,-73.7518768311,0.349065840244,0.0256401468068,-0.00125921051949,0.224773854017,0.00335042085499,0.00335042085499,-0.00139598618262,0.00865106098354,-79.2980117798,-79.2980117798,-0.137256503105,91.9787445068,2008,2047,2110,2021,2021,2680,3300,3323,3126,3272,2981,2953,3038,3066,3146,2912,3369,3364,3199,3259,2908,3259,3285,3002,0.010008393,1.560030492,1.561309308,0.401425719261,4500.0,0.37335652113,-0.0222482513636,-0.0280692130327,126.311454773,0.0,6000.0,-0.0012600653572,-0.00138288666494,0.0,0.0,0.349065840244,0.0216827709228,0.00478355865926,0.294965445995,0.000248987111263,0.000248987111263,-0.00458832178265,-0.0205255933106,148.861587524,148.861587524,-0.611763656139,0.944484531879,2034,2033,2561,2033,2033,2897,3401,3399,3214,3334,3050,3025,3130,3119,3212,2820,3384,3388,3218,3336,3097,3326,3355,3158
1508405131680833799,157,1508405131680665455,plot_matl,0.25,-3000.0,0.224984705448,0.00447354046628,-0.0250152908266,-73.9976577759,0.349065840244,0.0242906641215,-0.00127917516511,0.224798172712,-0.00965313240886,-0.00965313240886,-0.00101179431658,-0.0297110080719,-79.2730102539,-79.2730102539,-0.0848507061601,91.7427215576,2014,2066,2111,2020,2020,2680,3300,3323,3126,3272,2981,2953,3038,3066,3146,2912,3369,3363,3197,3259,2908,3258,3286,3001,0.009973547,1.57000505,1.565846879,0.401425719261,4500.0,0.37470600009,0.00363971292973,-0.02671973221,120.238792419,0.0,6000.0,-0.00127247185446,-0.00113375182264,0.0,0.0,0.349065840244,0.0216827709228,0.00477462820709,0.295136451721,-0.00112910964526,-0.00112910964526,-0.00437240954489,-0.0240922532976,148.794784546,148.794784546,-0.439379781485,1.80118322372,2018,2023,2561,2033,2033,2897,3401,3399,3214,3334,3050,3025,3130,3119,3212,2820,3383,3389,3219,3336,3096,3326,3357,3158
1508405131690973415,158,1508405131690699275,plot_matl,0.25,-3000.0,0.224987134337,-0.0334973782301,-0.0250128712505,-83.1194458008,0.349065840244,0.0242906641215,-0.00127917516511,0.224798172712,-0.00965313240886,-0.00965313240886,-0.00101179431658,-0.0297110080719,-79.2730102539,-79.2730102539,-0.0848507061601,91.7427215576,2019,2057,2111,2020,2020,2681,3300,3322,3123,3271,2982,2955,3038,3067,3146,2912,3369,3363,3197,3259,2908,3258,3286,3001,0.010035446,1.580039855,1.585600468,0.401425719261,4500.0,0.37470600009,0.00297964713536,-0.02671973221,120.238792419,0.0,6000.0,-0.00125869002659,-0.00142164959107,0.0,0.0,0.349065840244,0.0216827709228,0.00477462820709,0.295136451721,-0.00112910964526,-0.00112910964526,-0.00437240954489,-0.0240922532976,148.794784546,148.794784546,-0.439379781485,1.80118322372,2032,2027,2561,2033,2033,2898,3401,3399,3212,3333,3051,3024,3129,3120,3212,2820,3383,3389,3219,3336,3096,3326,3357,3158
1508405131701033769,159,1508405131700673183,plot_matl,0.25,-3000.0,0.225018575788,-0.0341399461031,-0.0249814242125,-83.2453384399,0.349065840244,0.0242906641215,-0.00127917516511,0.224798172712,-0.00965313240886,-0.00965313240886,-0.00101179431658,-0.0297110080719,-79.2730102539,-79.2730102539,-0.0848507061601,91.7427215576,2011,2043,2111,2020,2020,2681,3300,3322,3123,3271,2982,2955,3038,3067,3148,2912,3368,3360,3198,3259,2908,3259,3285,3003,0.009972401,1.590013038,1.585611759,0.401425719261,4500.0,0.37470600009,0.00240471889265,-0.02671973221,120.238792419,0.0,6000.0,-0.00125965673942,-0.00140060472768,0.0,0.0,0.349065840244,0.0216827709228,0.00477462820709,0.295136451721,-0.00112910964526,-0.00112910964526,-0.00437240954489,-0.0240922532976,148.794784546,148.794784546,-0.439379781485,1.80118322372,2025,2021,2561,2033,2033,2898,3401,3399,3212,3333,3051,3024,3129,3120,3209,2820,3382,3389,3217,3336,3097,3327,3357,3158
1508405131710831802,160,1508405131710669001,plot_matl,0.25,-3000.0,0.225019857287,0.00374102010392,-0.0249801483005,-74.0676879883,0.349065840244,0.0242906641215,-0.00127917516511,0.224798172712,-0.00965313240886,-0.00965313240886,-0.00101179431658,-0.0297110080719,-79.2730102539,-79.2730102539,-0.0848507061601,91.7427215576,2017,2061,2111,2021,2021,2681,3301,3322,3126,3271,2982,2953,3038,3067,3148,2912,3368,3360,3198,3259,2908,3259,3285,3003,0.009994933,1.600008474,1.59918928,0.401425719261,4500.0,0.37470600009,0.00246044527739,-0.02671973221,120.238792419,0.0,6000.0,-0.0012716257479,-0.00114935461897,0.0,0.0,0.349065840244,0.0216827709228,0.00477462820709,0.295136451721,-0.00112910964526,-0.00112910964526,-0.00437240954489,-0.0240922532976,148.794784546,148.794784546,-0.439379781485,1.80118322372,2020,2023,2563,2036,2036,2897,3401,3399,3212,3332,3051,3025,3129,3120,3209,2820,3382,3389,3217,3336,3097,3327,3357,3158
1508405131720873682,161,1508405131720659717,plot_matl,0.25,-3000.0,0.225021317601,0.00371005153283,-0.0249786805362,-74.123664856,0.349065840244,0.0256401468068,-0.00126907404047,0.22497151792,0.00192938023247,0.00192938023247,-0.0012019838905,0.00474276999012,-79.1341171265,-79.1341171265,0.252228975296,91.7127914429,2027,2069,2111,2021,2021,2681,3301,3322,3126,3271,2982,2953,3038,3067,3147,2912,3369,3360,3196,3260,2906,3260,3285,3003,0.009991615,1.609999816,1.608650015,0.401425719261,4500.0,0.37470600009,0.00304194586352,-0.02671973221,120.238792419,0.0,6000.0,-0.00127002992667,-0.0011994165834,0.0,0.0,0.349065840244,0.0216827709228,0.00475415866822,0.29517647624,-0.000618929043412,-0.000618929043412,0.011416756548,-0.0247209742665,149.140838623,149.140838623,-0.153503164649,1.25422024727,2025,2024,2563,2036,2036,2897,3401,3399,3212,3332,3051,3025,3129,3121,3211,2821,3382,3388,3217,3335,3097,3325,3357,3158
1508405131731107301,162,1508405131730708467,plot_matl,0.25,-3000.0,0.224987208843,0.00441338820383,-0.0250127948821,-74.0139923096,0.349065840244,0.0256401468068,-0.00126907404047,0.22497151792,0.00192938023247,0.00192938023247,-0.0012019838905,0.00474276999012,-79.1341171265,-79.1341171265,0.252228975296,91.7127914429,2007,2059,2111,2023,2023,2679,3301,3323,3125,3271,2982,2953,3038,3067,3147,2912,3369,3360,3196,3260,2906,3260,3287,3000,0.010049566,1.620049037,1.628029692,0.401425719261,4500.0,0.37470600009,0.00139339501038,-0.02671973221,120.238792419,0.0,6000.0,-0.00128073943779,-0.000981334713288,0.0,0.0,0.349065840244,0.0216827709228,0.00475415866822,0.29517647624,-0.000618929043412,-0.000618929043412,0.011416756548,-0.0247209742665,149.140838623,149.140838623,-0.153503164649,1.25422024727,2024,2027,2562,2037,2037,2898,3400,3398,3213,3333,3051,3025,3129,3121,3211,2821,3382,3388,3217,3335,3097,3325,3358,3156
1508405131741085460,163,1508405131740703890,plot_matl,0.25,-3000.0,0.225027605891,0.0035524838604,-0.0249723866582,-74.0855484009,0.349065840244,0.0256401468068,-0.00126907404047,0.22497151792,0.00192938023247,0.00192938023247,-0.0012019838905,0.00474276999012,-79.1341171265,-79.1341171265,0.252228975296,91.7127914429,2018,2059,2111,2023,2023,2679,3301,3323,3125,3271,2981,2955,3037,3066,3147,2912,3367,3361,3197,3259,2906,3260,3287,3000,0.010004303,1.63005439,1.630701389,0.401425719261,4500.0,0.37335652113,-0.0245899818838,-0.0280692130327,126.311454773,0.0,6000.0,-0.00128944916651,-0.000803977949545,0.0,0.0,0.349065840244,0.0216827709228,0.00475415866822,0.29517647624,-0.000618929043412,-0.000618929043412,0.011416756548,-0.0247209742665,149.140838623,149.140838623,-0.153503164649,1.25422024727,2029,2028,2562,2037,2037,2898,3400,3398,3213,3333,3050,3026,3129,3119,3210,2820,3382,3388,3218,3334,3097,3325,3358,3156
1508405131750814236,164,1508405131750659304,plot_matl,0.25,-3000.0,0.22509329021,0.00217357766815,-0.0249067060649,-74.1486282349,0.349065840244,0.0256401468068,-0.00126907404047,0.22497151792,0.00192938023247,0.00192938023247,-0.0012019838905,0.00474276999012,-79.1341171265,-79.1341171265,0.252228975296,91.7127914429,2035,2060,2110,2023,2023,2681,3300,3323,3125,3271,2981,2955,3037,3066,3147,2912,3367,3361,3197,3259,2907,3261,3284,3004,0.009944476,1.639999043,1.630894064,0.401425719261,4500.0,0.37470600009,0.00367586454377,-0.02671973221,120.238792419,0.0,6000.0,-0.00127134448849,-0.00116943346802,0.0,0.0,0.349065840244,0.0216827709228,0.00475415866822,0.29517647624,-0.000618929043412,-0.000618929043412,0.011416756548,-0.0247209742665,149.140838623,149.140838623,-0.153503164649,1.25422024727,2030,2023,2563,2032,2032,2898,3402,3399,3213,3333,3050,3026,3129,3119,3210,2820,3382,3388,3218,3334,3095,3327,3357,3157
1508405131761017594,165,1508405131760680059,plot_matl,0.25,-3000.0,0.22511279583,0.00181744468864,-0.0248871985823,-74.2204589844,0.349065840244,0.0256401468068,-0.00127917784266,0.22501026094,0.0013332212111,0.0013332212111,-0.000997882569209,0.0039349081926,-79.1713409424,-79.1713409424,0.0631201267242,91.2966995239,2026,2038,2110,2023,2023,2681,3300,3323,3126,3269,2982,2955,3034,3067,3147,2912,3369,3363,3197,3259,2907,3261,3284,3004,0.010022509,1.650020955,1.653713985,0.401425719261,4500.0,0.37470600009,0.00299221952446,-0.02671973221,120.238792419,0.0,6000.0,-0.00126856612042,0.0121986549348,0.0,0.0,0.349065840244,0.0216827709228,0.00477012246847,0.295258462429,0.00116107217036,0.00116107217036,-0.00425451248884,-0.0263755116612,149.345321655,149.345321655,-0.451442629099,0.7444896698,2034,2022,2563,2032,2032,2898,3402,3399,3212,3333,3051,3025,3129,3119,3210,2821,3383,3390,3218,3334,3095,3327,3357,3157
1508405131771065928,166,1508405131770671995,plot_matl,0.25,-3000.0,0.225162625313,0.000803286209702,-0.0248373672366,-74.3070220947,0.349065840244,0.0256401468068,-0.00127917784266,0.22501026094,0.0013332212111,0.0013332212111,-0.000997882569209,0.0039349081926,-79.1713409424,-79.1713409424,0.0631201267242,91.2966995239,2013,2041,2111,2026,2026,2682,3300,3323,3126,3269,2982,2955,3034,3067,3147,2912,3369,3363,3196,3258,2907,3261,3285,3001,0.009990372,1.660012129,1.658401752,0.401425719261,4500.0,0.37470600009,0.00244923052378,-0.02671973221,120.238792419,0.0,6000.0,-0.00127960799728,-0.00100090296473,0.0,0.0,0.349065840244,0.0216827709228,0.00477012246847,0.295258462429,0.00116107217036,0.00116107217036,-0.00425451248884,-0.0263755116612,149.345321655,149.345321655,-0.451442629099,0.7444896698,2027,2026,2562,2036,2036,2898,3402,3399,3212,3333,3051,3025,3129,3119,3210,2821,3383,3390,3217,3335,3097,3325,3357,3157
1508405131781054015,167,1508405131780675782,plot_matl,0.25,-3000.0,0.225170046091,0.000658462871797,-0.0248299501836,-74.3241882324,0.349065840244,0.0256401468068,-0.00127917784266,0.22501026094,0.0013332212111,0.0013332212111,-0.000997882569209,0.0039349081926,-79.1713409424,-79.1713409424,0.0631201267242,91.2966995239,2024,2055,2111,2026,2026,2682,3300,3323,3125,3272,2981,2955,3037,3067,3147,2912,3369,3363,3196,3258,2907,3261,3285,3001,0.010003853,1.670016272,1.670643451,0.401425719261,4500.0,0.37470600009,0.0045311418362,-0.02671973221,120.238792419,0.0,6000.0,-0.00127751752734,-0.00104927620851,0.0,0.0,0.349065840244,0.0216827709228,0.00477012246847,0.295258462429,0.00116107217036,0.00116107217036,-0.00425451248884,-0.0263755116612,149.345321655,149.345321655,-0.451442629099,0.7444896698,2025,2027,2562,2036,2036,2898,3401,3399,3211,3335,3051,3026,3127,3120,3209,2821,3383,3390,3217,3335,3097,3325,3357,3157
1508405131791235555,168,1508405131790706962,plot_matl,0.25,-3000.0,0.225176140666,0.000539461325388,-0.0248238556087,-74.3374862671,0.349065840244,0.0256401468068,-0.00127917784266,0.22501026094,0.0013332212111,0.0013332212111,-0.000997882569209,0.0039349081926,-79.1713409424,-79.1713409424,0.0631201267242,91.2966995239,2025,2063,2111,2027,2027,2682,3300,3323,3125,3272,2981,2955,3037,3067,3147,2912,3368,3362,3198,3260,2907,3259,3284,3003,0.010031971,1.680047942,1.685371128,0.401425719261,4500.0,0.37470600009,0.00524191046134,-0.02671973221,120.238792419,0.0,6000.0,-0.00125222362112,-0.0015525072813,0.0,0.0,0.349065840244,0.0216827709228,0.00477012246847,0.295258462429,0.00116107217036,0.00116107217036,-0.00425451248884,-0.0263755116612,149.345321655,149.345321655,-0.451442629099,0.7444896698,2032,2029,2561,2037,2037,2898,3401,3399,3211,3335,3051,3026,3127,3120,3209,2821,3382,3390,3217,3337,3096,3325,3357,3157
1508405131800856106,169,1508405131800670343,plot_matl,0.25,-3000.0,0.225111991167,-0.0360906161368,-0.0248880051076,-83.2734832764,0.349065840244,0.0242906641215,-0.00127880752552,0.225107178092,-0.0117607414722,-0.0117607414722,-0.00101787957828,0.00192979315761,-79.1080856323,-79.1080856323,0.218621313572,91.6979370117,2017,2043,2111,2027,2027,2681,3300,3323,3124,3271,2983,2954,3037,3067,3147,2912,3368,3362,3198,3260,2907,3259,3284,3003,0.0099609,1.690010282,1.6833921,0.401425719261,4500.0,0.37470600009,0.00577286817133,-0.02671973221,120.238792419,0.0,6000.0,-0.00126613338944,-0.00127098266967,0.0,0.0,0.349065840244,0.0192735753953,0.00478880293667,0.295346260071,-0.023197285831,-0.023197285831,-0.00468355091289,0.0338099002838,149.350234985,149.350234985,-0.517896771431,0.66719853878,2028,2026,2561,2037,2037,2896,3401,3399,3211,3334,3051,3024,3130,3120,3209,2821,3382,3390,3217,3337,3096,3325,3357,3157
1508405131810876875,170,1508405131810659027,plot_matl,0.25,-3000.0,0.225093409419,0.00223709782586,-0.0249065961689,-74.1528701782,0.349065840244,0.0242906641215,-0.00127880752552,0.225107178092,-0.0117607414722,-0.0117607414722,-0.00101787957828,0.00192979315761,-79.1080856323,-79.1080856323,0.218621313572,91.6979370117,2019,2059,2111,2027,2027,2681,3300,3323,3124,3271,2983,2954,3037,3067,3147,2911,3371,3362,3197,3258,2907,3260,3284,3003,0.0099881,1.699998876,1.697977,0.401425719261,4500.0,0.37470600009,0.00617396179587,-0.02671973221,120.238792419,0.0,6000.0,-0.00127761729527,-0.0010385554051,0.0,0.0,0.349065840244,0.0192735753953,0.00478880293667,0.295346260071,-0.023197285831,-0.023197285831,-0.00468355091289,0.0338099002838,149.350234985,149.350234985,-0.517896771431,0.66719853878,2026,2025,2561,2037,2037,2896,3401,3399,3211,3334,3051,3024,3130,3120,3210,2821,3381,3387,3217,3334,3095,3326,3358,3157
1508405131820881119,171,1508405131820670159,plot_matl,0.25,-3000.0,0.225087016821,0.00237301876768,-0.0249129869044,-74.1734466553,0.349065840244,0.0242906641215,-0.00127880752552,0.225107178092,-0.0117607414722,-0.0117607414722,-0.00101787957828,0.00192979315761,-79.1080856323,-79.1080856323,0.218621313572,91.6979370117,2023,2060,2111,2028,2028,2682,3300,3325,3126,3271,2982,2955,3037,3067,3147,2911,3371,3362,3197,3258,2907,3260,3284,3003,0.010012129,1.71001045,1.712074059,0.401425719261,4500.0,0.37470600009,0.00656801695004,-0.02671973221,120.238792419,0.0,6000.0,-0.0012868179474,-0.000852339318953,0.0,0.0,0.349065840244,0.0192735753953,0.00478880293667,0.295346260071,-0.023197285831,-0.023197285831,-0.00468355091289,0.0338099002838,149.350234985,149.350234985,-0.517896771431,0.66719853878,2022,2027,2561,2033,2033,2897,3403,3398,3213,3334,3051,3026,3130,3120,3210,2821,3381,3387,3217,3334,3095,3326,3358,3157
1508405131830822194,172,1508405131830670532,plot_matl,0.25,-3000.0,0.22511382401,0.0019052401185,-0.0248861704022,-74.1973495483,0.349065840244,0.0242906641215,-0.00127880752552,0.225107178092,-0.0117607414722,-0.0117607414722,-0.00101787957828,0.00192979315761,-79.1080856323,-79.1080856323,0.218621313572,91.6979370117,2009,2060,2111,2028,2028,2682,3300,3325,3126,3271,2982,2955,3037,3067,3148,2911,3368,3362,3198,3259,2907,3261,3284,3003,0.009999161,1.720010368,1.719855692,0.401425719261,4500.0,0.37470600009,0.00633847340941,-0.02671973221,120.238792419,0.0,6000.0,-0.00129693525378,-0.000663926475681,0.0,0.0,0.349065840244,0.0192735753953,0.00478880293667,0.295346260071,-0.023197285831,-0.023197285831,-0.00468355091289,0.0338099002838,149.350234985,149.350234985,-0.517896771431,0.66719853878,2023,2030,2561,2033,2033,2897,3403,3398,3213,3334,3051,3026,3131,3119,3211,2821,3383,3389,3217,3335,3096,3325,3358,3157
1508405131840951641,173,1508405131840674577,plot_matl,0.25,-3000.0,0.225058913231,-0.0349372439086,-0.0249410886317,-83.3040771484,0.349065840244,0.0242906641215,-0.00126225687563,0.225145593286,-0.0105655184016,-0.0105655184016,-0.00134944124147,0.00113857537508,-78.7672729492,-78.7672729492,-0.164916694164,92.0615615845,2018,2076,2111,2028,2028,2681,3300,3323,3126,3272,2982,2955,3037,3067,3148,2911,3368,3362,3198,3259,2907,3261,3285,3002,0.010005,1.730014992,1.730865,0.401425719261,4500.0,0.37470600009,0.00615214044228,-0.02671973221,120.238792419,0.0,6000.0,-0.00130268628709,-0.000544588954654,0.0,0.0,0.349065840244,0.0192735753953,0.00478315167129,0.295190751553,-0.0232766214758,-0.0232766214758,-0.00457928376272,-0.0250175893307,149.028366089,149.028366089,-0.106383942068,0.392156422138,2028,2036,2561,2033,2033,2898,3401,3398,3213,3333,3051,3026,3131,3119,3211,2821,3383,3389,3217,3335,3096,3325,3356,3156
1508405131851054292,174,1508405131850687601,plot_matl,0.25,-3000.0,0.225020542741,0.00377073488198,-0.0249794535339,-73.965713501,0.349065840244,0.0242906641215,-0.00126225687563,0.225145593286,-0.0105655184016,-0.0105655184016,-0.00134944124147,0.00113857537508,-78.7672729492,-78.7672729492,-0.164916694164,92.0615615845,2033,2080,2111,2028,2028,2681,3300,3323,3126,3272,2981,2954,3036,3067,3149,2912,3369,3363,3197,3259,2907,3261,3285,3002,0.010012871,1.740028016,1.742239554,0.401425719261,4500.0,0.37470600009,0.00504140555859,-0.02671973221,120.238792419,0.0,6000.0,-0.00129310856573,0.0127000333741,0.0,0.0,0.349065840244,0.0192735753953,0.00478315167129,0.295190751553,-0.0232766214758,-0.0232766214758,-0.00457928376272,-0.0250175893307,149.028366089,149.028366089,-0.106383942068,0.392156422138,2022,2029,2561,2033,2033,2898,3401,3398,3213,3333,3051,3024,3130,3121,3210,2822,3383,3388,3218,3334,3096,3325,3356,3156
1508405131860876091,175,1508405131860666147,plot_matl,0.25,-3000.0,0.22502553463,0.00368380756117,-0.0249744672328,-74.0549163818,0.349065840244,0.0242906641215,-0.00126225687563,0.225145593286,-0.0105655184016,-0.0105655184016,-0.00134944124147,0.00113857537508,-78.7672729492,-78.7672729492,-0.164916694164,92.0615615845,2021,2059,2110,2028,2028,2680,3299,3322,3126,3272,2981,2954,3036,3067,3149,2912,3369,3363,3197,3259,2908,3258,3286,2999,0.009977498,1.750006266,1.74606215,0.401425719261,4500.0,0.37335652113,-0.0221032425761,-0.0280692130327,126.311454773,0.0,6000.0,-0.00131097389385,-0.0003515635035,0.0,0.0,0.349065840244,0.0192735753953,0.00478315167129,0.295190751553,-0.0232766214758,-0.0232766214758,-0.00457928376272,-0.0250175893307,149.028366089,149.028366089,-0.106383942068,0.392156422138,2026,2028,2562,2037,2037,2897,3401,3399,3213,3333,3051,3024,3130,3121,3210,2822,3383,3388,3218,3334,3097,3327,3356,3159
