%time,field.header.seq,field.header.stamp,field.header.frame_id,field.FFJ4_set_point,field.FFJ4_position_gain,field.FFJ4_process_value,field.FFJ4_process_value_dot,field.FFJ4_error,field.FFJ4_command,field.FFJ1,field.FFJ2,field.FFJ3,field.FFJ4,field.FFJ1_dot,field.FFJ2_dot,field.FFJ3_dot,field.FFJ4_dot,field.FFJ1_tao,field.FFJ2_tao,field.FFJ3_tao,field.FFJ4_tao,field.pac0,field.pac1,field.pdc0,field.tac0,field.tdc0,field.el0,field.el1,field.el2,field.el3,field.el4,field.el5,field.el6,field.el7,field.el8,field.el9,field.el10,field.el11,field.el12,field.el13,field.el14,field.el15,field.el16,field.el17,field.el18,field.dt,field.time,field.test_time2,field.FFJ0_set_point,field.FFJ0_position_gain,field.FFJ0_process_value,field.FFJ0_process_value_dot,field.FFJ0_error,field.FFJ0_command,field.FFJ3_set_point,field.FFJ3_position_gain,field.FFJ3_process_value,field.FFJ3_process_value_dot,field.FFJ3_error,field.FFJ3_command,field.MFJ1,field.MFJ2,field.MFJ3,field.MFJ4,field.MFJ1_dot,field.MFJ2_dot,field.MFJ3_dot,field.MFJ4_dot,field.MFJ1_tao,field.MFJ2_tao,field.MFJ3_tao,field.MFJ4_tao,field.Mpac0,field.Mpac1,field.Mpdc0,field.Mtac0,field.Mtdc0,field.Mel0,field.Mel1,field.Mel2,field.Mel3,field.Mel4,field.Mel5,field.Mel6,field.Mel7,field.Mel8,field.Mel9,field.Mel10,field.Mel11,field.Mel12,field.Mel13,field.Mel14,field.Mel15,field.Mel16,field.Mel17,field.Mel18
1508405002806160393,123,1508405002805634605,plot_matl,0.25,-1000.0,0.203431412578,-0.0532673448324,-0.046568594873,-59.5260238647,0.349065840244,0.0310380719602,-0.00394613062963,0.203461483121,0.00293284305371,0.00293284305371,-0.000800954410806,-0.0159779116511,-33.203830719,-33.203830719,-1.53815078735,87.7642593384,2029,2075,2107,2029,2029,2682,3298,3319,3123,3267,2975,2948,3031,3060,3142,2896,3360,3355,3187,3251,2896,3255,3281,2997,0.010011319,1.22998598,1.231392237,0.401425719261,4500.0,0.37875443697,-0.0213371887803,-0.0226712878793,102.0207901,0.0,6000.0,-0.00395286316052,-0.000668342923746,-0.00395286316052,23.9265537262,0.349065840244,0.0216827709228,0.00498468009755,0.294956415892,-0.0104462532327,-0.0104462532327,0.00669901771471,-0.0204749666154,147.344726562,147.344726562,-0.965148627758,-2.13566350937,2030,2037,2563,2042,2042,2894,3399,3397,3209,3328,3046,3021,3127,3117,3208,2814,3380,3386,3212,3331,3093,3323,3355,3154
1508405002815792899,124,1508405002815598811,plot_matl,0.25,-1000.0,0.203464761376,-0.0159937497228,-0.0465352348983,-50.3387947083,0.349065840244,0.0310380719602,-0.00394613062963,0.203461483121,0.00293284305371,0.00293284305371,-0.000800954410806,-0.0159779116511,-33.203830719,-33.203830719,-1.53815078735,87.7642593384,2038,2075,2107,2030,2030,2682,3298,3319,3123,3267,2975,2948,3031,3060,3142,2896,3360,3355,3188,3251,2894,3256,3278,2995,0.009961157,1.239948784,1.235183468,0.401425719261,4500.0,0.37875443697,-0.0219003316015,-0.0226712878793,102.0207901,0.0,6000.0,-0.00394625915214,-0.000810034456663,-0.00394625915214,23.9241924286,0.349065840244,0.0216827709228,0.00498468009755,0.294956415892,-0.0104462532327,-0.0104462532327,0.00669901771471,-0.0204749666154,147.344726562,147.344726562,-0.965148627758,-2.13566350937,2026,2031,2563,2044,2044,2894,3399,3397,3209,3328,3046,3021,3127,3117,3208,2814,3380,3386,3215,3332,3091,3323,3353,3153
1508405002826001294,125,1508405002825603379,plot_matl,0.25,-1000.0,0.203563451767,0.0199560746551,-0.0464365519583,-41.609500885,0.349065840244,0.0310380719602,-0.00394613062963,0.203461483121,0.00293284305371,0.00293284305371,-0.000800954410806,-0.0159779116511,-33.203830719,-33.203830719,-1.53815078735,87.7642593384,2043,2089,2107,2030,2030,2682,3297,3319,3122,3265,2973,2947,3030,3058,3140,2896,3360,3355,3188,3251,2894,3256,3278,2995,0.0100059,1.249953853,1.2507375,0.401425719261,4500.0,0.38145339489,0.0305810049176,-0.0199723243713,89.8754577637,0.0,6000.0,-0.0039535490796,-0.00066434283508,-0.0039535490796,23.9225559235,0.349065840244,0.0216827709228,0.00498468009755,0.294956415892,-0.0104462532327,-0.0104462532327,0.00669901771471,-0.0204749666154,147.344726562,147.344726562,-0.965148627758,-2.13566350937,2020,2020,2563,2044,2044,2894,3399,3399,3208,3329,3044,3021,3127,3117,3207,2816,3380,3386,3215,3332,3091,3323,3353,3153
1508405002835852875,126,1508405002835618105,plot_matl,0.25,-1000.0,0.20350407064,-0.0167248453945,-0.0464959330857,-50.4831352234,0.349065840244,0.0310380719602,-0.00394613062963,0.203461483121,0.00293284305371,0.00293284305371,-0.000800954410806,-0.0159779116511,-33.203830719,-33.203830719,-1.53815078735,87.7642593384,2017,2056,2108,2029,2029,2682,3297,3319,3122,3265,2973,2947,3030,3058,3140,2896,3363,3355,3189,3252,2896,3253,3278,2994,0.010014482,1.259968878,1.261824732,0.401425719261,4500.0,0.37875443697,-0.0240600369871,-0.0226712878793,102.0207901,0.0,6000.0,-0.00395957939327,-0.000543840229511,-0.00395957939327,23.922744751,0.349065840244,0.0216827709228,0.00498468009755,0.294956415892,-0.0104462532327,-0.0104462532327,0.00669901771471,-0.0204749666154,147.344726562,147.344726562,-0.965148627758,-2.13566350937,2021,2024,2563,2041,2041,2894,3399,3399,3208,3329,3044,3021,3127,3117,3207,2816,3379,3385,3215,3333,3094,3321,3352,3154
1508405002845979192,127,1508405002845611684,plot_matl,0.25,-1000.0,0.20350407064,-0.0167248453945,-0.0464959330857,-50.4831352234,0.349065840244,0.0310380719602,-0.00396010838449,0.203488111496,0.00156708445866,0.00156708445866,-0.00053326546913,-0.0163996368647,-33.4641723633,-33.4641723633,-1.32523536682,87.3143310547,1986,2033,2108,2029,2029,2680,3298,3320,3121,3267,2975,2948,3030,3060,3140,2896,3363,3355,3189,3252,2896,3253,3278,2994,0.009993484,1.269962587,1.269172468,0.401425719261,4500.0,0.37875443697,-0.0240600369871,-0.0226712878793,102.0207901,0.0,6000.0,-0.00395957939327,-0.000543840229511,-0.00395957939327,23.922744751,0.349065840244,0.0240919683129,0.00499332696199,0.294911682606,0.0131183015183,0.0131183015183,0.00652749836445,-0.0195325966924,147.473587036,147.473587036,-0.809347569942,-2.22581887245,2026,2030,2563,2041,2041,2894,3397,3396,3208,3328,3046,3022,3126,3116,3207,2816,3379,3385,3215,3333,3094,3321,3352,3154
1508405002855868530,128,1508405002855612565,plot_matl,0.25,-1000.0,0.203432425857,0.0226875804365,-0.0465675778687,-41.0940742493,0.349065840244,0.0310380719602,-0.00396010838449,0.203488111496,0.00156708445866,0.00156708445866,-0.00053326546913,-0.0163996368647,-33.4641723633,-33.4641723633,-1.32523536682,87.3143310547,2014,2054,2108,2029,2029,2680,3298,3320,3121,3267,2975,2948,3030,3060,3142,2896,3362,3358,3188,3253,2897,3256,3281,2996,0.010000671,1.279963583,1.280085888,0.401425719261,4500.0,0.37875443697,-0.0232391953468,-0.0226712878793,102.0207901,0.0,6000.0,-0.00393706839532,-0.000994125497527,-0.00393706839532,23.9241008759,0.349065840244,0.0240919683129,0.00499332696199,0.294911682606,0.0131183015183,0.0131183015183,0.00652749836445,-0.0195325966924,147.473587036,147.473587036,-0.809347569942,-2.22581887245,2020,2020,2563,2041,2041,2894,3397,3396,3208,3328,3046,3022,3126,3116,3206,2816,3379,3388,3213,3333,3093,3322,3352,3154
1508405002866149829,129,1508405002865647749,plot_matl,0.25,-1000.0,0.20339910686,-0.0145441833884,-0.0466008931398,-50.2185935974,0.349065840244,0.0310380719602,-0.00396010838449,0.203488111496,0.00156708445866,0.00156708445866,-0.00053326546913,-0.0163996368647,-33.4641723633,-33.4641723633,-1.32523536682,87.3143310547,1979,2014,2107,2030,2030,2680,3299,3319,3122,3265,2976,2948,3030,3060,3142,2896,3362,3358,3188,3253,2897,3256,3281,2996,0.010034753,1.289998757,1.294483137,0.401425719261,4500.0,0.38010391593,0.00425406871364,-0.021321805194,95.9481277466,0.0,6000.0,-0.00392392463982,-0.00126108108088,-0.00392392463982,23.9407730103,0.349065840244,0.0240919683129,0.00499332696199,0.294911682606,0.0131183015183,0.0131183015183,0.00652749836445,-0.0195325966924,147.473587036,147.473587036,-0.809347569942,-2.22581887245,2021,2028,2564,2045,2045,2895,3399,3396,3208,3330,3047,3020,3126,3116,3206,2816,3379,3388,3213,3333,3093,3322,3352,3154
1508405002875993968,130,1508405002875617394,plot_matl,0.25,-1000.0,0.203403666615,-0.0146235786378,-0.0465963296592,-50.0991172791,0.349065840244,0.0310380719602,-0.00396010838449,0.203488111496,0.00156708445866,0.00156708445866,-0.00053326546913,-0.0163996368647,-33.4641723633,-33.4641723633,-1.32523536682,87.3143310547,1971,2004,2107,2030,2030,2680,3299,3319,3122,3265,2976,2948,3031,3060,3142,2898,3363,3356,3188,3250,2897,3255,3281,2996,0.009968768,1.299968006,1.29593984,0.401425719261,4500.0,0.37875443697,-0.0213406458497,-0.0226712878793,102.0207901,0.0,6000.0,-0.00393526814878,-0.00103354011662,-0.00393526814878,23.924823761,0.349065840244,0.0240919683129,0.00499332696199,0.294911682606,0.0131183015183,0.0131183015183,0.00652749836445,-0.0195325966924,147.473587036,147.473587036,-0.809347569942,-2.22581887245,2028,2029,2564,2045,2045,2895,3399,3396,3208,3330,3047,3020,3126,3115,3209,2817,3379,3386,3213,3333,3091,3324,3352,3154
1508405002886128411,131,1508405002885661643,plot_matl,0.25,-1000.0,0.203337058425,-0.0132442824543,-0.0466629453003,-49.8379669189,0.349065840244,0.0296885911375,-0.00393632100895,0.203427299857,-0.0104523207992,-0.0104523207992,-0.00101242423989,0.0228244122118,-33.1684989929,-33.1684989929,-1.10528969765,86.8169021606,1998,2025,2108,2030,2030,2679,3299,3318,3122,3267,2976,2948,3031,3060,3142,2898,3363,3356,3188,3250,2897,3255,3280,2993,0.010044239,1.310012772,1.315795309,0.401425719261,4500.0,0.38010391593,0.00482317712158,-0.021321805194,95.9481277466,0.0,6000.0,-0.00394459161907,-0.00084651412908,-0.00394459161907,23.9237785339,0.349065840244,0.0240919683129,0.00499739637598,0.294616639614,0.0132024288177,0.0132024288177,0.00646295165643,-0.0136664584279,147.47227478,147.47227478,-0.453089922667,-1.02075195312,2029,2021,2564,2040,2040,2892,3397,3397,3209,3331,3047,3020,3126,3115,3209,2817,3379,3386,3213,3333,3091,3324,3356,3154
1508405002896094533,132,1508405002895638941,plot_matl,0.25,-1000.0,0.203393399715,0.0235194712877,-0.0466066002846,-40.7106628418,0.349065840244,0.0296885911375,-0.00393632100895,0.203427299857,-0.0104523207992,-0.0104523207992,-0.00101242423989,0.0228244122118,-33.1684989929,-33.1684989929,-1.10528969765,86.8169021606,1984,2003,2108,2030,2030,2679,3299,3318,3122,3267,2976,2948,3031,3060,3142,2897,3365,3356,3189,3252,2897,3255,3280,2993,0.009977573,1.319990124,1.317039636,0.401425719261,4500.0,0.38145339489,0.0326549895108,-0.0199723243713,89.8754577637,0.0,6000.0,-0.00394107634202,-0.000942137092352,-0.00394107634202,23.9352455139,0.349065840244,0.0240919683129,0.00499739637598,0.294616639614,0.0132024288177,0.0132024288177,0.00646295165643,-0.0136664584279,147.47227478,147.47227478,-0.453089922667,-1.02075195312,2023,2022,2564,2040,2040,2892,3397,3397,3209,3331,3047,3021,3126,3117,3207,2817,3380,3387,3213,3332,3091,3324,3356,3154
1508405002906029249,133,1508405002905650145,plot_matl,0.25,-1000.0,0.203394725919,-0.0144159756601,-0.0466052666306,-50.1202507019,0.349065840244,0.0296885911375,-0.00393632100895,0.203427299857,-0.0104523207992,-0.0104523207992,-0.00101242423989,0.0228244122118,-33.1684989929,-33.1684989929,-1.10528969765,86.8169021606,1978,2018,2110,2033,2033,2682,3299,3320,3122,3267,2976,2948,3031,3060,3142,2897,3365,3356,3189,3252,2898,3254,3280,2995,0.010010578,1.330001138,1.331406874,0.401425719261,4500.0,0.37875443697,-0.0222968868911,-0.0226712878793,102.0207901,0.0,6000.0,-0.00392654770985,-0.00121944095008,-0.00392654770985,23.9314041138,0.349065840244,0.0240919683129,0.00499739637598,0.294616639614,0.0132024288177,0.0132024288177,0.00646295165643,-0.0136664584279,147.47227478,147.47227478,-0.453089922667,-1.02075195312,2026,2027,2563,2041,2041,2894,3399,3396,3209,3331,3047,3021,3126,3117,3207,2817,3380,3387,3213,3332,3091,3323,3353,3155
1508405002915832036,134,1508405002915657625,plot_matl,0.25,-1000.0,0.203394725919,-0.0144159756601,-0.0466052666306,-50.1202507019,0.349065840244,0.0296885911375,-0.00393632100895,0.203427299857,-0.0104523207992,-0.0104523207992,-0.00101242423989,0.0228244122118,-33.1684989929,-33.1684989929,-1.10528969765,86.8169021606,1978,2018,2110,2033,2033,2682,3299,3320,3122,3267,2976,2948,3031,3060,3142,2897,3365,3356,3189,3252,2898,3254,3280,2995,0.010006022,1.340008183,1.340806948,0.401425719261,4500.0,0.37875443697,-0.0222968868911,-0.0226712878793,102.0207901,0.0,6000.0,-0.00392654770985,-0.00121944095008,-0.00392654770985,23.9314041138,0.349065840244,0.0240919683129,0.00499739637598,0.294616639614,0.0132024288177,0.0132024288177,0.00646295165643,-0.0136664584279,147.47227478,147.47227478,-0.453089922667,-1.02075195312,2026,2027,2563,2041,2041,2894,3399,3396,3209,3331,3047,3021,3126,3117,3207,2817,3380,3387,3213,3332,3091,3323,3353,3155
1508405002925951839,135,1508405002925634641,plot_matl,0.25,-1000.0,0.203494638205,0.0187560357153,-0.046505369246,-41.3251075745,0.349065840244,0.0296885911375,-0.00393820507452,0.203317970037,-0.0110677136108,-0.0110677136108,-0.000983472215012,-0.0149324210361,-32.660697937,-32.660697937,-1.17226171494,87.3375701904,2037,2067,2110,2033,2033,2682,3299,3320,3123,3265,2977,2948,3032,3059,3142,2897,3379,3372,3189,3252,2898,3254,3280,2995,0.009978142,1.349985817,1.34704917,0.401425719261,4500.0,0.38010391593,0.00481947744265,-0.021321805194,95.9481277466,0.0,6000.0,-0.00394608452916,-0.000823982642032,-0.00394608452916,23.923910141,0.349065840244,0.0216827709228,0.00507016619667,0.294494897127,-0.00940120499581,-0.00940120499581,0.00585014466196,-0.0145285399631,147.523345947,147.523345947,-0.102233037353,-1.74986255169,2029,2030,2563,2041,2041,2894,3399,3396,3210,3329,3046,3021,3126,3116,3207,2816,3396,3400,3213,3332,3091,3323,3353,3155
1508405002936000841,136,1508405002935645803,plot_matl,0.25,-1000.0,0.203549057245,-0.0197652280331,-0.0464509502053,-50.6476097107,0.349065840244,0.0296885911375,-0.00393820507452,0.203317970037,-0.0110677136108,-0.0110677136108,-0.000983472215012,-0.0149324210361,-32.660697937,-32.660697937,-1.17226171494,87.3375701904,2007,2063,2110,2034,2034,2692,3299,3320,3123,3265,2977,2948,3032,3059,3142,2897,3379,3372,3200,3269,2910,3267,3293,3008,0.010009611,1.35999661,1.361307096,0.401425719261,4500.0,0.37875443697,-0.0222505945712,-0.0226712878793,102.0207901,0.0,6000.0,-0.00393031351268,-0.00114096677862,-0.00393031351268,23.9241428375,0.349065840244,0.0216827709228,0.00507016619667,0.294494897127,-0.00940120499581,-0.00940120499581,0.00585014466196,-0.0145285399631,147.523345947,147.523345947,-0.102233037353,-1.74986255169,2019,2034,2563,2040,2040,2901,3399,3396,3210,3329,3046,3021,3126,3116,3207,2816,3396,3400,3224,3347,3106,3336,3365,3164
1508405002946025184,137,1508405002945668983,plot_matl,0.25,-1000.0,0.203455269337,-0.0174587108195,-0.0465447232127,-50.271446228,0.349065840244,0.0296885911375,-0.00393820507452,0.203317970037,-0.0110677136108,-0.0110677136108,-0.000983472215012,-0.0149324210361,-32.660697937,-32.660697937,-1.17226171494,87.3375701904,2011,2056,2110,2034,2034,2692,3309,3329,3130,3272,2982,2952,3037,3064,3148,2899,3379,3372,3200,3269,2910,3267,3293,3008,0.010023964,1.370020106,1.373283068,0.401425719261,4500.0,0.37875443697,-0.0220728851855,-0.0226712878793,102.0207901,0.0,6000.0,-0.00392813887447,-0.00117021473125,-0.00392813887447,23.9228172302,0.349065840244,0.0216827709228,0.00507016619667,0.294494897127,-0.00940120499581,-0.00940120499581,0.00585014466196,-0.0145285399631,147.523345947,147.523345947,-0.102233037353,-1.74986255169,2029,2030,2563,2040,2040,2901,3406,3403,3213,3333,3051,3024,3130,3121,3212,2819,3396,3400,3224,3347,3106,3336,3365,3164
1508405002955729106,138,1508405002955610038,plot_matl,0.25,-1000.0,0.203549027443,-0.0189514625818,-0.0464509725571,-50.478805542,0.349065840244,0.0296885911375,-0.00393820507452,0.203317970037,-0.0110677136108,-0.0110677136108,-0.000983472215012,-0.0149324210361,-32.660697937,-32.660697937,-1.17226171494,87.3375701904,1997,2053,2109,2033,2033,2692,3309,3329,3130,3272,2982,2952,3037,3064,3148,2899,3367,3358,3193,3257,2900,3257,3281,2997,0.009937331,1.379959537,1.371351678,0.401425719261,4500.0,0.38145339489,0.0319415777922,-0.0199723243713,89.8754577637,0.0,6000.0,-0.00393876712769,-0.000958164047915,-0.00393876712769,23.9119358063,0.349065840244,0.0216827709228,0.00507016619667,0.294494897127,-0.00940120499581,-0.00940120499581,0.00585014466196,-0.0145285399631,147.523345947,147.523345947,-0.102233037353,-1.74986255169,2021,2027,2564,2041,2041,2901,3406,3403,3213,3333,3051,3024,3130,3121,3212,2819,3383,3387,3217,3335,3096,3325,3355,3156
1508405002966229236,139,1508405002965682922,plot_matl,0.25,-1000.0,0.203596830368,-0.0196478329599,-0.0464031733572,-50.7962646484,0.349065840244,0.0296885911375,-0.00393973803148,0.20353153348,-0.0110679520294,-0.0110679520294,-0.000938798475545,-0.0185684319586,-32.4696502686,-32.4696502686,-1.06843447685,87.8842163086,1983,2018,2109,2033,2033,2687,3300,3321,3124,3269,2979,2948,3034,3061,3148,2899,3367,3358,3193,3257,2900,3257,3281,2997,0.01007631,1.390033901,1.40060709,0.401425719261,4500.0,0.38145339489,0.0325330644846,-0.0199723243713,89.8754577637,0.0,6000.0,-0.00393540551886,-0.00101469608489,-0.00393540551886,23.9213619232,0.349065840244,0.0240919683129,0.00501554924995,0.294989645481,0.0116076804698,0.0116076804698,0.00630248617381,-0.0229992140085,147.76940918,147.76940918,-0.41132748127,-3.62174463272,2022,2025,2564,2041,2041,2894,3401,3395,3210,3330,3046,3022,3126,3118,3212,2819,3383,3387,3217,3335,3096,3325,3355,3156
1508405002975975748,140,1508405002975625245,plot_matl,0.25,-1000.0,0.203597337008,-0.0194621533155,-0.0464026704431,-50.4357376099,0.349065840244,0.0296885911375,-0.00393973803148,0.20353153348,-0.0110679520294,-0.0110679520294,-0.000938798475545,-0.0185684319586,-32.4696502686,-32.4696502686,-1.06843447685,87.8842163086,1964,1990,2109,2033,2033,2687,3300,3321,3124,3269,2979,2948,3034,3061,3143,2897,3365,3356,3191,3253,2900,3254,3281,2997,0.009941406,1.399976099,1.39179684,0.401425719261,4500.0,0.38145339489,0.0320831313729,-0.0199723243713,89.8754577637,0.0,6000.0,-0.00391827849671,-0.00133608456235,-0.00391827849671,23.8876018524,0.349065840244,0.0240919683129,0.00501554924995,0.294989645481,0.0116076804698,0.0116076804698,0.00630248617381,-0.0229992140085,147.76940918,147.76940918,-0.41132748127,-3.62174463272,2027,2031,2564,2041,2041,2894,3401,3395,3210,3330,3046,3022,3126,3118,3209,2818,3382,3385,3213,3334,3094,3324,3355,3154
1508405002985956906,141,1508405002985628422,plot_matl,0.25,-1000.0,0.203568324447,0.0191882885993,-0.046431671828,-41.5170631409,0.349065840244,0.0296885911375,-0.00393973803148,0.20353153348,-0.0110679520294,-0.0110679520294,-0.000938798475545,-0.0185684319586,-32.4696502686,-32.4696502686,-1.06843447685,87.8842163086,1970,1988,2111,2036,2036,2686,3300,3321,3123,3269,2980,2947,3034,3061,3143,2897,3365,3356,3191,3253,2900,3254,3281,2997,0.010003166,1.409979891,1.410446406,0.401425719261,4500.0,0.37875443697,-0.0218191947788,-0.0226712878793,102.0207901,0.0,6000.0,-0.0039307246916,-0.00109337223694,-0.0039307246916,23.9316482544,0.349065840244,0.0240919683129,0.00501554924995,0.294989645481,0.0116076804698,0.0116076804698,0.00630248617381,-0.0229992140085,147.76940918,147.76940918,-0.41132748127,-3.62174463272,2025,2026,2564,2042,2042,2894,3401,3397,3210,3329,3045,3021,3126,3118,3209,2818,3382,3385,3213,3334,3094,3324,3355,3154
1508405002995919474,142,1508405002995608545,plot_matl,0.25,-1000.0,0.203576818109,-0.0187284667045,-0.0464231818914,-50.7075195312,0.349065840244,0.0296885911375,-0.00393973803148,0.20353153348,-0.0110679520294,-0.0110679520294,-0.000938798475545,-0.0185684319586,-32.4696502686,-32.4696502686,-1.06843447685,87.8842163086,1977,2009,2111,2036,2036,2686,3300,3321,3123,3269,2980,2947,3035,3059,3144,2898,3365,3359,3190,3255,2899,3257,3281,2997,0.009978134,1.419958862,1.416895028,0.401425719261,4500.0,0.38145339489,0.0331630595028,-0.0199723243713,89.8754577637,0.0,6000.0,-0.00394087471068,-0.000895442324691,-0.00394087471068,23.9204940796,0.349065840244,0.0240919683129,0.00501554924995,0.294989645481,0.0116076804698,0.0116076804698,0.00630248617381,-0.0229992140085,147.76940918,147.76940918,-0.41132748127,-3.62174463272,2027,2024,2564,2042,2042,2894,3401,3397,3210,3329,3045,3021,3126,3116,3210,2816,3381,3385,3215,3333,3091,3324,3355,3154
1508405003005901597,143,1508405003005622574,plot_matl,0.25,-1000.0,0.203552722931,-0.0180724430829,-0.0464472807944,-50.211566925,0.349065840244,0.0323875546455,-0.00394178647548,0.20359633863,0.0162522885948,0.0162522885948,-0.000877662445419,0.0188034866005,-32.5132522583,-32.5132522583,-1.1320823431,87.8729476929,1956,2002,2112,2033,2033,2687,3299,3320,3125,3269,2980,2947,3035,3059,3144,2898,3365,3359,3190,3255,2899,3257,3281,2997,0.010014758,1.429972879,1.432110394,0.401425719261,4500.0,0.38010391593,0.0053003304638,-0.021321805194,95.9481277466,0.0,6000.0,-0.00394920399413,-0.000733010936528,-0.00394920399413,23.8986797333,0.349065840244,0.0240919683129,0.00503250211477,0.294849127531,0.0147690465674,0.0147690465674,-0.00949967466295,0.0428630746901,147.698684692,147.698684692,-0.261213332415,-3.70774769783,2027,2029,2563,2047,2047,2893,3399,3398,3209,3329,3045,3021,3126,3116,3210,2816,3381,3385,3215,3333,3091,3324,3352,3152
1508405003016059811,144,1508405003015636973,plot_matl,0.25,-1000.0,0.203552722931,-0.0180724430829,-0.0464472807944,-50.211566925,0.349065840244,0.0323875546455,-0.00394178647548,0.20359633863,0.0162522885948,0.0162522885948,-0.000877662445419,0.0188034866005,-32.5132522583,-32.5132522583,-1.1320823431,87.8729476929,2006,2043,2112,2033,2033,2687,3299,3320,3125,3269,2979,2948,3032,3059,3142,2899,3364,3355,3189,3254,2899,3257,3281,2997,0.010014529,1.439988091,1.442092176,0.401425719261,4500.0,0.38010391593,0.0053003304638,-0.021321805194,95.9481277466,0.0,6000.0,-0.00394920399413,-0.000733010936528,-0.00394920399413,23.8986797333,0.349065840244,0.0240919683129,0.00503250211477,0.294849127531,0.0147690465674,0.0147690465674,-0.00949967466295,0.0428630746901,147.698684692,147.698684692,-0.261213332415,-3.70774769783,2021,2019,2563,2047,2047,2893,3399,3398,3209,3329,3045,3021,3127,3117,3207,2816,3381,3387,3213,3333,3091,3324,3352,3152
1508405003026183912,145,1508405003025654351,plot_matl,0.25,-1000.0,0.203300192952,-0.0128164645284,-0.0466998107731,-49.6993560791,0.349065840244,0.0323875546455,-0.00394178647548,0.20359633863,0.0162522885948,0.0162522885948,-0.000877662445419,0.0188034866005,-32.5132522583,-32.5132522583,-1.1320823431,87.8729476929,2013,2035,2112,2030,2030,2687,3302,3322,3125,3269,2979,2948,3032,3059,3142,2899,3364,3355,3189,3254,2901,3256,3282,2997,0.0100178,1.450005409,1.452581,0.401425719261,4500.0,0.38010391593,0.00511219725013,-0.021321805194,95.9481277466,0.0,6000.0,-0.0039616022259,-0.000491232669447,-0.0039616022259,23.922744751,0.349065840244,0.0240919683129,0.00503250211477,0.294849127531,0.0147690465674,0.0147690465674,-0.00949967466295,0.0428630746901,147.698684692,147.698684692,-0.261213332415,-3.70774769783,2025,2018,2564,2044,2044,2895,3400,3397,3209,3329,3045,3021,3127,3117,3207,2816,3381,3387,3213,3333,3092,3323,3353,3155
1508405003035854501,146,1508405003035621661,plot_matl,0.25,-1000.0,0.203256949782,-0.0118702752516,-0.046743042767,-49.5517692566,0.349065840244,0.0323875546455,-0.00394178647548,0.20359633863,0.0162522885948,0.0162522885948,-0.000877662445419,0.0188034866005,-32.5132522583,-32.5132522583,-1.1320823431,87.8729476929,2013,2039,2112,2030,2030,2687,3302,3322,3127,3268,2979,2948,3035,3060,3142,2897,3366,3356,3189,3254,2901,3256,3282,2997,0.009966503,1.459973215,1.455109438,0.401425719261,4500.0,0.38010391593,0.00514981104061,-0.021321805194,95.9481277466,0.0,6000.0,-0.00397765729576,-0.000163357064594,-0.00397765729576,23.9218635559,0.349065840244,0.0240919683129,0.00503250211477,0.294849127531,0.0147690465674,0.0147690465674,-0.00949967466295,0.0428630746901,147.698684692,147.698684692,-0.261213332415,-3.70774769783,2027,2025,2564,2044,2044,2895,3400,3397,3207,3330,3045,3021,3126,3116,3208,2816,3380,3384,3213,3333,3092,3323,3353,3155
1508405003045866712,147,1508405003045621275,plot_matl,0.25,-1000.0,0.203252464533,-0.0496326833963,-0.0467475391924,-58.4617538452,0.349065840244,0.0310380719602,-0.00397783517838,0.20328232646,0.00252477708273,0.00252477708273,-0.000160176830832,0.0255282260478,-32.7708282471,-32.7708282471,-1.26225316525,87.6387557983,2027,2060,2112,2030,2030,2687,3302,3322,3127,3268,2979,2948,3035,3060,3142,2897,3366,3356,3192,3252,2900,3254,3283,2998,0.009998118,1.469972046,1.469723346,0.401425719261,4500.0,0.38010391593,0.00521079916507,-0.021321805194,95.9481277466,0.0,6000.0,-0.00399042246863,9.25999047467e-05,-0.00399042246863,23.9208030701,0.349065840244,0.0216827709228,0.00496165594086,0.294518440962,-0.00808682944626,-0.00808682944626,-0.00813328381628,0.050068911165,147.981399536,147.981399536,-0.606096923351,-3.51042985916,2025,2027,2564,2044,2044,2894,3400,3397,3207,3330,3045,3021,3126,3116,3208,2816,3380,3384,3215,3331,3093,3323,3353,3155
1508405003056122564,148,1508405003055660486,plot_matl,0.25,-1000.0,0.20324832201,-0.0115533154458,-0.0467516742647,-49.4515228271,0.349065840244,0.0310380719602,-0.00397783517838,0.20328232646,0.00252477708273,0.00252477708273,-0.000160176830832,0.0255282260478,-32.7708282471,-32.7708282471,-1.26225316525,87.6387557983,2041,2071,2112,2030,2030,2687,3302,3322,3125,3268,2977,2948,3032,3061,3143,2898,3366,3356,3192,3252,2900,3254,3283,2998,0.010040746,1.48001152,1.486030408,0.401425719261,4500.0,0.38145339489,0.0333509221673,-0.0199723243713,89.8754577637,0.0,6000.0,-0.00399020174518,8.03784569143e-05,-0.00399020174518,23.9208450317,0.349065840244,0.0216827709228,0.00496165594086,0.294518440962,-0.00808682944626,-0.00808682944626,-0.00813328381628,0.050068911165,147.981399536,147.981399536,-0.606096923351,-3.51042985916,2024,2026,2564,2044,2044,2894,3399,3397,3206,3331,3046,3022,3126,3116,3208,2816,3380,3384,3215,3331,3093,3323,3353,3155
1508405003066144452,149,1508405003065676622,plot_matl,0.25,-1000.0,0.203381851315,0.0236397590488,-0.0466181449592,-41.1192207336,0.349065840244,0.0310380719602,-0.00397783517838,0.20328232646,0.00252477708273,0.00252477708273,-0.000160176830832,0.0255282260478,-32.7708282471,-32.7708282471,-1.26225316525,87.6387557983,2020,2059,2112,2029,2029,2687,3302,3322,3125,3268,2977,2948,3032,3061,3143,2898,3364,3357,3189,3253,2900,3255,3280,2996,0.010015515,1.490027841,1.492311735,0.401425719261,4500.0,0.38010391593,0.00648859702051,-0.021321805194,95.9481277466,0.0,6000.0,-0.00398958381265,6.58042481518e-05,-0.00398958381265,23.9212207794,0.349065840244,0.0216827709228,0.00496165594086,0.294518440962,-0.00808682944626,-0.00808682944626,-0.00813328381628,0.050068911165,147.981399536,147.981399536,-0.606096923351,-3.51042985916,2036,2034,2563,2041,2041,2894,3399,3397,3206,3331,3046,3022,3126,3116,3208,2816,3380,3385,3214,3333,3092,3323,3354,3154
1508405003075888431,150,1508405003075614359,plot_matl,0.25,-1000.0,0.203456237912,-0.015772132203,-0.0465437546372,-50.4277000427,0.349065840244,0.0310380719602,-0.00397783517838,0.20328232646,0.00252477708273,0.00252477708273,-0.000160176830832,0.0255282260478,-32.7708282471,-32.7708282471,-1.26225316525,87.6387557983,2062,2092,2112,2029,2029,2686,3301,3322,3126,3267,2979,2947,3032,3060,3143,2898,3364,3357,3189,3253,2900,3255,3280,2996,0.009934177,1.499964228,1.49012655,0.401425719261,4500.0,0.38280287385,0.0606876127422,-0.0186228435487,83.8027954102,0.0,6000.0,-0.00398907484487,5.38058811799e-05,-0.00398907484487,23.9201126099,0.349065840244,0.0216827709228,0.00496165594086,0.294518440962,-0.00808682944626,-0.00808682944626,-0.00813328381628,0.050068911165,147.981399536,147.981399536,-0.606096923351,-3.51042985916,2022,2022,2563,2041,2041,2894,3399,3397,3209,3329,3046,3021,3125,3117,3208,2816,3380,3385,3214,3333,3092,3323,3354,3154
1508405003086035318,151,1508405003085647187,plot_matl,0.25,-1000.0,0.203495547175,0.0213684551418,-0.0465044565499,-41.3174476624,0.349065840244,0.0296885911375,-0.00398903200403,0.20344170928,-0.0103295193985,-0.0103295193985,5.27933698322e-05,-0.0154753345996,-32.8911361694,-32.8911361694,-1.08782815933,87.8092803955,2049,2081,2112,2029,2029,2686,3301,3322,3126,3267,2979,2947,3032,3060,3141,2899,3363,3357,3191,3253,2900,3256,3281,2996,0.010034868,1.509998131,1.515265068,0.401425719261,4500.0,0.38010391593,0.00543498015031,-0.021321805194,95.9481277466,0.0,6000.0,-0.00398866087198,4.40516996605e-05,-0.00398866087198,23.9205875397,0.349065840244,0.0240919683129,0.00497858179733,0.294901877642,0.0128984898329,0.0128984898329,0.00682532321662,-0.0192790850997,148.08291626,148.08291626,-0.820434093475,-3.29955077171,2032,2030,2563,2041,2041,2894,3399,3397,3209,3329,3046,3021,3125,3117,3209,2816,3381,3384,3215,3331,3091,3324,3352,3153
1508405003095885377,152,1508405003095606307,plot_matl,0.25,-1000.0,0.203550249338,-0.0175744481385,-0.0464497506618,-50.3094100952,0.349065840244,0.0296885911375,-0.00398903200403,0.20344170928,-0.0103295193985,-0.0103295193985,5.27933698322e-05,-0.0154753345996,-32.8911361694,-32.8911361694,-1.08782815933,87.8092803955,2051,2077,2111,2030,2030,2686,3300,3321,3124,3267,2979,2948,3032,3060,3141,2899,3363,3357,3191,3253,2900,3256,3281,2996,0.009957387,1.519956654,1.513522824,0.401425719261,4500.0,0.38010391593,0.00493422383443,-0.021321805194,95.9481277466,0.0,6000.0,-0.00396436871961,-0.000439456023742,-0.00396436871961,23.9110164642,0.349065840244,0.0240919683129,0.00497858179733,0.294901877642,0.0128984898329,0.0128984898329,0.00682532321662,-0.0192790850997,148.08291626,148.08291626,-0.820434093475,-3.29955077171,2027,2017,2563,2039,2039,2894,3398,3396,3210,3329,3046,3021,3125,3117,3209,2816,3381,3384,3215,3331,3091,3324,3352,3153
1508405003106258562,153,1508405003105680967,plot_matl,0.25,-1000.0,0.203550249338,-0.0175744481385,-0.0464497506618,-50.3094100952,0.349065840244,0.0296885911375,-0.00398903200403,0.20344170928,-0.0103295193985,-0.0103295193985,5.27933698322e-05,-0.0154753345996,-32.8911361694,-32.8911361694,-1.08782815933,87.8092803955,2051,2088,2111,2030,2030,2686,3300,3321,3124,3267,2979,2948,3033,3059,3145,2897,3363,3357,3189,3252,2900,3255,3281,2996,0.010076675,1.530032041,1.541731275,0.401425719261,4500.0,0.38145339489,0.0308319609612,-0.0199723243713,89.8754577637,0.0,6000.0,-0.0039672832936,-0.000386262428947,-0.0039672832936,23.9182262421,0.349065840244,0.0240919683129,0.00497858179733,0.294901877642,0.0128984898329,0.0128984898329,0.00682532321662,-0.0192790850997,148.08291626,148.08291626,-0.820434093475,-3.29955077171,2023,2023,2563,2039,2039,2894,3398,3396,3210,3329,3046,3021,3126,3116,3208,2815,3378,3386,3213,3331,3093,3322,3352,3153
1508405003115874545,154,1508405003115609359,plot_matl,0.25,-1000.0,0.203612625599,0.0190987791866,-0.0463873744011,-41.6767883301,0.349065840244,0.0296885911375,-0.00398903200403,0.20344170928,-0.0103295193985,-0.0103295193985,5.27933698322e-05,-0.0154753345996,-32.8911361694,-32.8911361694,-1.08782815933,87.8092803955,2035,2084,2110,2028,2028,2684,3300,3318,3123,3266,2979,2948,3033,3059,3145,2897,3363,3357,3189,3252,2900,3255,3281,2996,0.009925956,1.539959721,1.528597224,0.401425719261,4500.0,0.38145339489,0.0308319609612,-0.0199723243713,89.8754577637,0.0,6000.0,-0.00397082930431,-0.000316061079502,-0.00397082930431,23.9241828918,0.349065840244,0.0240919683129,0.00497858179733,0.294901877642,0.0128984898329,0.0128984898329,0.00682532321662,-0.0192790850997,148.08291626,148.08291626,-0.820434093475,-3.29955077171,2021,2025,2564,2045,2045,2895,3400,3395,3208,3329,3046,3021,3126,3116,3208,2815,3378,3386,3213,3331,3093,3322,3351,3154
1508405003125893304,155,1508405003125608609,plot_matl,0.25,-1000.0,0.203614339232,0.019027672708,-0.0463856607676,-41.8238601685,0.349065840244,0.0310380719602,-0.00397115200758,0.203593850136,0.0026354950387,0.0026354950387,-0.000309673137963,-0.018440598622,-32.9353370667,-32.9353370667,-0.712156713009,87.6906738281,2029,2058,2110,2028,2028,2684,3300,3318,3123,3266,2978,2948,3031,3059,3143,2896,3363,3356,3189,3253,2900,3255,3281,2996,0.009999398,1.549959096,1.54990669,0.401425719261,4500.0,0.38145339489,0.0326154045761,-0.0199723243713,89.8754577637,0.0,6000.0,-0.00397371407598,-0.000258940533968,-0.00397371407598,23.9211387634,0.349065840244,0.0240919683129,0.00498231127858,0.295049011707,0.0158560033888,0.0158560033888,0.00677369302139,-0.0220713168383,148.015319824,148.015319824,-0.481800764799,-2.49146986008,2031,2028,2564,2045,2045,2895,3400,3395,3208,3329,3047,3021,3126,3117,3206,2817,3378,3385,3213,3333,3093,3322,3351,3154
1508405003136038575,156,1508405003135644191,plot_matl,0.25,-1000.0,0.203683897853,0.0176380630583,-0.0463161058724,-42.0591049194,0.349065840244,0.0310380719602,-0.00397115200758,0.203593850136,0.0026354950387,0.0026354950387,-0.000309673137963,-0.018440598622,-32.9353370667,-32.9353370667,-0.712156713009,87.6906738281,2030,2064,2110,2029,2029,2685,3300,3320,3123,3266,2978,2948,3031,3059,3143,2896,3363,3356,3189,3253,2900,3256,3282,2998,0.010035835,1.559995008,1.56559026,0.401425719261,4500.0,0.37875443697,-0.0213265866041,-0.0226712878793,102.0207901,0.0,6000.0,-0.0039760870859,-0.000211960170418,-0.0039760870859,23.9215393066,0.349065840244,0.0240919683129,0.00498231127858,0.295049011707,0.0158560033888,0.0158560033888,0.00677369302139,-0.0220713168383,148.015319824,148.015319824,-0.481800764799,-2.49146986008,2023,2018,2563,2047,2047,2894,3398,3396,3208,3329,3047,3021,3126,3117,3206,2817,3378,3385,3213,3333,3091,3323,3352,3153
1508405003146190132,157,1508405003145682752,plot_matl,0.25,-1000.0,0.203605413437,-0.0186414085329,-0.0463945865631,-50.8687896729,0.349065840244,0.0310380719602,-0.00397115200758,0.203593850136,0.0026354950387,0.0026354950387,-0.000309673137963,-0.018440598622,-32.9353370667,-32.9353370667,-0.712156713009,87.6906738281,2020,2049,2110,2029,2029,2685,3300,3320,3124,3265,2978,2949,3033,3059,3143,2895,3362,3356,3189,3253,2900,3256,3282,2998,0.010039137,1.57003376,1.576144509,0.401425719261,4500.0,0.38010391593,0.00724494317546,-0.021321805194,95.9481277466,0.0,6000.0,-0.00397802749649,-0.000173538341187,-0.00397802749649,23.921333313,0.349065840244,0.0240919683129,0.00498231127858,0.295049011707,0.0158560033888,0.0158560033888,0.00677369302139,-0.0220713168383,148.015319824,148.015319824,-0.481800764799,-2.49146986008,2026,2027,2563,2047,2047,2894,3398,3396,3207,3329,3047,3022,3126,3116,3207,2815,3380,3385,3213,3333,3091,3323,3352,3153
1508405003156024555,158,1508405003155661373,plot_matl,0.25,-1000.0,0.203677490354,0.0178151298314,-0.0463225133717,-42.0178947449,0.349065840244,0.0310380719602,-0.00397115200758,0.203593850136,0.0026354950387,0.0026354950387,-0.000309673137963,-0.018440598622,-32.9353370667,-32.9353370667,-0.712156713009,87.6906738281,2001,2034,2111,2030,2030,2688,3300,3320,3124,3265,2978,2949,3033,3059,3143,2895,3362,3356,3188,3253,2897,3257,3280,2997,0.009977899,1.580013017,1.576508042,0.401425719261,4500.0,0.38010391593,0.00696763955057,-0.021321805194,95.9481277466,0.0,6000.0,-0.00397961726412,-0.000142064265674,-0.00397961726412,23.9214477539,0.349065840244,0.0240919683129,0.00498231127858,0.295049011707,0.0158560033888,0.0158560033888,0.00677369302139,-0.0220713168383,148.015319824,148.015319824,-0.481800764799,-2.49146986008,2029,2033,2563,2041,2041,2896,3398,3396,3207,3329,3047,3022,3126,3116,3207,2815,3380,3385,3214,3332,3093,3323,3354,3153
1508405003165980099,159,1508405003165637372,plot_matl,0.25,-1000.0,0.203633025289,0.0186788365245,-0.0463669709861,-42.058681488,0.349065840244,0.0310380719602,-0.00397976022214,0.20365768671,0.00341441715136,0.00341441715136,-0.000139234150993,-0.0196986179799,-33.1593055725,-33.1593055725,-1.12105870247,87.8868637085,2045,2086,2111,2030,2030,2688,3300,3322,3124,3268,2977,2948,3030,3061,3142,2895,3362,3356,3188,3253,2897,3257,3280,2997,0.009975017,1.589988476,1.586027703,0.401425719261,4500.0,0.38010391593,0.00619568349794,-0.021321805194,95.9481277466,0.0,6000.0,-0.00398091878742,-0.000116300761874,-0.00398091878742,23.9196338654,0.349065840244,0.0216827709228,0.00500160269439,0.2952491045,-0.00787053909153,-0.00787053909153,0.00638436805457,-0.0261351838708,147.93107605,147.93107605,-0.779149472713,-2.81554269791,2016,2018,2563,2041,2041,2896,3397,3396,3207,3329,3044,3023,3126,3118,3207,2816,3380,3385,3214,3332,3093,3323,3354,3153
1508405003176007837,160,1508405003175665505,plot_matl,0.25,-1000.0,0.203633949161,0.0186423677951,-0.0463660433888,-41.952911377,0.349065840244,0.0310380719602,-0.00397976022214,0.20365768671,0.00341441715136,0.00341441715136,-0.000139234150993,-0.0196986179799,-33.1593055725,-33.1593055725,-1.12105870247,87.8868637085,2019,2052,2110,2034,2034,2688,3300,3322,3124,3268,2977,2948,3030,3061,3142,2895,3365,3356,3188,3252,2898,3257,3281,2996,0.010028052,1.600016708,1.60448832,0.401425719261,4500.0,0.38010391593,0.00507295317948,-0.021321805194,95.9481277466,0.0,6000.0,-0.00398198328912,-9.52244809014e-05,-0.00398198328912,23.920545578,0.349065840244,0.0216827709228,0.00500160269439,0.2952491045,-0.00787053909153,-0.00787053909153,0.00638436805457,-0.0261351838708,147.93107605,147.93107605,-0.779149472713,-2.81554269791,2029,2034,2564,2040,2040,2896,3397,3396,3207,3329,3044,3023,3126,3118,3207,2816,3380,3385,3213,3331,3093,3323,3353,3154
1508405003185932333,161,1508405003185655675,plot_matl,0.25,-1000.0,0.203599393368,0.0193087644875,-0.0464006066322,-41.5681228638,0.349065840244,0.0310380719602,-0.00397976022214,0.20365768671,0.00341441715136,0.00341441715136,-0.000139234150993,-0.0196986179799,-33.1593055725,-33.1593055725,-1.12105870247,87.8868637085,2027,2060,2110,2034,2034,2686,3300,3322,3124,3268,2977,2949,3033,3061,3142,2895,3365,3356,3188,3252,2898,3257,3281,2996,0.009988516,1.610005863,1.608151076,0.401425719261,4500.0,0.38010391593,0.00366454618052,-0.021321805194,95.9481277466,0.0,6000.0,-0.00400790432468,-0.0130001557991,-0.00400790432468,28.0926494598,0.349065840244,0.0216827709228,0.00500160269439,0.2952491045,-0.00787053909153,-0.00787053909153,0.00638436805457,-0.0261351838708,147.93107605,147.93107605,-0.779149472713,-2.81554269791,2032,2030,2564,2040,2040,2894,3398,3397,3207,3329,3044,3022,3126,3115,3207,2816,3380,3385,3213,3331,3093,3323,3353,3154
1508405003195911191,162,1508405003195603067,plot_matl,0.25,-1000.0,0.203611582518,0.0191586129367,-0.0463884137571,-41.6970252991,0.349065840244,0.0310380719602,-0.00397976022214,0.20365768671,0.00341441715136,0.00341441715136,-0.000139234150993,-0.0196986179799,-33.1593055725,-33.1593055725,-1.12105870247,87.8868637085,2072,2090,2110,2034,2034,2686,3300,3322,3124,3268,2977,2949,3033,3061,3142,2895,3363,3355,3190,3252,2899,3254,3279,2996,0.009946823,1.619953257,1.611385326,0.401425719261,4500.0,0.38145339489,0.029781376943,-0.0199723243713,89.8754577637,0.0,6000.0,-0.00402705697343,0.000811738311313,-0.00402705697343,23.9134044647,0.349065840244,0.0216827709228,0.00500160269439,0.2952491045,-0.00787053909153,-0.00787053909153,0.00638436805457,-0.0261351838708,147.93107605,147.93107605,-0.779149472713,-2.81554269791,2026,2011,2564,2040,2040,2894,3398,3397,3207,3329,3044,3022,3126,3115,3209,2816,3380,3385,3213,3332,3091,3323,3351,3153
1508405003205878855,163,1508405003205614365,plot_matl,0.25,-1000.0,0.203552395105,0.0204116441309,-0.0464476048946,-41.5964317322,0.349065840244,0.0323875546455,-0.00402631331235,0.203594446182,0.0146157033741,0.0146157033741,0.000796747975983,-0.018381504342,-33.0520782471,-33.0520782471,-0.958398222923,88.1398239136,2051,2076,2109,2035,2035,2686,3302,3320,3122,3267,2978,2948,3033,3061,3142,2895,3363,3355,3190,3252,2899,3254,3279,2996,0.01001182,1.629964829,1.63192666,0.401425719261,4500.0,0.38010391593,0.00207291054539,-0.021321805194,95.9481277466,0.0,6000.0,-0.00401978194714,0.000665073923301,-0.00401978194714,23.920173645,0.349065840244,0.0240919683129,0.00508100818843,0.294955432415,0.0178249422461,0.0178249422461,0.00479181157425,-0.0201075077057,147.653930664,147.653930664,-0.891417562962,-2.64757800102,2022,2027,2564,2042,2042,2895,3398,3396,3210,3329,3046,3023,3126,3115,3209,2816,3380,3385,3213,3332,3091,3323,3351,3153
1508405003215928079,164,1508405003215627775,plot_matl,0.25,-1000.0,0.203552395105,0.0204116441309,-0.0464476048946,-41.5964317322,0.349065840244,0.0323875546455,-0.00402631331235,0.203594446182,0.0146157033741,0.0146157033741,0.000796747975983,-0.018381504342,-33.0520782471,-33.0520782471,-0.958398222923,88.1398239136,2045,2077,2109,2035,2035,2686,3302,3320,3122,3267,2978,2948,3033,3058,3143,2895,3365,3355,3189,3254,2898,3254,3279,2996,0.01001563,1.639980547,1.64256332,0.401425719261,4500.0,0.38010391593,0.00227957544848,-0.021321805194,95.9481277466,0.0,6000.0,-0.00401978194714,0.000665073923301,-0.00401978194714,23.920173645,0.349065840244,0.0240919683129,0.00508100818843,0.294955432415,0.0178249422461,0.0178249422461,0.00479181157425,-0.0201075077057,147.653930664,147.653930664,-0.891417562962,-2.64757800102,2030,2025,2564,2042,2042,2895,3398,3396,3210,3329,3046,3023,3126,3116,3209,2817,3381,3384,3211,3331,3090,3324,3351,3153
1508405003226194095,165,1508405003225682848,plot_matl,0.25,-1000.0,0.203548491001,0.0204112827778,-0.0464515127242,-41.5366401672,0.349065840244,0.0323875546455,-0.00402631331235,0.203594446182,0.0146157033741,0.0146157033741,0.000796747975983,-0.018381504342,-33.0520782471,-33.0520782471,-0.958398222923,88.1398239136,2059,2102,2109,2035,2035,2684,3299,3321,3124,3266,2978,2948,3033,3058,3143,2895,3365,3355,3189,3254,2898,3254,3279,2993,0.010053545,1.650033842,1.658834925,0.401425719261,4500.0,0.38010391593,0.000455431232695,-0.021321805194,95.9481277466,0.0,6000.0,-0.00400892831385,0.00044625706505,-0.00400892831385,23.9191379547,0.349065840244,0.0240919683129,0.00508100818843,0.294955432415,0.0178249422461,0.0178249422461,0.00479181157425,-0.0201075077057,147.653930664,147.653930664,-0.891417562962,-2.64757800102,2024,2031,2563,2043,2043,2896,3398,3396,3206,3327,3046,3023,3126,3116,3209,2817,3381,3384,3211,3331,3090,3324,3354,3154
1508405003235901545,166,1508405003235626232,plot_matl,0.25,-1000.0,0.203558340669,-0.0177075155079,-0.0464416630566,-50.6659698486,0.349065840244,0.0323875546455,-0.00402631331235,0.203594446182,0.0146157033741,0.0146157033741,0.000796747975983,-0.018381504342,-33.0520782471,-33.0520782471,-0.958398222923,88.1398239136,2031,2094,2109,2035,2035,2684,3299,3321,3124,3266,2977,2948,3032,3060,3141,2895,3364,3356,3188,3250,2898,3254,3279,2993,0.009941391,1.659976553,1.650270906,0.401425719261,4500.0,0.37875443697,-0.0253891777247,-0.0226712878793,102.0207901,0.0,6000.0,-0.00399264879525,0.0001132490288,-0.00399264879525,23.9205513,0.349065840244,0.0240919683129,0.00508100818843,0.294955432415,0.0178249422461,0.0178249422461,0.00479181157425,-0.0201075077057,147.653930664,147.653930664,-0.891417562962,-2.64757800102,2013,2031,2563,2043,2043,2896,3398,3396,3206,3327,3046,3021,3127,3117,3207,2815,3380,3386,3214,3330,3090,3324,3354,3154
1508405003245948554,167,1508405003245615028,plot_matl,0.25,-1000.0,0.203535318375,-0.0172433126718,-0.0464646816254,-50.5659332275,0.349065840244,0.0323875546455,-0.00399252865463,0.203578859568,0.0142776910216,0.0142776910216,0.000110928929644,0.0198034159839,-32.9964523315,-32.9964523315,-0.994698762894,87.7835235596,2033,2084,2108,2034,2034,2686,3298,3321,3124,3266,2977,2948,3032,3060,3141,2895,3364,3356,3188,3250,2897,3255,3279,2994,0.009989688,1.669966196,1.668277896,0.401425719261,4500.0,0.37875443697,-0.0256638750434,-0.0226712878793,102.0207901,0.0,6000.0,-0.00399158708751,9.27147339098e-05,-0.00399158708751,23.920671463,0.349065840244,0.0216827709228,0.00506881298497,0.295027434826,-0.00712558813393,-0.00712558813393,-0.0103114061058,-0.0216447319835,147.81072998,147.81072998,-0.604032754898,-2.8443582058,2027,2035,2564,2040,2040,2894,3399,3397,3206,3327,3046,3021,3127,3117,3207,2815,3380,3386,3214,3330,3091,3321,3352,3152
1508405003255951559,168,1508405003255668014,plot_matl,0.25,-1000.0,0.203589856625,0.0195467397571,-0.0464101471007,-41.7166442871,0.349065840244,0.0323875546455,-0.00399252865463,0.203578859568,0.0142776910216,0.0142776910216,0.000110928929644,0.0198034159839,-32.9964523315,-32.9964523315,-0.994698762894,87.7835235596,2055,2105,2108,2034,2034,2686,3298,3321,3124,3267,2976,2948,3031,3059,3142,2894,3363,3355,3188,3250,2897,3255,3279,2994,0.010051091,1.680018154,1.688583288,0.401425719261,4500.0,0.37875443697,-0.0253237970173,-0.0226712878793,102.0207901,0.0,6000.0,-0.00399071769789,7.59055255912e-05,-0.00399071769789,23.9205722809,0.349065840244,0.0216827709228,0.00506881298497,0.295027434826,-0.00712558813393,-0.00712558813393,-0.0103114061058,-0.0216447319835,147.81072998,147.81072998,-0.604032754898,-2.8443582058,2022,2031,2564,2040,2040,2894,3399,3397,3209,3328,3046,3022,3127,3117,3207,2815,3381,3384,3214,3330,3091,3321,3352,3152
1508405003266092412,169,1508405003265686006,plot_matl,0.25,-1000.0,0.203561335802,0.0201202817261,-0.0464386679232,-41.5325622559,0.349065840244,0.0323875546455,-0.00399252865463,0.203578859568,0.0142776910216,0.0142776910216,0.000110928929644,0.0198034159839,-32.9964523315,-32.9964523315,-0.994698762894,87.7835235596,2045,2082,2107,2037,2037,2686,3298,3321,3124,3267,2976,2948,3031,3059,3142,2894,3363,3355,3187,3251,2896,3255,3276,2995,0.010019956,1.690036999,1.693372564,0.401425719261,4500.0,0.38010391593,0.00256776483729,-0.021321805194,95.9481277466,0.0,6000.0,-0.00397667661309,0.0132176876068,-0.00397667661309,19.8421993256,0.349065840244,0.0216827709228,0.00506881298497,0.295027434826,-0.00712558813393,-0.00712558813393,-0.0103114061058,-0.0216447319835,147.81072998,147.81072998,-0.604032754898,-2.8443582058,2029,2028,2564,2040,2040,2895,3399,3397,3209,3328,3046,3022,3127,3117,3207,2815,3381,3384,3213,3332,3092,3321,3354,3153
1508405003275937340,170,1508405003275608925,plot_matl,0.25,-1000.0,0.203572779894,-0.0179636757821,-0.0464272238314,-50.6309432983,0.349065840244,0.0323875546455,-0.00399252865463,0.203578859568,0.0142776910216,0.0142776910216,0.000110928929644,0.0198034159839,-32.9964523315,-32.9964523315,-0.994698762894,87.7835235596,2046,2077,2107,2037,2037,2686,3300,3321,3125,3267,2978,2949,3033,3059,3141,2893,3363,3355,3187,3251,2896,3255,3276,2995,0.009920614,1.699959377,1.68650438,0.401425719261,4500.0,0.38010391593,0.00217741727829,-0.021321805194,95.9481277466,0.0,6000.0,-0.00397850293666,-0.000165555786225,-0.00397850293666,23.9199962616,0.349065840244,0.0216827709228,0.00506881298497,0.295027434826,-0.00712558813393,-0.00712558813393,-0.0103114061058,-0.0216447319835,147.81072998,147.81072998,-0.604032754898,-2.8443582058,2023,2023,2564,2040,2040,2895,3398,3395,3207,3331,3046,3020,3125,3115,3207,2816,3381,3384,3213,3332,3092,3321,3354,3153
1508405003285831487,171,1508405003285599414,plot_matl,0.25,-1000.0,0.203547939658,-0.0174877159297,-0.0464520640671,-50.7503471375,0.349065840244,0.0310380719602,-0.00397867197171,0.203554615378,0.00106647063512,0.00106647063512,-0.000162174139405,-0.0175967495888,-32.9730224609,-32.9730224609,-0.433326274157,88.4842224121,2026,2080,2107,2035,2035,2686,3300,3321,3125,3267,2978,2949,3033,3059,3141,2893,3363,3353,3188,3252,2896,3254,3278,2994,0.009989654,1.70994954,1.708230834,0.401425719261,4500.0,0.38010391593,0.00422162329778,-0.021321805194,95.9481277466,0.0,6000.0,-0.00398001493886,-0.000135353169753,-0.00398001493886,23.9222106934,0.349065840244,0.0240919683129,0.00509559735656,0.294869154692,0.0147591475397,0.0147591475397,0.00448835780844,0.0434239320457,148.108184814,148.108184814,-0.400429427624,-3.60905885696,2027,2030,2563,2042,2042,2895,3398,3395,3207,3331,3046,3020,3125,3115,3207,2816,3378,3385,3215,3331,3092,3322,3355,3152
1508405003295882379,172,1508405003295611268,plot_matl,0.25,-1000.0,0.203596115112,-0.0183662045747,-0.0464038811624,-50.6007995605,0.349065840244,0.0310380719602,-0.00397867197171,0.203554615378,0.00106647063512,0.00106647063512,-0.000162174139405,-0.0175967495888,-32.9730224609,-32.9730224609,-0.433326274157,88.4842224121,2037,2071,2107,2035,2035,2686,3299,3320,3126,3266,2976,2949,3032,3058,3141,2893,3363,3353,3188,3252,2896,3254,3278,2994,0.01002352,1.719972718,1.72404544,0.401425719261,4500.0,0.37875443697,-0.0218471754342,-0.0226712878793,102.0207901,0.0,6000.0,-0.00399383204058,0.000129506646772,-0.00399383204058,23.9225311279,0.349065840244,0.0240919683129,0.00509559735656,0.294869154692,0.0147591475397,0.0147591475397,0.00448835780844,0.0434239320457,148.108184814,148.108184814,-0.400429427624,-3.60905885696,2027,2024,2563,2042,2042,2894,3400,3396,3207,3330,3045,3022,3126,3116,3207,2816,3378,3385,3215,3331,3092,3322,3355,3152
1508405003306086911,173,1508405003305649639,plot_matl,0.25,-1000.0,0.203526958823,-0.0170562341809,-0.0464730374515,-50.5754241943,0.349065840244,0.0310380719602,-0.00397867197171,0.203554615378,0.00106647063512,0.00106647063512,-0.000162174139405,-0.0175967495888,-32.9730224609,-32.9730224609,-0.433326274157,88.4842224121,2041,2074,2107,2035,2035,2686,3299,3320,3126,3266,2976,2949,3032,3058,3140,2892,3360,3352,3187,3250,2896,3255,3280,2994,0.01002801,1.730000527,1.73484573,0.401425719261,4500.0,0.38010391593,0.00298509956338,-0.021321805194,95.9481277466,0.0,6000.0,-0.00398039352149,-0.000125632592244,-0.00398039352149,23.9212608337,0.349065840244,0.0240919683129,0.00509559735656,0.294869154692,0.0147591475397,0.0147591475397,0.00448835780844,0.0434239320457,148.108184814,148.108184814,-0.400429427624,-3.60905885696,2027,2023,2563,2042,2042,2894,3400,3396,3207,3330,3045,3022,3126,3116,3207,2816,3380,3387,3213,3332,3091,3322,3352,3152
1508405003316074068,174,1508405003315647538,plot_matl,0.25,-1000.0,0.203526958823,-0.0170562341809,-0.0464730374515,-50.5754241943,0.349065840244,0.0310380719602,-0.00397867197171,0.203554615378,0.00106647063512,0.00106647063512,-0.000162174139405,-0.0175967495888,-32.9730224609,-32.9730224609,-0.433326274157,88.4842224121,2041,2074,2107,2035,2035,2686,3299,3320,3126,3266,2976,2949,3032,3058,3140,2892,3360,3352,3187,3250,2896,3255,3280,2994,0.009997623,1.739998712,1.739586402,0.401425719261,4500.0,0.38010391593,0.00298509956338,-0.021321805194,95.9481277466,0.0,6000.0,-0.00398039352149,-0.000125632592244,-0.00398039352149,23.9212608337,0.349065840244,0.0240919683129,0.00509559735656,0.294869154692,0.0147591475397,0.0147591475397,0.00448835780844,0.0434239320457,148.108184814,148.108184814,-0.400429427624,-3.60905885696,2027,2023,2563,2042,2042,2894,3400,3396,3207,3330,3045,3022,3126,3116,3207,2816,3380,3387,3213,3332,3091,3322,3352,3152
1508405003325940181,175,1508405003325617855,plot_matl,0.25,-1000.0,0.203439176083,0.0226724091917,-0.0465608276427,-41.1318702698,0.349065840244,0.0296885911375,-0.00398182403296,0.203398168087,-0.0107143092901,-0.0107143092901,-9.75459261099e-05,-0.0144360326231,-32.9469642639,-32.9469642639,0.0704314559698,88.907119751,2051,2079,2107,2036,2036,2685,3299,3317,3123,3268,2977,2965,3047,3071,3154,2902,3371,3363,3197,3257,2901,3261,3280,2994,0.00996971,1.749968994,1.74469925,0.401425719261,4500.0,0.37875443697,-0.0214059818536,-0.0226712878793,102.0207901,0.0,6000.0,-0.00396914966404,0.0130691034719,-0.00396914966404,19.8989562988,0.349065840244,0.0216827709228,0.00511260842904,0.29464712739,-0.00785628613085,-0.00785628613085,0.00506467977539,-0.0141048766673,148.557174683,148.557174683,-0.0049448297359,-3.84611225128,2022,2025,2563,2042,2042,2894,3400,3396,3207,3331,3046,3037,3141,3126,3217,2823,3389,3394,3221,3337,3098,3327,3352,3152
1508405003336090535,176,1508405003335613534,plot_matl,0.25,-1000.0,0.203469336033,-0.0158278085291,-0.0465306602418,-50.2482223511,0.349065840244,0.0296885911375,-0.00398182403296,0.203398168087,-0.0107143092901,-0.0107143092901,-9.75459261099e-05,-0.0144360326231,-32.9469642639,-32.9469642639,0.0704314559698,88.907119751,2022,2046,2106,2035,2035,2687,3302,3323,3127,3271,2977,2965,3047,3071,3154,2902,3371,3363,3197,3257,2901,3261,3285,2999,0.009994908,1.759964282,1.759103808,0.401425719261,4500.0,0.38010391593,0.00522949267179,-0.021321805194,95.9481277466,0.0,6000.0,-0.00398309249431,-6.59592624288e-05,-0.00398309249431,23.9204330444,0.349065840244,0.0216827709228,0.00511260842904,0.29464712739,-0.00785628613085,-0.00785628613085,0.00506467977539,-0.0141048766673,148.557174683,148.557174683,-0.0049448297359,-3.84611225128,2027,2031,2563,2044,2044,2898,3403,3398,3211,3332,3046,3037,3141,3126,3217,2823,3389,3394,3221,3337,3098,3327,3359,3159
1508405003346024369,177,1508405003345631464,plot_matl,0.25,-1000.0,0.203429728746,0.0228687953204,-0.0465702675283,-41.2459869385,0.349065840244,0.0296885911375,-0.00398182403296,0.203398168087,-0.0107143092901,-0.0107143092901,-9.75459261099e-05,-0.0144360326231,-32.9469642639,-32.9469642639,0.0704314559698,88.907119751,2040,2084,2106,2035,2035,2687,3302,3323,3127,3271,2978,2951,3033,3061,3144,2895,3364,3358,3192,3256,2901,3261,3285,2999,0.010016903,1.769982036,1.772991831,0.401425719261,4500.0,0.38145339489,0.0335317328572,-0.0199723243713,89.8754577637,0.0,6000.0,-0.00398309249431,-6.59592624288e-05,-0.00398309249431,23.9204330444,0.349065840244,0.0216827709228,0.00511260842904,0.29464712739,-0.00785628613085,-0.00785628613085,0.00506467977539,-0.0141048766673,148.557174683,148.557174683,-0.0049448297359,-3.84611225128,2018,2022,2563,2044,2044,2898,3403,3398,3211,3332,3047,3023,3129,3118,3210,2819,3382,3387,3220,3334,3098,3327,3359,3159
1508405003356016220,178,1508405003355616208,plot_matl,0.25,-1000.0,0.203381255269,-0.0142789473757,-0.0466187484562,-49.9229049683,0.349065840244,0.0296885911375,-0.00398182403296,0.203398168087,-0.0107143092901,-0.0107143092901,-9.75459261099e-05,-0.0144360326231,-32.9469642639,-32.9469642639,0.0704314559698,88.907119751,2040,2084,2106,2035,2035,2687,3302,3323,3127,3271,2978,2951,3033,3061,3144,2895,3364,3358,3192,3256,2901,3261,3285,2999,0.009990618,1.779972308,1.778330004,0.401425719261,4500.0,0.38010391593,0.00614531198516,-0.021321805194,95.9481277466,0.0,6000.0,-0.00395998964086,-0.000604798959102,-0.00395998964086,23.9185695648,0.349065840244,0.0216827709228,0.00511260842904,0.29464712739,-0.00785628613085,-0.00785628613085,0.00506467977539,-0.0141048766673,148.557174683,148.557174683,-0.0049448297359,-3.84611225128,2018,2022,2563,2044,2044,2898,3403,3398,3211,3332,3047,3023,3129,3118,3210,2819,3382,3387,3220,3334,3098,3327,3359,3159
1508405003365941254,179,1508405003365611466,plot_matl,0.25,-1000.0,0.20332403481,0.0248024556786,-0.0466759689152,-40.8581428528,0.349065840244,0.0296885911375,-0.00396104436368,0.203353792429,-0.0101426243782,-0.0101426243782,-0.000581003027037,-0.0137171400711,-32.7518768311,-32.7518768311,-0.27518388629,88.7882080078,2043,2073,2106,2034,2034,2686,3302,3322,3124,3267,2978,2949,3034,3061,3141,2894,3363,3354,3192,3256,2898,3259,3285,2999,0.00998939,1.789962379,1.78810081,0.401425719261,4500.0,0.38010391593,0.00545798335224,-0.021321805194,95.9481277466,0.0,6000.0,-0.00395254651085,-0.00075113523053,-0.00395254651085,23.9167633057,0.349065840244,0.0240919683129,0.00510675925761,0.294552445412,0.0151298660785,0.0151298660785,0.00468128034845,-0.012118938379,148.598266602,148.598266602,0.450886905193,-5.03705739975,2028,2024,2564,2042,2042,2896,3401,3399,3209,3333,3046,3023,3126,3116,3208,2818,3381,3386,3220,3334,3096,3325,3356,3155
1508405003375747758,180,1508405003375592427,plot_matl,0.25,-1000.0,0.203308820724,0.0251107160002,-0.0466911867261,-40.9681358337,0.349065840244,0.0296885911375,-0.00396104436368,0.203353792429,-0.0101426243782,-0.0101426243782,-0.000581003027037,-0.0137171400711,-32.7518768311,-32.7518768311,-0.27518388629,88.7882080078,2058,2079,2106,2032,2032,2686,3302,3322,3124,3267,2978,2949,3034,3061,3141,2894,3363,3354,3189,3253,2897,3254,3278,2994,0.009978453,1.79994223,1.79612154,0.401425719261,4500.0,0.38010391593,0.00543992733583,-0.021321805194,95.9481277466,0.0,6000.0,-0.0039473050274,-0.000846758834086,-0.0039473050274,23.9095878601,0.349065840244,0.0240919683129,0.00510675925761,0.294552445412,0.0151298660785,0.0151298660785,0.00468128034845,-0.012118938379,148.598266602,148.598266602,0.450886905193,-5.03705739975,2023,2017,2564,2039,2039,2896,3401,3399,3209,3333,3046,3023,3126,3116,3208,2818,3381,3386,3214,3333,3094,3323,3356,3153
1508405003385976657,181,1508405003385608868,plot_matl,0.25,-1000.0,0.203397229314,-0.0146092204377,-0.0466027669609,-50.0284233093,0.349065840244,0.0296885911375,-0.00396104436368,0.203353792429,-0.0101426243782,-0.0101426243782,-0.000581003027037,-0.0137171400711,-32.7518768311,-32.7518768311,-0.27518388629,88.7882080078,1991,2039,2106,2032,2032,2686,3300,3321,3123,3265,2977,2948,3032,3059,3142,2892,3363,3354,3189,3253,2897,3254,3278,2994,0.010017979,1.80995958,1.813254199,0.401425719261,4500.0,0.38010391593,0.00545751629397,-0.021321805194,95.9481277466,0.0,6000.0,-0.00394345121458,-0.000917629571632,-0.00394345121458,23.9206981659,0.349065840244,0.0240919683129,0.00510675925761,0.294552445412,0.0151298660785,0.0151298660785,0.00468128034845,-0.012118938379,148.598266602,148.598266602,0.450886905193,-5.03705739975,2034,2039,2564,2039,2039,2896,3400,3396,3210,3331,3046,3022,3127,3117,3206,2815,3381,3386,3214,3333,3094,3323,3356,3153
1508405003395910217,182,1508405003395612781,plot_matl,0.25,-1000.0,0.203404545784,-0.0147230084985,-0.046595454216,-50.0040206909,0.349065840244,0.0296885911375,-0.00396104436368,0.203353792429,-0.0101426243782,-0.0101426243782,-0.000581003027037,-0.0137171400711,-32.7518768311,-32.7518768311,-0.27518388629,88.7882080078,2022,2078,2107,2032,2032,2686,3300,3321,3123,3265,2977,2948,3032,3059,3142,2892,3362,3356,3185,3251,2896,3255,3280,2995,0.010004439,1.81996409,1.820807898,0.401425719261,4500.0,0.38010391593,0.00590584985912,-0.021321805194,95.9481277466,0.0,6000.0,-0.00395129760727,-0.000751499494072,-0.00395129760727,23.9174976349,0.349065840244,0.0240919683129,0.00510675925761,0.294552445412,0.0151298660785,0.0151298660785,0.00468128034845,-0.012118938379,148.598266602,148.598266602,0.450886905193,-5.03705739975,2023,2030,2562,2042,2042,2896,3400,3396,3210,3331,3046,3022,3127,3117,3206,2815,3381,3387,3215,3332,3092,3322,3353,3153
1508405003405955414,183,1508405003405630053,plot_matl,0.25,-1000.0,0.203476890922,0.0217640995979,-0.0465231053531,-41.2287826538,0.349065840244,0.0310380719602,-0.00395271275192,0.203450605273,0.00310421525501,0.00310421525501,-0.00072154274676,0.0222790464759,-32.5326728821,-32.5326728821,-0.656987428665,88.0458526611,2018,2082,2107,2032,2032,2685,3298,3320,3123,3268,2978,2948,3032,3060,3142,2892,3362,3356,3185,3251,2896,3255,3280,2995,0.010016475,1.829980949,1.833014925,0.401425719261,4500.0,0.37875443697,-0.0199749432504,-0.0226712878793,102.0207901,0.0,6000.0,-0.00394556671381,-0.000859667314216,-0.00394556671381,23.9252738953,0.349065840244,0.0216827709228,0.00507673015818,0.294632464647,-0.00807863753289,-0.00807863753289,-0.0103065865114,0.0480169989169,148.01222229,148.01222229,0.51266759634,-4.84188175201,2011,2023,2562,2042,2042,2895,3401,3397,3209,3330,3047,3022,3126,3116,3206,2815,3381,3387,3215,3332,3092,3322,3353,3153
