%time,field.header.seq,field.header.stamp,field.header.frame_id,field.FFJ4_set_point,field.FFJ4_position_gain,field.FFJ4_process_value,field.FFJ4_process_value_dot,field.FFJ4_error,field.FFJ4_command,field.FFJ1,field.FFJ2,field.FFJ3,field.FFJ4,field.FFJ1_dot,field.FFJ2_dot,field.FFJ3_dot,field.FFJ4_dot,field.FFJ1_tao,field.FFJ2_tao,field.FFJ3_tao,field.FFJ4_tao,field.pac0,field.pac1,field.pdc0,field.tac0,field.tdc0,field.el0,field.el1,field.el2,field.el3,field.el4,field.el5,field.el6,field.el7,field.el8,field.el9,field.el10,field.el11,field.el12,field.el13,field.el14,field.el15,field.el16,field.el17,field.el18,field.dt,field.time,field.test_time2,field.FFJ0_set_point,field.FFJ0_position_gain,field.FFJ0_process_value,field.FFJ0_process_value_dot,field.FFJ0_error,field.FFJ0_command,field.FFJ3_set_point,field.FFJ3_position_gain,field.FFJ3_process_value,field.FFJ3_process_value_dot,field.FFJ3_error,field.FFJ3_command,field.MFJ1,field.MFJ2,field.MFJ3,field.MFJ4,field.MFJ1_dot,field.MFJ2_dot,field.MFJ3_dot,field.MFJ4_dot,field.MFJ1_tao,field.MFJ2_tao,field.MFJ3_tao,field.MFJ4_tao,field.Mpac0,field.Mpac1,field.Mpdc0,field.Mtac0,field.Mtdc0,field.Mel0,field.Mel1,field.Mel2,field.Mel3,field.Mel4,field.Mel5,field.Mel6,field.Mel7,field.Mel8,field.Mel9,field.Mel10,field.Mel11,field.Mel12,field.Mel13,field.Mel14,field.Mel15,field.Mel16,field.Mel17,field.Mel18
1508405074742869716,127,1508405074742384015,plot_matl,0.25,-2000.0,0.216096609831,-0.0055479677394,-0.0339033976197,-69.1370239258,0.349065840244,0.0256401468068,-0.00247104070149,0.216042965651,-0.00217937771231,-0.00217937771231,-0.00373214203864,-0.00443302420899,-67.1797866821,-67.1797866821,-0.697507619858,95.4398803711,2016,2041,2109,2027,2027,2663,3295,3318,3121,3267,2978,2952,3033,3065,3146,2916,3369,3360,3198,3256,2907,3255,3283,2999,0.010014536,1.270026479,1.271846072,0.401425719261,4500.0,0.37470600009,-0.00503721879795,-0.02671973221,120.238792419,0.0,6000.0,-0.00247092545033,-0.00374796753749,-0.00247092545033,15.9504680634,0.349065840244,0.0216827709228,0.00504074757919,0.29504942894,-0.0114205833524,-0.0114205833524,0.00562976207584,0.0397201292217,148.222335815,148.222335815,1.06955933571,2.19469475746,2026,2027,2563,2030,2030,2899,3402,3400,3215,3332,3051,3024,3127,3117,3210,2819,3382,3385,3214,3333,3091,3325,3355,3156
1508405074752863962,128,1508405074752414037,plot_matl,0.25,-2000.0,0.216184929013,0.0306017864496,-0.0338150709867,-60.5962219238,0.349065840244,0.0256401468068,-0.00247104070149,0.216042965651,-0.00217937771231,-0.00217937771231,-0.00373214203864,-0.00443302420899,-67.1797866821,-67.1797866821,-0.697507619858,95.4398803711,1999,2037,2110,2027,2027,2663,3295,3317,3119,3268,2978,2952,3033,3065,3146,2916,3369,3360,3198,3256,2907,3255,3283,2999,0.010029641,1.280056196,1.283794048,0.401425719261,4500.0,0.37470600009,-0.00410766759887,-0.02671973221,120.238792419,0.0,6000.0,-0.00250484189019,-0.00306796235964,-0.00250484189019,15.9188432693,0.349065840244,0.0216827709228,0.00504074757919,0.29504942894,-0.0114205833524,-0.0114205833524,0.00562976207584,0.0397201292217,148.222335815,148.222335815,1.06955933571,2.19469475746,2029,2027,2563,2033,2033,2899,3401,3400,3211,3331,3051,3023,3127,3117,3210,2819,3382,3385,3214,3333,3091,3325,3355,3156
1508405074762578702,129,1508405074762361609,plot_matl,0.25,-2000.0,0.216153159738,-0.00672395713627,-0.033846847713,-69.4182662964,0.349065840244,0.0256401468068,-0.00247104070149,0.216042965651,-0.00217937771231,-0.00217937771231,-0.00373214203864,-0.00443302420899,-67.1797866821,-67.1797866821,-0.697507619858,95.4398803711,2010,2046,2110,2027,2027,2663,3295,3317,3119,3268,2978,2952,3031,3065,3145,2918,3370,3363,3197,3257,2908,3256,3283,2999,0.009945074,1.29000267,1.282914546,0.401425719261,4500.0,0.37605547905,0.0224191211164,-0.0253702495247,114.166122437,0.0,6000.0,-0.00252075423487,-0.00275114714168,-0.00252075423487,16.0124568939,0.349065840244,0.0216827709228,0.00504074757919,0.29504942894,-0.0114205833524,-0.0114205833524,0.00562976207584,0.0397201292217,148.222335815,148.222335815,1.06955933571,2.19469475746,2021,2021,2563,2033,2033,2899,3401,3400,3211,3331,3051,3023,3129,3118,3211,2818,3382,3386,3213,3333,3092,3324,3355,3156
1508405074772924347,130,1508405074772409279,plot_matl,0.25,-2000.0,0.216124102473,-0.00616783136502,-0.033875901252,-69.2310638428,0.349065840244,0.0242906641215,-0.00252828467637,0.216136425734,-0.0156748313457,-0.0156748313457,-0.00258727092296,-0.00641802651808,-67.0127182007,-67.0127182007,-0.661622107029,95.6051025391,2001,2032,2110,2028,2028,2661,3293,3318,3118,3267,2978,2952,3031,3065,3145,2918,3370,3363,3197,3257,2908,3256,3285,2999,0.010050113,1.300051478,1.30651469,0.401425719261,4500.0,0.37470600009,-0.00445918925107,-0.02671973221,120.238792419,0.0,6000.0,-0.00253333617002,-0.0024864107836,-0.00253333617002,15.9579086304,0.349065840244,0.0216827709228,0.00495687080547,0.29510691762,-0.0099844718352,-0.0099844718352,0.007279378362,-0.0234238561243,148.317626953,148.317626953,1.03329074383,1.68367099762,2028,2030,2564,2035,2035,2899,3400,3398,3211,3333,3051,3023,3129,3118,3211,2818,3382,3386,3213,3333,3092,3324,3356,3156
1508405074782823493,131,1508405074782383570,plot_matl,0.25,-2000.0,0.216176882386,0.0306642390788,-0.0338231176138,-59.4862442017,0.349065840244,0.0242906641215,-0.00252828467637,0.216136425734,-0.0156748313457,-0.0156748313457,-0.00258727092296,-0.00641802651808,-67.0127182007,-67.0127182007,-0.661622107029,95.6051025391,2001,2029,2110,2028,2028,2661,3293,3318,3118,3267,2976,2952,3032,3067,3146,2920,3372,3363,3199,3257,2908,3256,3285,2999,0.009972146,1.310025052,1.306351126,0.401425719261,4500.0,0.37470600009,-0.00412832573056,-0.02671973221,120.238792419,0.0,6000.0,-0.0025330260396,-0.00250840233639,-0.0025330260396,16.0358142853,0.349065840244,0.0216827709228,0.00495687080547,0.29510691762,-0.0099844718352,-0.0099844718352,0.007279378362,-0.0234238561243,148.317626953,148.317626953,1.03329074383,1.68367099762,2030,2026,2564,2035,2035,2899,3400,3398,3211,3333,3053,3026,3130,3119,3211,2819,3382,3387,3214,3333,3092,3324,3356,3156
1508405074792728314,132,1508405074792414503,plot_matl,0.25,-2000.0,0.216245234013,-0.00863420497626,-0.0337547659874,-69.5865478516,0.349065840244,0.0242906641215,-0.00252828467637,0.216136425734,-0.0156748313457,-0.0156748313457,-0.00258727092296,-0.00641802651808,-67.0127182007,-67.0127182007,-0.661622107029,95.6051025391,2014,2039,2110,2027,2027,2659,3293,3319,3118,3267,2976,2952,3032,3067,3146,2920,3372,3363,3199,3257,2908,3259,3283,2999,0.010031302,1.32005634,1.324131864,0.401425719261,4500.0,0.37605547905,0.0213456526399,-0.0253702495247,114.166122437,0.0,6000.0,-0.0025422598701,0.0110998619348,-0.0025422598701,11.9002323151,0.349065840244,0.0216827709228,0.00495687080547,0.29510691762,-0.0099844718352,-0.0099844718352,0.007279378362,-0.0234238561243,148.317626953,148.317626953,1.03329074383,1.68367099762,2026,2021,2563,2032,2032,2899,3400,3399,3211,3333,3053,3026,3130,3119,3211,2819,3382,3387,3214,3333,3093,3323,3356,3155
1508405074802771326,133,1508405074802392478,plot_matl,0.25,-2000.0,0.216203123331,-0.00776147283614,-0.0337968692183,-69.5007324219,0.349065840244,0.0242906641215,-0.00252828467637,0.216136425734,-0.0156748313457,-0.0156748313457,-0.00258727092296,-0.00641802651808,-67.0127182007,-67.0127182007,-0.661622107029,95.6051025391,2014,2038,2110,2027,2027,2659,3293,3319,3120,3267,2977,2951,3031,3065,3146,2921,3371,3360,3199,3257,2908,3259,3283,2999,0.009978245,1.330034556,1.327106585,0.401425719261,4500.0,0.37470600009,-0.00631765741855,-0.02671973221,120.238792419,0.0,6000.0,-0.0025400002487,-0.00236594467424,-0.0025400002487,15.9738521576,0.349065840244,0.0216827709228,0.00495687080547,0.29510691762,-0.0099844718352,-0.0099844718352,0.007279378362,-0.0234238561243,148.317626953,148.317626953,1.03329074383,1.68367099762,2027,2026,2563,2032,2032,2899,3400,3399,3212,3334,3051,3023,3128,3120,3211,2819,3381,3387,3214,3333,3093,3323,3356,3155
1508405074812594502,134,1508405074812390309,plot_matl,0.25,-2000.0,0.216205269098,-0.00779492501169,-0.0337947271764,-69.3166275024,0.349065840244,0.0256401468068,-0.00255741458386,0.216181367636,-0.00269210268743,-0.00269210268743,-0.00201636948623,-0.00735536357388,-67.2802505493,-67.2802505493,-0.326121330261,95.6956176758,1999,2034,2110,2028,2028,2659,3293,3319,3120,3267,2977,2951,3031,3065,3146,2921,3371,3360,3198,3259,2908,3256,3284,2998,0.009995154,1.34003119,1.339350636,0.401425719261,4500.0,0.37605547905,0.0215643066913,-0.0253702495247,114.166122437,0.0,6000.0,-0.00254789413884,-0.00219463277608,-0.00254789413884,15.9040498734,0.349065840244,0.0216827709228,0.00502194929868,0.295304596424,-0.0106228822842,-0.0106228822842,0.005961607676,-0.0274187903851,148.097137451,148.097137451,0.702338755131,2.09914016724,2025,2027,2564,2036,2036,2899,3400,3399,3212,3334,3051,3023,3128,3120,3211,2819,3381,3387,3215,3334,3095,3326,3355,3155
1508405074822540305,135,1508405074822353874,plot_matl,0.25,-2000.0,0.216201677918,-0.00771556096151,-0.0337983183563,-69.3935546875,0.349065840244,0.0256401468068,-0.00255741458386,0.216181367636,-0.00269210268743,-0.00269210268743,-0.00201636948623,-0.00735536357388,-67.2802505493,-67.2802505493,-0.326121330261,95.6956176758,2023,2057,2110,2028,2028,2659,3294,3318,3120,3266,2977,2953,3033,3065,3146,2920,3371,3360,3198,3259,2908,3256,3284,2998,0.009963003,1.349994676,1.345005405,0.401425719261,4500.0,0.37605547905,0.0210770815611,-0.0253702495247,114.166122437,0.0,6000.0,-0.0025551430881,0.0113663095981,-0.0025551430881,12.0225887299,0.349065840244,0.0216827709228,0.00502194929868,0.295304596424,-0.0106228822842,-0.0106228822842,0.005961607676,-0.0274187903851,148.097137451,148.097137451,0.702338755131,2.09914016724,2019,2020,2564,2036,2036,2899,3403,3400,3211,3335,3050,3024,3129,3119,3211,2818,3381,3387,3215,3334,3095,3326,3355,3155
1508405074832753763,136,1508405074832396463,plot_matl,0.25,-2000.0,0.216267868876,-0.00900691282004,-0.0337321311235,-69.6341400146,0.349065840244,0.0256401468068,-0.00255741458386,0.216181367636,-0.00269210268743,-0.00269210268743,-0.00201636948623,-0.00735536357388,-67.2802505493,-67.2802505493,-0.326121330261,95.6956176758,2018,2071,2110,2029,2029,2659,3294,3318,3120,3266,2977,2953,3033,3065,3146,2920,3370,3364,3202,3258,2910,3258,3283,2999,0.010044166,1.360038026,1.366006576,0.401425719261,4500.0,0.37470600009,-0.00795837026089,-0.02671973221,120.238792419,0.0,6000.0,-0.00255131628364,-0.00214328058064,-0.00255131628364,15.9535589218,0.349065840244,0.0216827709228,0.00502194929868,0.295304596424,-0.0106228822842,-0.0106228822842,0.005961607676,-0.0274187903851,148.097137451,148.097137451,0.702338755131,2.09914016724,2015,2028,2563,2037,2037,2899,3403,3400,3211,3335,3050,3024,3129,3119,3211,2818,3381,3388,3215,3334,3092,3325,3355,3155
1508405074842705510,137,1508405074842381404,plot_matl,0.25,-2000.0,0.216248288751,-0.0465304106474,-0.0337517037988,-78.6873321533,0.349065840244,0.0256401468068,-0.00255741458386,0.216181367636,-0.00269210268743,-0.00269210268743,-0.00201636948623,-0.00735536357388,-67.2802505493,-67.2802505493,-0.326121330261,95.6956176758,2016,2043,2110,2029,2029,2659,3292,3316,3119,3268,2976,2953,3032,3066,3146,2920,3370,3364,3202,3258,2910,3258,3283,2999,0.009985691,1.370023646,1.368039667,0.401425719261,4500.0,0.37470600009,-0.00843552034348,-0.02671973221,120.238792419,0.0,6000.0,-0.00254601496272,0.0111713036895,-0.00254601496272,11.9240179062,0.349065840244,0.0216827709228,0.00502194929868,0.295304596424,-0.0106228822842,-0.0106228822842,0.005961607676,-0.0274187903851,148.097137451,148.097137451,0.702338755131,2.09914016724,2022,2025,2563,2037,2037,2898,3401,3398,3213,3332,3051,3023,3129,3119,3211,2818,3381,3388,3215,3334,3092,3325,3355,3155
1508405074852687371,138,1508405074852384209,plot_matl,0.25,-2000.0,0.216276437044,-0.00914444029331,-0.0337235592306,-69.5292129517,0.349065840244,0.0256401468068,-0.00253777182661,0.216254979372,-0.00359340850264,-0.00359340850264,-0.00242062984034,-0.0087518831715,-67.1518478394,-67.1518478394,-0.0482876002789,95.5210723877,2016,2043,2110,2029,2029,2659,3292,3316,3119,3268,2976,2953,3032,3066,3146,2920,3370,3364,3202,3258,2910,3258,3283,2999,0.01000245,1.380026262,1.3803381,0.401425719261,4500.0,0.37470600009,-0.00690530147403,-0.02671973221,120.238792419,0.0,6000.0,-0.0025424757041,-0.0023258109577,-0.0025424757041,15.913192749,0.349065840244,0.0216827709228,0.00500017032027,0.295089811087,-0.00875032972544,-0.00875032972544,-0.00895471870899,-0.0230502616614,148.122650146,148.122650146,0.349052876234,2.10304403305,2022,2025,2563,2037,2037,2898,3401,3398,3213,3332,3051,3023,3129,3119,3211,2818,3381,3388,3215,3334,3092,3325,3355,3155
1508405074862890144,139,1508405074862403696,plot_matl,0.25,-2000.0,0.216324865818,-0.0101656895131,-0.0336751304567,-69.863067627,0.349065840244,0.0256401468068,-0.00253777182661,0.216254979372,-0.00359340850264,-0.00359340850264,-0.00242062984034,-0.0087518831715,-67.1518478394,-67.1518478394,-0.0482876002789,95.5210723877,2023,2056,2110,2029,2029,2659,3294,3317,3118,3267,2976,2953,3032,3066,3147,2921,3371,3362,3200,3260,2909,3258,3280,3001,0.010019112,1.39004572,1.392656568,0.401425719261,4500.0,0.37605547905,0.0200948752463,-0.0253702495247,114.166122437,0.0,6000.0,-0.00256344070658,-0.00190322392154,-0.00256344070658,15.9684076309,0.349065840244,0.0216827709228,0.00500017032027,0.295089811087,-0.00875032972544,-0.00875032972544,-0.00895471870899,-0.0230502616614,148.122650146,148.122650146,0.349052876234,2.10304403305,2024,2028,2564,2033,2033,2897,3402,3399,3211,3332,3053,3024,3129,3119,3211,2818,3381,3388,3214,3333,3094,3324,3356,3157
1508405074872807847,140,1508405074872400237,plot_matl,0.25,-2000.0,0.216338261962,-0.0104606514797,-0.0336617417634,-69.8551635742,0.349065840244,0.0256401468068,-0.00253777182661,0.216254979372,-0.00359340850264,-0.00359340850264,-0.00242062984034,-0.0087518831715,-67.1518478394,-67.1518478394,-0.0482876002789,95.5210723877,2016,2040,2110,2029,2029,2659,3294,3317,3118,3267,2976,2953,3034,3067,3145,2921,3370,3364,3198,3260,2908,3258,3280,3001,0.009995188,1.40004184,1.39932632,0.401425719261,4500.0,0.37605547905,0.0198961570859,-0.0253702495247,114.166122437,0.0,6000.0,-0.00254622567445,-0.00226156064309,-0.00254622567445,15.9594039917,0.349065840244,0.0216827709228,0.00500017032027,0.295089811087,-0.00875032972544,-0.00875032972544,-0.00895471870899,-0.0230502616614,148.122650146,148.122650146,0.349052876234,2.10304403305,2022,2028,2564,2033,2033,2897,3402,3399,3211,3332,3053,3024,3129,3119,3210,2819,3380,3387,3214,3334,3093,3325,3356,3157
1508405074882794600,141,1508405074882382070,plot_matl,0.25,-2000.0,0.216342821717,-0.0105287740007,-0.033657182008,-69.7347793579,0.349065840244,0.0256401468068,-0.00253777182661,0.216254979372,-0.00359340850264,-0.00359340850264,-0.00242062984034,-0.0087518831715,-67.1518478394,-67.1518478394,-0.0482876002789,95.5210723877,2018,2050,2110,2031,2031,2659,3294,3318,3119,3267,2976,2953,3034,3067,3145,2921,3370,3364,3198,3260,2908,3258,3282,2999,0.009982385,1.410024098,1.407516285,0.401425719261,4500.0,0.37470600009,-0.00750107225031,-0.02671973221,120.238792419,0.0,6000.0,-0.00253175408579,-0.00254587922245,-0.00253175408579,15.9206991196,0.349065840244,0.0216827709228,0.00500017032027,0.295089811087,-0.00875032972544,-0.00875032972544,-0.00895471870899,-0.0230502616614,148.122650146,148.122650146,0.349052876234,2.10304403305,2022,2026,2563,2032,2032,2900,3403,3398,3210,3333,3053,3024,3129,3119,3210,2819,3380,3387,3214,3334,3093,3325,3354,3157
1508405074892751812,142,1508405074892381362,plot_matl,0.25,-2000.0,0.216381028295,0.0265808068216,-0.0336189754307,-60.8766708374,0.349065840244,0.0256401468068,-0.00253905635327,0.21636505425,-0.00467977300286,-0.00467977300286,-0.00240431120619,-0.0110073154792,-67.0413208008,-67.0413208008,-0.414835005999,95.2914810181,2008,2045,2110,2031,2031,2659,3294,3318,3119,3267,2976,2951,3032,3067,3145,2918,3370,3362,3201,3259,2908,3258,3282,2999,0.009998772,1.420023175,1.419825624,0.401425719261,4500.0,0.37605547905,0.0177249200642,-0.0253702495247,114.166122437,0.0,6000.0,-0.00254365359433,-0.00231127766892,-0.00254365359433,15.9520187378,0.349065840244,0.0240919683129,0.0049012452364,0.295347720385,0.0160707402974,0.0160707402974,-0.00695015816018,-0.0282339341938,148.31968689,148.31968689,0.694310545921,2.2344315052,2019,2027,2563,2032,2032,2900,3403,3398,3210,3333,3051,3023,3129,3119,3211,2819,3381,3387,3214,3333,3093,3325,3354,3157
1508405074902901280,143,1508405074902415839,plot_matl,0.25,-2000.0,0.216415092349,0.0258802622557,-0.0335849151015,-60.9552345276,0.349065840244,0.0256401468068,-0.00253905635327,0.21636505425,-0.00467977300286,-0.00467977300286,-0.00240431120619,-0.0110073154792,-67.0413208008,-67.0413208008,-0.414835005999,95.2914810181,2008,2047,2111,2028,2028,2660,3293,3318,3119,3267,2976,2951,3032,3067,3145,2918,3370,3362,3201,3259,2910,3258,3281,3001,0.010034267,1.430057632,1.434900181,0.401425719261,4500.0,0.37470600009,-0.00926755089313,-0.02671973221,120.238792419,0.0,6000.0,-0.00252753566019,0.0107710836455,-0.00252753566019,11.928352356,0.349065840244,0.0240919683129,0.0049012452364,0.295347720385,0.0160707402974,0.0160707402974,-0.00695015816018,-0.0282339341938,148.31968689,148.31968689,0.694310545921,2.2344315052,2025,2026,2563,2029,2029,2898,3402,3400,3210,3333,3051,3023,3129,3119,3211,2819,3381,3387,3214,3333,3093,3325,3357,3157
1508405074912857690,144,1508405074912398715,plot_matl,0.25,-2000.0,0.216375291348,-0.011247612536,-0.0336247012019,-70.1553955078,0.349065840244,0.0256401468068,-0.00253905635327,0.21636505425,-0.00467977300286,-0.00467977300286,-0.00240431120619,-0.0110073154792,-67.0413208008,-67.0413208008,-0.414835005999,95.2914810181,2008,2047,2111,2028,2028,2660,3293,3318,3119,3267,2976,2951,3032,3067,3145,2918,3370,3362,3201,3259,2910,3258,3281,3001,0.009981717,1.440040367,1.437367248,0.401425719261,4500.0,0.37605547905,0.0181621648371,-0.0253702495247,114.166122437,0.0,6000.0,-0.00255138590001,-0.0021688749548,-0.00255138590001,16.0051860809,0.349065840244,0.0240919683129,0.0049012452364,0.295347720385,0.0160707402974,0.0160707402974,-0.00695015816018,-0.0282339341938,148.31968689,148.31968689,0.694310545921,2.2344315052,2025,2026,2563,2029,2029,2898,3402,3400,3210,3333,3051,3023,3129,3119,3211,2819,3381,3387,3214,3333,3093,3325,3357,3157
1508405074922972032,145,1508405074922390929,plot_matl,0.25,-2000.0,0.216413602233,0.0258753690869,-0.0335864052176,-61.3283615112,0.349065840244,0.0256401468068,-0.00253905635327,0.21636505425,-0.00467977300286,-0.00467977300286,-0.00240431120619,-0.0110073154792,-67.0413208008,-67.0413208008,-0.414835005999,95.2914810181,2067,2085,2109,2031,2031,2661,3293,3318,3120,3269,2978,2954,3032,3065,3143,2919,3372,3362,3199,3259,2906,3257,3283,2998,0.009992567,1.45003279,1.448922215,0.401425719261,4500.0,0.37470600009,-0.00947983656079,-0.02671973221,120.238792419,0.0,6000.0,-0.00255853752606,-0.00202185614035,-0.00255853752606,15.9166193008,0.349065840244,0.0240919683129,0.0049012452364,0.295347720385,0.0160707402974,0.0160707402974,-0.00695015816018,-0.0282339341938,148.31968689,148.31968689,0.694310545921,2.2344315052,2018,2017,2563,2032,2032,2898,3402,3400,3212,3334,3052,3025,3129,3120,3210,2819,3382,3387,3214,3334,3093,3325,3354,3155
1508405074932706850,146,1508405074932403793,plot_matl,0.25,-2000.0,0.216236039996,-0.00846161600202,-0.0337639600039,-69.4993286133,0.349065840244,0.0256401468068,-0.00253905635327,0.21636505425,-0.00467977300286,-0.00467977300286,-0.00240431120619,-0.0110073154792,-67.0413208008,-67.0413208008,-0.414835005999,95.2914810181,2067,2085,2109,2031,2031,2661,3293,3318,3120,3269,2978,2954,3032,3065,3143,2919,3372,3362,3199,3259,2906,3257,3283,2998,0.010011561,1.460045211,1.461687906,0.401425719261,4500.0,0.37605547905,0.0175342783332,-0.0253702495247,114.166122437,0.0,6000.0,-0.00256544887088,-0.00188063539099,-0.00256544887088,15.9404411316,0.349065840244,0.0240919683129,0.0049012452364,0.295347720385,0.0160707402974,0.0160707402974,-0.00695015816018,-0.0282339341938,148.31968689,148.31968689,0.694310545921,2.2344315052,2018,2017,2563,2032,2032,2898,3402,3400,3212,3334,3052,3025,3129,3120,3210,2819,3382,3387,3214,3334,3093,3325,3354,3155
1508405074942851939,147,1508405074942420095,plot_matl,0.25,-2000.0,0.216164261103,-0.00699912710115,-0.0338357388973,-69.3390655518,0.349065840244,0.0256401468068,-0.00256171589717,0.216290816665,-0.0047822012566,-0.0047822012566,-0.00195660535246,-0.00956157501787,-66.8132476807,-66.8132476807,-0.622914195061,95.8177642822,2025,2076,2110,2033,2033,2661,3295,3317,3119,3269,2976,2952,3033,3067,3145,2918,3370,3364,3198,3259,2906,3258,3281,3000,0.010017562,1.470062298,1.472581614,0.401425719261,4500.0,0.37605547905,0.0178244933486,-0.0253702495247,114.166122437,0.0,6000.0,-0.00257076253183,-0.00176362250932,-0.00257076253183,15.9523935318,0.349065840244,0.0216827709228,0.00487345876172,0.29524409771,-0.00863124057651,-0.00863124057651,-0.00639299163595,-0.0261479280889,148.374908447,148.374908447,0.782015383244,2.01442098618,2030,2038,2564,2032,2032,2898,3400,3400,3211,3332,3052,3023,3129,3119,3211,2818,3380,3387,3213,3333,3093,3323,3356,3157
1508405074952810378,148,1508405074952395558,plot_matl,0.25,-2000.0,0.216268986464,-0.00913848541677,-0.0337310135365,-69.4923095703,0.349065840244,0.0256401468068,-0.00256171589717,0.216290816665,-0.0047822012566,-0.0047822012566,-0.00195660535246,-0.00956157501787,-66.8132476807,-66.8132476807,-0.622914195061,95.8177642822,2046,2100,2110,2033,2033,2660,3294,3319,3120,3267,2978,2952,3033,3067,3145,2918,3370,3364,3198,3259,2906,3258,3281,3000,0.009973779,1.480037145,1.476119292,0.401425719261,4500.0,0.37605547905,0.0174797754735,-0.0253702495247,114.166122437,0.0,6000.0,-0.00256203440949,-0.0019370126538,-0.00256203440949,15.9142036438,0.349065840244,0.0216827709228,0.00487345876172,0.29524409771,-0.00863124057651,-0.00863124057651,-0.00639299163595,-0.0261479280889,148.374908447,148.374908447,0.782015383244,2.01442098618,2017,2025,2564,2032,2032,2899,3402,3399,3214,3332,3052,3024,3128,3120,3211,2818,3380,3387,3213,3333,3093,3323,3356,3157
1508405074962728007,149,1508405074962391673,plot_matl,0.25,-2000.0,0.216261982918,-0.00896346848458,-0.0337380170822,-69.5070724487,0.349065840244,0.0256401468068,-0.00256171589717,0.216290816665,-0.0047822012566,-0.0047822012566,-0.00195660535246,-0.00956157501787,-66.8132476807,-66.8132476807,-0.622914195061,95.8177642822,2020,2074,2110,2033,2033,2660,3294,3319,3120,3267,2978,2952,3033,3067,3146,2919,3372,3364,3199,3257,2907,3257,3280,2999,0.009997964,1.490034278,1.489696636,0.401425719261,4500.0,0.37470600009,-0.01051042974,-0.02671973221,120.238792419,0.0,6000.0,-0.00256774295121,-0.00182017567568,-0.00256774295121,15.9244432449,0.349065840244,0.0216827709228,0.00487345876172,0.29524409771,-0.00863124057651,-0.00863124057651,-0.00639299163595,-0.0261479280889,148.374908447,148.374908447,0.782015383244,2.01442098618,2023,2033,2564,2032,2032,2899,3402,3399,3214,3332,3052,3024,3128,3120,3209,2817,3381,3385,3214,3332,3093,3325,3356,3157
1508405074972676561,150,1508405074972395360,plot_matl,0.25,-2000.0,0.216182276607,-0.00734602147713,-0.0338177233934,-69.2894287109,0.349065840244,0.0269896276295,-0.00256662792526,0.2161963135,0.00888891331851,0.00888891331851,0.0115940626711,-0.00763097219169,-66.2205429077,-66.2205429077,-0.470476359129,95.2650146484,1991,2043,2109,2031,2031,2659,3295,3317,3120,3266,2977,2952,3033,3067,3146,2919,3372,3364,3199,3257,2907,3257,3280,2999,0.010002354,1.500037529,1.5003531,0.401425719261,4500.0,0.37470600009,-0.00962274335325,-0.02671973221,120.238792419,0.0,6000.0,-0.00257003470324,-0.00175553024746,-0.00257003470324,15.9218206406,0.349065840244,0.0216827709228,0.00489058159292,0.295058995485,-0.00810733996332,-0.00810733996332,0.00860564224422,-0.0224198698997,148.494140625,148.494140625,0.686449170113,1.73976671696,2025,2034,2564,2034,2034,2898,3402,3399,3211,3332,3051,3025,3128,3120,3209,2817,3381,3385,3214,3332,3093,3325,3356,3157
1508405074982471783,151,1508405074982380265,plot_matl,0.25,-2000.0,0.21608158946,-0.00530234444886,-0.0339184068143,-69.0639877319,0.349065840244,0.0269896276295,-0.00256662792526,0.2161963135,0.00888891331851,0.00888891331851,0.0115940626711,-0.00763097219169,-66.2205429077,-66.2205429077,-0.470476359129,95.2650146484,1991,2043,2109,2031,2031,2659,3295,3317,3120,3266,2977,2952,3033,3067,3146,2919,3372,3364,3199,3257,2907,3257,3280,2999,0.009981188,1.510020734,1.507159388,0.401425719261,4500.0,0.37470600009,-0.010807801038,-0.02671973221,120.238792419,0.0,6000.0,-0.0025619531516,-0.00193109083921,-0.0025619531516,15.9347305298,0.349065840244,0.0216827709228,0.00489058159292,0.295058995485,-0.00810733996332,-0.00810733996332,0.00860564224422,-0.0224198698997,148.494140625,148.494140625,0.686449170113,1.73976671696,2025,2034,2564,2034,2034,2898,3402,3399,3211,3332,3051,3025,3128,3120,3209,2817,3381,3385,3214,3332,3093,3325,3356,3157
1508405074992668888,152,1508405074992395068,plot_matl,0.25,-2000.0,0.215966880322,-0.00297456723638,-0.0340331234038,-68.7425384521,0.349065840244,0.0269896276295,-0.00256662792526,0.2161963135,0.00888891331851,0.00888891331851,0.0115940626711,-0.00763097219169,-66.2205429077,-66.2205429077,-0.470476359129,95.2650146484,2004,2034,2109,2028,2028,2659,3294,3315,3118,3267,2977,2952,3033,3067,3145,2920,3370,3361,3200,3258,2909,3257,3283,3000,0.010016832,1.520036645,1.522558464,0.401425719261,4500.0,0.37605547905,0.0163681339473,-0.0253702495247,114.166122437,0.0,6000.0,-0.00254645268433,-0.00227682152763,-0.00254645268433,15.9211854935,0.349065840244,0.0216827709228,0.00489058159292,0.295058995485,-0.00810733996332,-0.00810733996332,0.00860564224422,-0.0224198698997,148.494140625,148.494140625,0.686449170113,1.73976671696,2029,2024,2563,2037,2037,2899,3399,3398,3211,3332,3051,3025,3129,3117,3210,2818,3382,3389,3214,3333,3091,3323,3357,3156
1508405075002730393,153,1508405075002378709,plot_matl,0.25,-2000.0,0.215944170952,-0.00234747887589,-0.0340558364987,-68.767539978,0.349065840244,0.0269896276295,-0.00256662792526,0.2161963135,0.00888891331851,0.00888891331851,0.0115940626711,-0.00763097219169,-66.2205429077,-66.2205429077,-0.470476359129,95.2650146484,1988,2023,2109,2028,2028,2659,3294,3315,3118,3267,2977,2952,3033,3066,3145,2919,3368,3363,3200,3259,2909,3257,3283,3000,0.009984418,1.530020873,1.527615954,0.401425719261,4500.0,0.37605547905,0.0168836601079,-0.0253702495247,114.166122437,0.0,6000.0,-0.00253913458437,0.0110339485109,-0.00253913458437,11.6231336594,0.349065840244,0.0216827709228,0.00489058159292,0.295058995485,-0.00810733996332,-0.00810733996332,0.00860564224422,-0.0224198698997,148.494140625,148.494140625,0.686449170113,1.73976671696,2030,2033,2563,2037,2037,2899,3399,3398,3211,3332,3052,3023,3128,3119,3210,2818,3380,3387,3216,3334,3091,3323,3357,3156
1508405075012818956,154,1508405075012384111,plot_matl,0.25,-2000.0,0.215955272317,-0.00260761356913,-0.0340447239578,-68.7564926147,0.349065840244,0.0256401468068,-0.00253256643191,0.215960770845,-0.00465676188469,-0.00465676188469,-0.00251477607526,-0.00271386909299,-66.31300354,-66.31300354,-0.523942112923,95.3853607178,2011,2047,2110,2029,2029,2660,3295,3317,3118,3267,2977,2952,3033,3066,3145,2919,3368,3363,3200,3259,2907,3258,3283,2999,0.010005151,1.540026214,1.540793254,0.401425719261,4500.0,0.37470600009,-0.0094771431759,-0.02671973221,120.238792419,0.0,6000.0,-0.00252406718209,0.0107384910807,-0.00252406718209,11.8665904999,0.349065840244,0.0216827709228,0.00494240038097,0.294986069202,-0.00829824898392,-0.00829824898392,-0.00783193390816,-0.0208882242441,148.533493042,148.533493042,0.679362773895,1.65855622292,2022,2021,2563,2035,2035,2898,3402,3400,3211,3332,3052,3023,3128,3119,3210,2818,3380,3387,3216,3334,3093,3325,3356,3157
1508405075022825534,155,1508405075022383463,plot_matl,0.25,-2000.0,0.215962320566,-0.00278385845013,-0.0340376757085,-68.775894165,0.349065840244,0.0256401468068,-0.00253256643191,0.215960770845,-0.00465676188469,-0.00465676188469,-0.00251477607526,-0.00271386909299,-66.31300354,-66.31300354,-0.523942112923,95.3853607178,2005,2043,2110,2029,2029,2660,3295,3317,3118,3266,2978,2952,3032,3065,3146,2917,3371,3362,3200,3259,2907,3258,3283,2999,0.009998937,1.550025546,1.549835235,0.401425719261,4500.0,0.37335652113,-0.0344776064157,-0.0280692130327,126.311454773,0.0,6000.0,-0.00251126335934,-0.0029397374019,-0.00251126335934,15.971367836,0.349065840244,0.0216827709228,0.00494240038097,0.294986069202,-0.00829824898392,-0.00829824898392,-0.00783193390816,-0.0208882242441,148.533493042,148.533493042,0.679362773895,1.65855622292,2030,2032,2563,2035,2035,2898,3402,3400,3213,3333,3052,3023,3130,3118,3210,2817,3380,3387,3216,3334,3093,3325,3356,3157
1508405075032655397,156,1508405075032387346,plot_matl,0.25,-2000.0,0.215931683779,-0.0401369705796,-0.0340683124959,-77.7748718262,0.349065840244,0.0256401468068,-0.00253256643191,0.215960770845,-0.00465676188469,-0.00465676188469,-0.00251477607526,-0.00271386909299,-66.31300354,-66.31300354,-0.523942112923,95.3853607178,2003,2039,2111,2028,2028,2663,3295,3317,3118,3266,2978,2952,3032,3065,3146,2917,3371,3362,3200,3258,2908,3257,3284,2997,0.010002549,1.560029073,1.560397644,0.401425719261,4500.0,0.37470600009,-0.00592553056777,-0.02671973221,120.238792419,0.0,6000.0,-0.00250103487633,-0.00314212148078,-0.00250103487633,15.9565734863,0.349065840244,0.0216827709228,0.00494240038097,0.294986069202,-0.00829824898392,-0.00829824898392,-0.00783193390816,-0.0208882242441,148.533493042,148.533493042,0.679362773895,1.65855622292,2030,2028,2564,2035,2035,2899,3402,3400,3213,3333,3052,3023,3130,3118,3210,2817,3380,3387,3216,3332,3093,3324,3356,3157
1508405075042816321,157,1508405075042383827,plot_matl,0.25,-2000.0,0.215942785144,-0.0403539612889,-0.0340572223067,-77.4844589233,0.349065840244,0.0256401468068,-0.00253256643191,0.215960770845,-0.00465676188469,-0.00465676188469,-0.00251477607526,-0.00271386909299,-66.31300354,-66.31300354,-0.523942112923,95.3853607178,2019,2054,2111,2028,2028,2663,3295,3319,3118,3267,2976,2952,3033,3065,3145,2916,3371,3362,3200,3258,2908,3257,3284,2997,0.009997551,1.570026566,1.569615507,0.401425719261,4500.0,0.37470600009,-0.00584886083379,-0.02671973221,120.238792419,0.0,6000.0,-0.00249217008241,-0.00331849209033,-0.00249217008241,15.923746109,0.349065840244,0.0216827709228,0.00494240038097,0.294986069202,-0.00829824898392,-0.00829824898392,-0.00783193390816,-0.0208882242441,148.533493042,148.533493042,0.679362773895,1.65855622292,2021,2021,2564,2035,2035,2899,3400,3400,3215,3333,3052,3023,3129,3119,3209,2817,3380,3387,3216,3332,3093,3324,3356,3157
1508405075052515675,158,1508405075052361337,plot_matl,0.25,-2000.0,0.215988636017,0.034524012357,-0.0340113677084,-60.0158653259,0.349065840244,0.0256401468068,-0.00250528985634,0.215968117118,-0.00403843401,-0.00403843401,0.0103608593345,-0.00289729586802,-66.2955322266,-66.2955322266,-0.469934523106,95.3420257568,2023,2066,2110,2030,2030,2663,3295,3319,3118,3267,2976,2952,3033,3065,3145,2916,3369,3361,3197,3259,2907,3256,3283,2999,0.009974416,1.580002368,1.575957728,0.401425719261,4500.0,0.37470600009,-0.00777069153264,-0.02671973221,120.238792419,0.0,6000.0,-0.00247348519042,0.00972202885896,-0.00247348519042,12.0282497406,0.349065840244,0.0216827709228,0.0049705626443,0.29500824213,-0.0090689342469,-0.0090689342469,0.00696367677301,-0.0214641392231,148.400924683,148.400924683,0.69193148613,1.7365193367,2025,2027,2563,2035,2035,2899,3400,3400,3215,3333,3052,3023,3129,3119,3209,2817,3379,3386,3214,3332,3092,3325,3356,3156
1508405075062465689,159,1508405075062360624,plot_matl,0.25,-2000.0,0.216064915061,0.033010199666,-0.0339350812137,-59.2542381287,0.349065840244,0.0269896276295,-0.0024792610202,0.215958043933,0.00986373983324,0.00986373983324,-0.00357889803126,-0.00275661237538,-66.331741333,-66.331741333,-0.453493326902,95.3102722168,2014,2057,2110,2030,2030,2661,3293,3318,3117,3267,2977,2951,3031,3066,3145,2916,3369,3361,3197,3259,2907,3256,3283,2999,0.009998812,1.59000148,1.589811108,0.401425719261,4500.0,0.37470600009,-0.00728954933584,-0.02671973221,120.238792419,0.0,6000.0,-0.00248304149136,-0.00351507822052,-0.00248304149136,16.0518798828,0.349065840244,0.0240919683129,0.00491217290983,0.295123130083,0.0155381653458,0.0155381653458,0.00814380124211,0.0380627326667,148.506652832,148.506652832,0.808570027351,0.985302984715,2021,2027,2563,2035,2035,2899,3400,3399,3213,3334,3052,3025,3127,3119,3209,2817,3379,3386,3214,3332,3092,3325,3356,3156
1508405075072471775,160,1508405075072355580,plot_matl,0.25,-2000.0,0.216124966741,-0.00608068006113,-0.0338750332594,-69.2332077026,0.349065840244,0.0269896276295,-0.0024792610202,0.215958043933,0.00986373983324,0.00986373983324,-0.00357889803126,-0.00275661237538,-66.331741333,-66.331741333,-0.453493326902,95.3102722168,2005,2066,2110,2030,2030,2661,3293,3318,3117,3267,2977,2951,3031,3066,3145,2917,3370,3363,3198,3260,2908,3258,3283,3000,0.009994308,1.599996119,1.59908928,0.401425719261,4500.0,0.37470600009,-0.00692541804165,-0.02671973221,120.238792419,0.0,6000.0,-0.00246569304727,-0.00387111981399,-0.00246569304727,15.9634609222,0.349065840244,0.0240919683129,0.00491217290983,0.295123130083,0.0155381653458,0.0155381653458,0.00814380124211,0.0380627326667,148.506652832,148.506652832,0.808570027351,0.985302984715,2020,2033,2563,2035,2035,2899,3400,3399,3213,3334,3052,3025,3127,3119,3209,2817,3381,3387,3215,3333,3093,3325,3355,3157
1508405075082707780,161,1508405075082384554,plot_matl,0.25,-2000.0,0.216202691197,-0.00765114324167,-0.0337973162532,-69.5928115845,0.349065840244,0.0269896276295,-0.0024792610202,0.215958043933,0.00986373983324,0.00986373983324,-0.00357889803126,-0.00275661237538,-66.331741333,-66.331741333,-0.453493326902,95.3102722168,2013,2076,2110,2030,2030,2663,3295,3319,3119,3267,2977,2952,3031,3066,3145,2917,3370,3363,3198,3260,2908,3258,3283,3000,0.010032692,1.610026998,1.615263412,0.401425719261,4500.0,0.37470600009,-0.00709790084511,-0.02671973221,120.238792419,0.0,6000.0,-0.00250083231367,-0.00316326040775,-0.00250083231367,16.030664444,0.349065840244,0.0240919683129,0.00491217290983,0.295123130083,0.0155381653458,0.0155381653458,0.00814380124211,0.0380627326667,148.506652832,148.506652832,0.808570027351,0.985302984715,2019,2030,2563,2037,2037,2899,3402,3399,3212,3334,3051,3024,3127,3119,3209,2817,3381,3387,3215,3333,3093,3325,3355,3157
1508405075092609727,162,1508405075092363506,plot_matl,0.25,-2000.0,0.216271817684,-0.00904889963567,-0.0337281860411,-69.7271194458,0.349065840244,0.0256401468068,-0.00248853722587,0.216251522303,-0.00376785313711,-0.00376785313711,-0.00341656222008,0.0292902719229,-66.0448455811,-66.0448455811,-0.562491953373,95.2945861816,2013,2076,2110,2030,2030,2663,3295,3319,3119,3267,2977,2952,3031,3066,3145,2917,3370,3363,3198,3260,2908,3258,3283,3000,0.009975872,1.620004718,1.616091264,0.401425719261,4500.0,0.37470600009,-0.00722910510376,-0.02671973221,120.238792419,0.0,6000.0,-0.00249542645179,-0.00327755464241,-0.00249542645179,15.9936676025,0.349065840244,0.0216827709228,0.00494461134076,0.295161634684,-0.00857942737639,-0.00857942737639,-0.00783261936158,0.0373078472912,148.734542847,148.734542847,0.592458844185,1.05475008488,2019,2030,2563,2037,2037,2899,3402,3399,3212,3334,3051,3024,3127,3119,3209,2817,3381,3387,3215,3333,3093,3325,3355,3157
1508405075102796866,163,1508405075102373827,plot_matl,0.25,-2000.0,0.216294705868,-0.00952517427504,-0.0337052978575,-69.7149963379,0.349065840244,0.0256401468068,-0.00248853722587,0.216251522303,-0.00376785313711,-0.00376785313711,-0.00341656222008,0.0292902719229,-66.0448455811,-66.0448455811,-0.562491953373,95.2945861816,2017,2059,2110,2028,2028,2660,3295,3316,3120,3267,2977,2952,3032,3065,3143,2918,3370,3362,3200,3260,2909,3256,3284,3000,0.010011356,1.63001557,1.631851028,0.401425719261,4500.0,0.37605547905,0.0188062619418,-0.0253702495247,114.166122437,0.0,6000.0,-0.00248768599704,-0.00342543446459,-0.00248768599704,15.9593610764,0.349065840244,0.0216827709228,0.00494461134076,0.295161634684,-0.00857942737639,-0.00857942737639,-0.00783261936158,0.0373078472912,148.734542847,148.734542847,0.592458844185,1.05475008488,2026,2031,2563,2037,2037,2899,3401,3400,3211,3333,3051,3024,3129,3117,3209,2819,3381,3388,3214,3333,3094,3324,3356,3157
1508405075112644675,164,1508405075112373290,plot_matl,0.25,-2000.0,0.216340407729,-0.0104672256857,-0.0336595959961,-69.9373092651,0.349065840244,0.0256401468068,-0.00248853722587,0.216251522303,-0.00376785313711,-0.00376785313711,-0.00341656222008,0.0292902719229,-66.0448455811,-66.0448455811,-0.562491953373,95.2945861816,2021,2052,2110,2028,2028,2660,3295,3316,3120,3267,2978,2953,3032,3066,3145,2918,3368,3363,3199,3258,2909,3256,3284,3000,0.009998556,1.640014687,1.639763184,0.401425719261,4500.0,0.37470600009,-0.00845491886139,-0.02671973221,120.238792419,0.0,6000.0,-0.00250833458267,-0.00302843586542,-0.00250833458267,15.9908466339,0.349065840244,0.0216827709228,0.00494461134076,0.295161634684,-0.00857942737639,-0.00857942737639,-0.00783261936158,0.0373078472912,148.734542847,148.734542847,0.592458844185,1.05475008488,2026,2025,2563,2037,2037,2899,3401,3400,3211,3333,3050,3023,3128,3119,3211,2819,3382,3387,3214,3333,3094,3324,3356,3157
1508405075122764215,165,1508405075122375801,plot_matl,0.25,-2000.0,0.216376543045,-0.0112430723384,-0.033623456955,-69.9462356567,0.349065840244,0.0256401468068,-0.00248853722587,0.216251522303,-0.00376785313711,-0.00376785313711,-0.00341656222008,0.0292902719229,-66.0448455811,-66.0448455811,-0.562491953373,95.2945861816,2027,2062,2110,2029,2029,2661,3295,3317,3120,3267,2978,2953,3032,3066,3145,2918,3368,3363,3199,3258,2908,3255,3284,2999,0.010002379,1.650017404,1.650392535,0.401425719261,4500.0,0.37470600009,-0.00894463248551,-0.02671973221,120.238792419,0.0,6000.0,-0.00250833458267,-0.00302843586542,-0.00250833458267,15.9908466339,0.349065840244,0.0216827709228,0.00494461134076,0.295161634684,-0.00857942737639,-0.00857942737639,-0.00783261936158,0.0373078472912,148.734542847,148.734542847,0.592458844185,1.05475008488,2027,2026,2563,2036,2036,2900,3402,3398,3211,3333,3050,3023,3128,3119,3211,2819,3382,3387,3214,3333,3091,3325,3354,3157
1508405075132810915,166,1508405075132389043,plot_matl,0.25,-2000.0,0.216380387545,0.0266337953508,-0.0336196161807,-60.8610191345,0.349065840244,0.0256401468068,-0.00253145513125,0.216364577413,-0.00454457104206,-0.00454457104206,-0.00256145582534,-0.0109568508342,-66.043258667,-66.043258667,-0.542933106422,95.0871124268,1998,2048,2110,2029,2029,2661,3295,3317,3120,3266,2975,2953,3033,3065,3144,2917,3370,3364,3199,3258,2908,3255,3284,2999,0.010015399,1.660031838,1.662556234,0.401425719261,4500.0,0.37470600009,-0.00873306859285,-0.02671973221,120.238792419,0.0,6000.0,-0.00252352352254,-0.00272140908055,-0.00252352352254,15.9546375275,0.349065840244,0.0240919683129,0.00492571946234,0.295337289572,0.0152851846069,0.0152851846069,-0.00745286839083,-0.0280738789588,148.843154907,148.843154907,0.294737160206,0.697898387909,2020,2025,2563,2036,2036,2900,3402,3398,3212,3332,3053,3024,3129,3119,3211,2819,3380,3387,3214,3333,3091,3325,3354,3157
1508405075142841337,167,1508405075142389699,plot_matl,0.25,-2000.0,0.21648915112,0.0244325269014,-0.0335108488798,-61.3071517944,0.349065840244,0.0256401468068,-0.00253145513125,0.216364577413,-0.00454457104206,-0.00454457104206,-0.00256145582534,-0.0109568508342,-66.043258667,-66.043258667,-0.542933106422,95.0871124268,1993,2045,2110,2030,2030,2663,3295,3317,3120,3266,2975,2953,3033,3065,3144,2917,3370,3364,3198,3258,2908,3259,3283,2999,0.009999067,1.670031787,1.669844189,0.401425719261,4500.0,0.37470600009,-0.00859811715782,-0.02671973221,120.238792419,0.0,6000.0,-0.00247688661329,-0.00366150750779,-0.00247688661329,15.9316167831,0.349065840244,0.0240919683129,0.00492571946234,0.295337289572,0.0152851846069,0.0152851846069,-0.00745286839083,-0.0280738789588,148.843154907,148.843154907,0.294737160206,0.697898387909,2019,2026,2562,2036,2036,2899,3402,3398,3212,3332,3053,3024,3129,3119,3211,2819,3380,3387,3214,3334,3093,3324,3355,3155
1508405075152853965,168,1508405075152397997,plot_matl,0.25,-2000.0,0.216464698315,-0.0130273094401,-0.0335353091359,-69.8699951172,0.349065840244,0.0256401468068,-0.00253145513125,0.216364577413,-0.00454457104206,-0.00454457104206,-0.00256145582534,-0.0109568508342,-66.043258667,-66.043258667,-0.542933106422,95.0871124268,2017,2060,2110,2030,2030,2663,3294,3319,3119,3268,2978,2952,3031,3066,3146,2919,3370,3364,3198,3258,2908,3259,3283,2999,0.010008042,1.680040321,1.681351056,0.401425719261,4500.0,0.37470600009,-0.00901728309691,-0.02671973221,120.238792419,0.0,6000.0,-0.00248424662277,-0.00348653341644,-0.00248424662277,15.8482351303,0.349065840244,0.0240919683129,0.00492571946234,0.295337289572,0.0152851846069,0.0152851846069,-0.00745286839083,-0.0280738789588,148.843154907,148.843154907,0.294737160206,0.697898387909,2029,2025,2562,2036,2036,2899,3400,3399,3212,3335,3051,3025,3127,3118,3211,2818,3380,3387,3214,3334,3093,3324,3355,3155
1508405075162793733,169,1508405075162391546,plot_matl,0.25,-2000.0,0.216484412551,-0.0134325595573,-0.0335155837238,-70.3160018921,0.349065840244,0.0256401468068,-0.00253145513125,0.216364577413,-0.00454457104206,-0.00454457104206,-0.00256145582534,-0.0109568508342,-66.043258667,-66.043258667,-0.542933106422,95.0871124268,2023,2060,2109,2030,2030,2663,3294,3319,3119,3268,2978,2952,3031,3066,3146,2919,3372,3361,3200,3259,2909,3257,3286,2997,0.009994236,1.690034256,1.689025884,0.401425719261,4500.0,0.37470600009,-0.00835496094078,-0.02671973221,120.238792419,0.0,6000.0,-0.00247716344893,0.0097888642922,-0.00247716344893,11.8720550537,0.349065840244,0.0240919683129,0.00492571946234,0.295337289572,0.0152851846069,0.0152851846069,-0.00745286839083,-0.0280738789588,148.843154907,148.843154907,0.294737160206,0.697898387909,2024,2024,2563,2034,2034,2899,3400,3399,3212,3335,3051,3025,3127,3118,3211,2818,3381,3386,3214,3333,3093,3325,3355,3156
1508405075172633497,170,1508405075172366287,plot_matl,0.25,-2000.0,0.216426998377,-0.0122545501217,-0.0335730016232,-69.7759857178,0.349065840244,0.0269896276295,-0.00249203946441,0.216451272368,0.00955488719046,0.00955488719046,-0.00335128139704,-0.0127449641004,-65.9238586426,-65.9238586426,-0.514634072781,95.1984786987,2017,2046,2109,2030,2030,2664,3296,3318,3120,3266,2977,2952,3033,3066,3146,2919,3372,3361,3200,3259,2909,3257,3286,2997,0.009971705,1.700007739,1.69518985,0.401425719261,4500.0,0.37605547905,0.0188939981163,-0.0253702495247,114.166122437,0.0,6000.0,-0.00248663173988,0.00994874536991,-0.00248663173988,12.2471981049,0.349065840244,0.0192735753953,0.00492371851578,0.295235127211,-0.0312402322888,-0.0312402322888,0.00797133427113,-0.0261067636311,148.264694214,148.264694214,0.446528941393,0.0836502686143,2032,2028,2563,2034,2034,2898,3402,3398,3213,3332,3050,3023,3130,3119,3211,2818,3381,3386,3214,3333,3093,3325,3355,3156
1508405075182744223,171,1508405075182375282,plot_matl,0.25,-2000.0,0.216424018145,-0.0121578332037,-0.0335759818554,-70.0055541992,0.349065840244,0.0269896276295,-0.00249203946441,0.216451272368,0.00955488719046,0.00955488719046,-0.00335128139704,-0.0127449641004,-65.9238586426,-65.9238586426,-0.514634072781,95.1984786987,2028,2062,2109,2030,2030,2664,3296,3318,3120,3266,2977,2952,3033,3066,3144,2917,3368,3363,3200,3259,2907,3258,3282,3001,0.010008567,1.710016754,1.711464957,0.401425719261,4500.0,0.37605547905,0.0173348635435,-0.0253702495247,114.166122437,0.0,6000.0,-0.0024949265644,-0.0033072324004,-0.0024949265644,15.9322166443,0.349065840244,0.0192735753953,0.00492371851578,0.295235127211,-0.0312402322888,-0.0312402322888,0.00797133427113,-0.0261067636311,148.264694214,148.264694214,0.446528941393,0.0836502686143,2031,2027,2563,2034,2034,2898,3402,3398,3213,3332,3050,3023,3130,3119,3210,2818,3380,3387,3215,3334,3093,3325,3355,3156
1508405075192871717,172,1508405075192379390,plot_matl,0.25,-2000.0,0.216384321451,-0.0113535122946,-0.0336156785488,-69.9275970459,0.349065840244,0.0269896276295,-0.00249203946441,0.216451272368,0.00955488719046,0.00955488719046,-0.00335128139704,-0.0127449641004,-65.9238586426,-65.9238586426,-0.514634072781,95.1984786987,2025,2070,2109,2030,2030,2664,3294,3317,3121,3267,2978,2952,3033,3066,3144,2917,3368,3363,3200,3259,2907,3258,3282,3001,0.010005401,1.720021724,1.720928972,0.401425719261,4500.0,0.37470600009,-0.00953341834247,-0.02671973221,120.238792419,0.0,6000.0,-0.00249934662133,-0.0031965340022,-0.00249934662133,15.9432592392,0.349065840244,0.0192735753953,0.00492371851578,0.295235127211,-0.0312402322888,-0.0312402322888,0.00797133427113,-0.0261067636311,148.264694214,148.264694214,0.446528941393,0.0836502686143,2021,2027,2564,2036,2036,2900,3401,3398,3213,3334,3052,3024,3130,3119,3210,2818,3380,3387,3215,3334,3093,3325,3355,3156
1508405075202766846,173,1508405075202430435,plot_matl,0.25,-2000.0,0.216381728649,-0.0113202445209,-0.0336182713509,-69.958404541,0.349065840244,0.0269896276295,-0.00249203946441,0.216451272368,0.00955488719046,0.00955488719046,-0.00335128139704,-0.0127449641004,-65.9238586426,-65.9238586426,-0.514634072781,95.1984786987,2016,2060,2109,2030,2030,2664,3294,3317,3121,3267,2978,2952,3033,3064,3146,2916,3370,3361,3199,3257,2909,3259,3282,3001,0.010050708,1.730072879,1.738772484,0.401425719261,4500.0,0.37470600009,-0.00782646331936,-0.02671973221,120.238792419,0.0,6000.0,-0.00248155766167,0.00984350871295,-0.00248155766167,11.9311084747,0.349065840244,0.0192735753953,0.00492371851578,0.295235127211,-0.0312402322888,-0.0312402322888,0.00797133427113,-0.0261067636311,148.264694214,148.264694214,0.446528941393,0.0836502686143,2021,2030,2564,2036,2036,2900,3401,3398,3213,3334,3052,3024,3127,3120,3210,2818,3380,3387,3214,3334,3093,3325,3355,3156
1508405075212778126,174,1508405075212401320,plot_matl,0.25,-2000.0,0.21638160944,-0.0113547425717,-0.0336183868349,-70.0656051636,0.349065840244,0.0256401468068,-0.00246966606937,0.216366961598,-0.00333443609998,-0.00333443609998,0.00962064042687,0.0268676076084,-65.8825683594,-65.8825683594,-0.239367976785,95.1633605957,2031,2075,2110,2032,2032,2663,3296,3318,3120,3266,2978,2952,3033,3064,3146,2916,3370,3361,3199,3257,2909,3259,3285,2998,0.009969583,1.740043061,1.734707442,0.401425719261,4500.0,0.37470600009,-0.00640187319368,-0.02671973221,120.238792419,0.0,6000.0,-0.00245059770532,0.00923546217382,-0.00245059770532,11.8234939575,0.349065840244,0.0216827709228,0.00498158484697,0.295409351587,-0.00783571414649,-0.00783571414649,0.00677099497989,-0.0295077338815,148.622543335,148.622543335,0.0440586693585,0.150460332632,2028,2035,2564,2034,2034,2899,3401,3399,3212,3331,3052,3024,3127,3120,3210,2818,3380,3387,3214,3334,3093,3325,3357,3156
1508405075222641902,175,1508405075222376274,plot_matl,0.25,-2000.0,0.216382190585,-0.049330085516,-0.0336178094149,-77.1505203247,0.349065840244,0.0256401468068,-0.00246966606937,0.216366961598,-0.00333443609998,-0.00333443609998,0.00962064042687,0.0268676076084,-65.8825683594,-65.8825683594,-0.239367976785,95.1633605957,2049,2080,2110,2032,2032,2663,3296,3318,3120,3266,2977,2953,3031,3063,3144,2916,3370,3364,3197,3260,2909,3259,3285,2998,0.009974328,1.750017857,1.7455074,0.401425719261,4500.0,0.37470600009,-0.00530459918082,-0.02671973221,120.238792419,0.0,6000.0,-0.0024273802992,-0.00467817438766,-0.0024273802992,15.7356491089,0.349065840244,0.0216827709228,0.00498158484697,0.295409351587,-0.00783571414649,-0.00783571414649,0.00677099497989,-0.0295077338815,148.622543335,148.622543335,0.0440586693585,0.150460332632,2021,2021,2564,2034,2034,2899,3401,3399,3212,3331,3051,3024,3130,3119,3210,2818,3381,3387,3214,3332,3093,3325,3357,3156
1508405075232744458,176,1508405075232375542,plot_matl,0.25,-2000.0,0.216418847442,-0.0121645936742,-0.0335811562836,-69.9998245239,0.349065840244,0.0256401468068,-0.00246966606937,0.216366961598,-0.00333443609998,-0.00333443609998,0.00962064042687,0.0268676076084,-65.8825683594,-65.8825683594,-0.239367976785,95.1633605957,2049,2080,2110,2032,2032,2663,3296,3318,3120,3266,2977,2953,3031,3063,3144,2916,3370,3364,3197,3260,2909,3259,3285,2998,0.00999821,1.760016828,1.75968496,0.401425719261,4500.0,0.37605547905,0.0228152293712,-0.0253702495247,114.166122437,0.0,6000.0,-0.00242206919938,-0.00479560345411,-0.00242206919938,15.9296569824,0.349065840244,0.0216827709228,0.00498158484697,0.295409351587,-0.00783571414649,-0.00783571414649,0.00677099497989,-0.0295077338815,148.622543335,148.622543335,0.0440586693585,0.150460332632,2021,2021,2564,2034,2034,2899,3401,3399,3212,3331,3051,3024,3130,3119,3210,2818,3381,3387,3214,3332,3093,3325,3357,3156
1508405075242590337,177,1508405075242363121,plot_matl,0.25,-2000.0,0.216379016638,-0.0113249691203,-0.0336209796369,-69.8717880249,0.349065840244,0.0256401468068,-0.00246966606937,0.216366961598,-0.00333443609998,-0.00333443609998,0.00962064042687,0.0268676076084,-65.8825683594,-65.8825683594,-0.239367976785,95.1633605957,2025,2060,2110,2033,2033,2661,3295,3317,3120,3269,2979,2951,3032,3065,3145,2916,3369,3362,3197,3260,2908,3258,3282,3000,0.009986522,1.770004249,1.767614394,0.401425719261,4500.0,0.37470600009,-0.0041960501112,-0.02671973221,120.238792419,0.0,6000.0,-0.00244073569775,-0.00440414808691,-0.00244073569775,15.9218587875,0.349065840244,0.0216827709228,0.00498158484697,0.295409351587,-0.00783571414649,-0.00783571414649,0.00677099497989,-0.0295077338815,148.622543335,148.622543335,0.0440586693585,0.150460332632,2027,2026,2563,2035,2035,2898,3403,3398,3213,3332,3050,3024,3127,3119,3210,2817,3381,3386,3214,3332,3092,3325,3355,3157
1508405075252758323,178,1508405075252375655,plot_matl,0.25,-2000.0,0.216414287686,-0.0120007107034,-0.0335857123137,-70.0220184326,0.349065840244,0.0256401468068,-0.00246053026058,0.216399461031,-0.00176334218122,-0.00176334218122,-0.00400133756921,-0.0117202596739,-66.5700454712,-66.5700454712,-0.0588358044624,95.2157211304,2018,2050,2109,2032,2032,2661,3295,3317,3120,3269,2979,2951,3032,3065,3145,2916,3369,3362,3197,3259,2905,3256,3282,2998,0.010013618,1.780017287,1.782424004,0.401425719261,4500.0,0.37470600009,-0.0033863754943,-0.02671973221,120.238792419,0.0,6000.0,-0.00246838107705,-0.00384214497171,-0.00246838107705,15.9469184875,0.349065840244,0.0216827709228,0.00495837442577,0.295288652182,-0.00872376561165,-0.00872376561165,-0.00810845848173,0.0348671488464,148.737228394,148.737228394,0.141375496984,0.661653935909,2026,2025,2563,2034,2034,2899,3403,3398,3213,3332,3050,3024,3127,3119,3210,2817,3381,3386,3214,3334,3090,3324,3357,3158
1508405075262830039,179,1508405075262376661,plot_matl,0.25,-2000.0,0.216437742114,-0.0124686677009,-0.0335622616112,-70.0847625732,0.349065840244,0.0256401468068,-0.00246053026058,0.216399461031,-0.00176334218122,-0.00176334218122,-0.00400133756921,-0.0117202596739,-66.5700454712,-66.5700454712,-0.0588358044624,95.2157211304,2006,2054,2109,2032,2032,2661,3294,3319,3119,3267,2976,2951,3033,3064,3145,2916,3369,3362,3197,3259,2905,3256,3282,2998,0.010000049,1.790017918,1.790008771,0.401425719261,4500.0,0.37605547905,0.0258859973401,-0.0253702495247,114.166122437,0.0,6000.0,-0.00247834040783,-0.00363722397014,-0.00247834040783,15.9458837509,0.349065840244,0.0216827709228,0.00495837442577,0.295288652182,-0.00872376561165,-0.00872376561165,-0.00810845848173,0.0348671488464,148.737228394,148.737228394,0.141375496984,0.661653935909,2027,2030,2563,2034,2034,2899,3401,3399,3210,3334,3051,3024,3129,3118,3211,2819,3381,3386,3214,3334,3090,3324,3357,3158
1508405075272796872,180,1508405075272392150,plot_matl,0.25,-2000.0,0.216494709253,-0.0136132277548,-0.0335052907467,-70.2935638428,0.349065840244,0.0256401468068,-0.00246053026058,0.216399461031,-0.00176334218122,-0.00176334218122,-0.00400133756921,-0.0117202596739,-66.5700454712,-66.5700454712,-0.0588358044624,95.2157211304,1988,2054,2110,2034,2034,2661,3294,3319,3119,3267,2976,2951,3033,3064,3145,2916,3369,3361,3200,3259,2908,3257,3283,2998,0.010016662,1.800034358,1.80299916,0.401425719261,4500.0,0.37470600009,-0.000632825715002,-0.02671973221,120.238792419,0.0,6000.0,-0.00246078241616,0.0094267623499,-0.00246078241616,11.9207582474,0.349065840244,0.0216827709228,0.00495837442577,0.295288652182,-0.00872376561165,-0.00872376561165,-0.00810845848173,0.0348671488464,148.737228394,148.737228394,0.141375496984,0.661653935909,2020,2040,2563,2037,2037,2899,3401,3399,3210,3334,3051,3024,3129,3118,3211,2819,3380,3388,3215,3334,3094,3324,3357,3157
1508405075282783115,181,1508405075282390460,plot_matl,0.25,-2000.0,0.216436892748,-0.0503577850759,-0.0335631109774,-78.6288452148,0.349065840244,0.0256401468068,-0.00246053026058,0.216399461031,-0.00176334218122,-0.00176334218122,-0.00400133756921,-0.0117202596739,-66.5700454712,-66.5700454712,-0.0588358044624,95.2157211304,1992,2036,2110,2034,2034,2662,3294,3319,3119,3267,2978,2951,3034,3064,3145,2916,3369,3361,3200,3259,2908,3257,3283,2998,0.009998806,1.810033325,1.809783886,0.401425719261,4500.0,0.37605547905,0.0267228148878,-0.0253702495247,114.166122437,0.0,6000.0,-0.00245926133357,0.00940631330013,-0.00245926133357,12.0690374374,0.349065840244,0.0216827709228,0.00495837442577,0.295288652182,-0.00872376561165,-0.00872376561165,-0.00810845848173,0.0348671488464,148.737228394,148.737228394,0.141375496984,0.661653935909,2023,2032,2563,2037,2037,2899,3403,3399,3213,3333,3051,3023,3129,3118,3211,2819,3380,3388,3215,3334,3094,3324,3357,3157
1508405075292741730,182,1508405075292385046,plot_matl,0.25,-2000.0,0.216469466686,0.0248222723603,-0.033530537039,-61.1043739319,0.349065840244,0.0256401468068,-0.00244050379843,0.216419294477,2.62057419604e-05,2.62057419604e-05,-0.00438729906455,0.0258368141949,-66.0284957886,-66.0284957886,0.0606795325875,95.6316146851,2005,2034,2110,2034,2034,2662,3294,3319,3119,3267,2978,2951,3034,3064,3145,2918,3369,3361,3201,3258,2907,3257,3284,2998,0.009993174,1.82002707,1.818757668,0.401425719261,4500.0,0.37470600009,5.035342474e-05,-0.02671973221,120.238792419,0.0,6000.0,-0.00244903890416,-0.00421502161771,-0.00244903890416,15.9609107971,0.349065840244,0.0240919683129,0.00494694709778,0.29572057724,0.0166912712157,0.0166912712157,-0.00786621961743,0.0262118969113,148.633605957,148.633605957,0.033054780215,1.33821845055,2026,2027,2563,2037,2037,2899,3403,3399,3213,3333,3051,3023,3129,3118,3211,2818,3380,3386,3214,3333,3091,3325,3356,3155
1508405075302774764,183,1508405075302377067,plot_matl,0.25,-2000.0,0.216418430209,0.025814794004,-0.0335815660655,-61.1841278076,0.349065840244,0.0256401468068,-0.00244050379843,0.216419294477,2.62057419604e-05,2.62057419604e-05,-0.00438729906455,0.0258368141949,-66.0284957886,-66.0284957886,0.0606795325875,95.6316146851,2008,2030,2110,2031,2031,2663,3294,3318,3121,3267,2978,2952,3034,3064,3145,2918,3369,3361,3201,3258,2907,3257,3284,2998,0.009990563,1.830018795,1.828273029,0.401425719261,4500.0,0.37605547905,0.0272767487913,-0.0253702495247,114.166122437,0.0,6000.0,-0.0024756162893,-0.00367275322787,-0.0024756162893,15.9190139771,0.349065840244,0.0240919683129,0.00494694709778,0.29572057724,0.0166912712157,0.0166912712157,-0.00786621961743,0.0262118969113,148.633605957,148.633605957,0.033054780215,1.33821845055,2031,2023,2563,2035,2035,2898,3400,3398,3212,3332,3050,3025,3129,3118,3211,2818,3380,3386,3214,3333,3091,3325,3356,3155
1508405075312818405,184,1508405075312398079,plot_matl,0.25,-2000.0,0.216377526522,-0.0112676620483,-0.0336224772036,-69.9106521606,0.349065840244,0.0256401468068,-0.00244050379843,0.216419294477,2.62057419604e-05,2.62057419604e-05,-0.00438729906455,0.0258368141949,-66.0284957886,-66.0284957886,0.0606795325875,95.6316146851,2007,2038,2110,2031,2031,2663,3294,3318,3121,3267,2978,2952,3033,3066,3145,2917,3369,3363,3196,3258,2907,3259,3284,2998,0.010020766,1.840039691,1.843820944,0.401425719261,4500.0,0.37470600009,0.000456247013062,-0.02671973221,120.238792419,0.0,6000.0,-0.0024724311661,-0.00373725104146,-0.0024724311661,15.9434070587,0.349065840244,0.0240919683129,0.00494694709778,0.29572057724,0.0166912712157,0.0166912712157,-0.00786621961743,0.0262118969113,148.633605957,148.633605957,0.033054780215,1.33821845055,2024,2025,2563,2035,2035,2898,3400,3398,3212,3332,3050,3025,3131,3117,3211,2818,3381,3385,3214,3334,3095,3326,3356,3155
1508405075322528887,185,1508405075322375818,plot_matl,0.25,-2000.0,0.216483399272,0.0245219487697,-0.033516600728,-61.1129455566,0.349065840244,0.0256401468068,-0.00244050379843,0.216419294477,2.62057419604e-05,2.62057419604e-05,-0.00438729906455,0.0258368141949,-66.0284957886,-66.0284957886,0.0606795325875,95.6316146851,2007,2038,2110,2031,2031,2663,3294,3318,3121,3267,2978,2952,3033,3066,3145,2917,3369,3363,3196,3258,2907,3259,3284,2998,0.009976143,1.850016599,1.845586455,0.401425719261,4500.0,0.37470600009,0.0013587285066,-0.02671973221,120.238792419,0.0,6000.0,-0.0024724311661,-0.00373725104146,-0.0024724311661,15.9434070587,0.349065840244,0.0240919683129,0.00494694709778,0.29572057724,0.0166912712157,0.0166912712157,-0.00786621961743,0.0262118969113,148.633605957,148.633605957,0.033054780215,1.33821845055,2024,2025,2563,2035,2035,2898,3400,3398,3212,3332,3050,3025,3131,3117,3211,2818,3381,3385,3214,3334,3095,3326,3356,3155
1508405075332659730,186,1508405075332377881,plot_matl,0.25,-2000.0,0.216468304396,0.0248304754496,-0.0335316993296,-61.1311798096,0.349065840244,0.0256401468068,-0.00249419431202,0.216418191791,0.000820420333184,0.000820420333184,-0.00328934704885,-0.0120697105303,-65.549659729,-65.549659729,-0.375419467688,95.5637969971,2044,2077,2110,2033,2033,2665,3297,3320,3120,3266,2977,2953,3035,3064,3145,2916,3370,3362,3198,3258,2907,3259,3282,3000,0.01000303,1.860019438,1.86056358,0.401425719261,4500.0,0.37470600009,0.00157653691713,-0.02671973221,120.238792419,0.0,6000.0,-0.00248767179437,-0.00342083722353,-0.00248767179437,15.9531526566,0.349065840244,0.0216827709228,0.00492135435343,0.295888394117,-0.00688539119437,-0.00688539119437,0.00798673182726,0.0227789152414,148.351028442,148.351028442,0.135753214359,0.790883541107,2032,2029,2563,2035,2035,2899,3400,3401,3214,3334,3052,3024,3128,3119,3210,2817,3382,3387,3213,3333,3095,3326,3355,3157
1508405075342647686,187,1508405075342368428,plot_matl,0.25,-2000.0,0.21641805768,-0.0120786475018,-0.0335819497705,-70.0590591431,0.349065840244,0.0256401468068,-0.00249419431202,0.216418191791,0.000820420333184,0.000820420333184,-0.00328934704885,-0.0120697105303,-65.549659729,-65.549659729,-0.375419467688,95.5637969971,2045,2075,2110,2032,2032,2667,3294,3317,3120,3266,2977,2953,3035,3064,3145,2916,3370,3362,3198,3258,2906,3257,3284,2998,0.00998937,1.87000965,1.86801219,0.401425719261,4500.0,0.37470600009,0.00175141612999,-0.02671973221,120.238792419,0.0,6000.0,-0.00248223287053,-0.00352792302147,-0.00248223287053,15.9566755295,0.349065840244,0.0216827709228,0.00492135435343,0.295888394117,-0.00688539119437,-0.00688539119437,0.00798673182726,0.0227789152414,148.351028442,148.351028442,0.135753214359,0.790883541107,2024,2025,2564,2037,2037,2899,3400,3400,3214,3334,3052,3024,3128,3119,3210,2817,3382,3387,3213,3333,3094,3324,3357,3155
