%time,field.header.seq,field.header.stamp,field.header.frame_id,field.FFJ4_set_point,field.FFJ4_position_gain,field.FFJ4_process_value,field.FFJ4_process_value_dot,field.FFJ4_error,field.FFJ4_command,field.FFJ1,field.FFJ2,field.FFJ3,field.FFJ4,field.FFJ1_dot,field.FFJ2_dot,field.FFJ3_dot,field.FFJ4_dot,field.FFJ1_tao,field.FFJ2_tao,field.FFJ3_tao,field.FFJ4_tao,field.pac0,field.pac1,field.pdc0,field.tac0,field.tdc0,field.el0,field.el1,field.el2,field.el3,field.el4,field.el5,field.el6,field.el7,field.el8,field.el9,field.el10,field.el11,field.el12,field.el13,field.el14,field.el15,field.el16,field.el17,field.el18,field.dt,field.time,field.test_time2,field.FFJ0_set_point,field.FFJ0_position_gain,field.FFJ0_process_value,field.FFJ0_process_value_dot,field.FFJ0_error,field.FFJ0_command,field.FFJ3_set_point,field.FFJ3_position_gain,field.FFJ3_process_value,field.FFJ3_process_value_dot,field.FFJ3_error,field.FFJ3_command,field.MFJ1,field.MFJ2,field.MFJ3,field.MFJ4,field.MFJ1_dot,field.MFJ2_dot,field.MFJ3_dot,field.MFJ4_dot,field.MFJ1_tao,field.MFJ2_tao,field.MFJ3_tao,field.MFJ4_tao,field.Mpac0,field.Mpac1,field.Mpdc0,field.Mtac0,field.Mtdc0,field.Mel0,field.Mel1,field.Mel2,field.Mel3,field.Mel4,field.Mel5,field.Mel6,field.Mel7,field.Mel8,field.Mel9,field.Mel10,field.Mel11,field.Mel12,field.Mel13,field.Mel14,field.Mel15,field.Mel16,field.Mel17,field.Mel18
1508405199471631107,103,1508405199470857994,plot_matl,0.25,-4000.0,0.232291191816,0.00770614622161,-0.0177088081837,-68.7712631226,0.349065840244,0.0283391084522,-0.00100149051286,0.232335954905,0.00374375912361,0.00374375912361,0.00685609970242,0.00675492035225,-68.4569244385,-68.4569244385,0.140312165022,86.2946166992,2000,2057,2112,2033,2033,2710,3311,3333,3138,3280,2993,2958,3045,3068,3154,2901,3369,3365,3198,3263,2910,3266,3292,3007,0.010014527,1.030064205,1.031496281,0.401425719261,4500.0,0.37605547905,-0.0187714826316,-0.0253702495247,114.166122437,0.0,6000.0,-0.000999780138955,0.00683978712186,0.0,0.0,0.349065840244,0.0216827709228,0.00457501178607,0.295520484447,0.00214259512722,0.00214259512722,-6.43877283437e-05,-0.0316794030368,150.270675659,150.270675659,-0.280399590731,0.503478825092,2020,2030,2559,2032,2032,2900,3403,3402,3213,3336,3054,3025,3130,3121,3211,2820,3383,3391,3221,3337,3099,3326,3358,3160
1508405199481059506,104,1508405199480790167,plot_matl,0.25,-4000.0,0.232299700379,0.00767293944955,-0.0177003070712,-68.7565460205,0.349065840244,0.0269896276295,-0.00101215019822,0.23226569593,-0.00932940188795,-0.00932940188795,-0.00634960038587,0.00830786675215,-68.5206069946,-68.5206069946,-0.0434233509004,86.2144241333,2007,2054,2113,2032,2032,2711,3312,3331,3137,3280,2995,2956,3045,3068,3154,2901,3369,3365,3198,3263,2910,3266,3292,3007,0.009929639,1.039995336,1.032682456,0.401425719261,4500.0,0.37605547905,-0.0182450991124,-0.0253702495247,114.166122437,0.0,6000.0,-0.00101072376128,-0.00638631638139,0.0,0.0,0.349065840244,0.0216827709228,0.00457182945684,0.295629918575,0.00129342731088,0.00129342731088,-5.27300544491e-05,0.0278603024781,150.221679688,150.221679688,-0.0609225966036,0.452308475971,2027,2029,2560,2033,2033,2899,3401,3403,3213,3334,3053,3025,3130,3121,3211,2820,3383,3391,3221,3337,3099,3326,3358,3160
1508405199491165236,105,1508405199490794248,plot_matl,0.25,-4000.0,0.232333496213,0.00711474195123,-0.017666509375,-70.6660385132,0.349065840244,0.0283391084522,-0.00102309149224,0.232309937477,0.00397624168545,0.00397624168545,-0.00614082068205,0.00755923660472,-68.3977127075,-68.3977127075,-0.0361385904253,86.2624206543,2027,2052,2113,2032,2032,2711,3312,3331,3137,3280,2995,2956,3043,3067,3153,2900,3370,3361,3198,3262,2910,3264,3292,3007,0.010004542,1.049999957,1.05047691,0.401425719261,4500.0,0.37605547905,-0.0192131958902,-0.0253702495247,114.166122437,0.0,6000.0,-0.00100200378802,0.00684710545465,0.0,0.0,0.349065840244,0.0216827709228,0.00456922221929,0.295648336411,0.00150950346142,0.00150950346142,-4.31785192632e-05,-0.0343683212996,150.181518555,150.181518555,-0.140726834536,0.652990341187,2033,2025,2560,2033,2033,2899,3401,3403,3213,3334,3053,3025,3129,3120,3212,2819,3383,3389,3221,3337,3100,3326,3358,3160
1508405199501228932,106,1508405199500803588,plot_matl,0.25,-4000.0,0.232368931174,0.0064639672637,-0.017631072551,-68.9162826538,0.349065840244,0.0269896276295,-0.00104444683529,0.232382446527,-0.00861873757094,-0.00861873757094,-0.00583252916113,0.00619107624516,-67.9385757446,-67.9385757446,0.155342012644,86.0475921631,2026,2053,2112,2033,2033,2711,3313,3332,3141,3279,2992,2956,3043,3067,3153,2900,3370,3361,3198,3262,2910,3264,3292,3009,0.01000949,1.060009277,1.06100594,0.401425719261,4500.0,0.37740495801,0.00924085080624,-0.024020768702,108.093460083,0.0,6000.0,-0.00104011944495,-0.00589499808848,0.0,0.0,0.349065840244,0.0216827709228,0.0045543233864,0.295565187931,-3.61590864486e-05,-3.61590864486e-05,0.000234494189499,0.0286120176315,150.130722046,150.130722046,-0.355312854052,0.759571313858,2028,2025,2559,2035,2035,2898,3402,3399,3213,3335,3054,3025,3129,3120,3212,2819,3383,3389,3221,3337,3100,3326,3358,3161
1508405199511195102,107,1508405199510794020,plot_matl,0.25,-4000.0,0.232332631946,0.00725720915943,-0.0176673717797,-68.7317352295,0.349065840244,0.0283391084522,-0.00103459460661,0.232336118817,0.00486420374364,0.00486420374364,0.00742758996785,-0.0307559929788,-68.1119842529,-68.1119842529,0.197414204478,86.1831207275,2027,2054,2112,2033,2033,2711,3313,3332,3141,3279,2992,2956,3044,3067,3153,2901,3370,3363,3197,3263,2911,3264,3292,3009,0.009988829,1.069999083,1.068804703,0.401425719261,4500.0,0.37605547905,-0.0172032676637,-0.0253702495247,114.166122437,0.0,6000.0,-0.00101891637314,0.00711505068466,0.0,0.0,0.349065840244,0.0216827709228,0.00454078987241,0.295490384102,0.000384316808777,0.000384316808777,0.000483720155898,-0.0317052677274,150.106933594,150.106933594,-0.318447709084,1.00719404221,2030,2023,2559,2035,2035,2898,3402,3399,3213,3335,3054,3025,3130,3121,3210,2821,3383,3388,3219,3336,3098,3326,3358,3161
1508405199521142858,108,1508405199520799742,plot_matl,0.25,-4000.0,0.232400774956,0.00594870373607,-0.0175992269069,-68.916015625,0.349065840244,0.0269896276295,-0.00103002553806,0.232374951243,-0.00814461521804,-0.00814461521804,-0.00608187820762,0.00644442345947,-68.1062927246,-68.1062927246,0.325860947371,86.2738418579,2031,2068,2113,2035,2035,2709,3312,3331,3137,3279,2992,2956,3044,3067,3153,2901,3370,3363,3197,3263,2911,3262,3291,3009,0.010005637,1.080005035,1.080608796,0.401425719261,4500.0,0.37740495801,0.0111600533128,-0.024020768702,108.093460083,0.0,6000.0,-0.00104004179593,0.00754507444799,0.0,0.0,0.349065840244,0.0216827709228,0.00454450817779,0.295553863049,0.00212146528065,0.00212146528065,0.000391078006942,0.0289920996875,150.126373291,150.126373291,-0.441932708025,0.865932822227,2025,2022,2560,2032,2032,2897,3401,3400,3214,3335,3054,3025,3130,3121,3210,2821,3383,3388,3219,3336,3098,3327,3357,3159
1508405199531156905,109,1508405199530797997,plot_matl,0.25,-4000.0,0.232398897409,0.00600079772994,-0.0176010988653,-68.795501709,0.349065840244,0.0283391084522,-0.00106744060759,0.232372954488,0.00609587226063,0.00609587226063,-0.00543044693768,0.00650045601651,-67.9365005493,-67.9365005493,0.309763640165,86.2051086426,2005,2059,2113,2035,2035,2709,3312,3331,3137,3280,2993,2956,3043,3069,3155,2903,3374,3367,3199,3263,2911,3262,3291,3009,0.009999107,1.090003881,1.089902663,0.401425719261,4500.0,0.37605547905,-0.0159758999944,-0.0253702495247,114.166122437,0.0,6000.0,-0.00106238108128,-0.00551058817655,0.0,0.0,0.349065840244,0.0216827709228,0.00457383133471,0.295578986406,0.0020887919236,0.0020887919236,-0.00016713795776,0.0285273827612,150.038650513,150.038650513,-0.127391576767,0.788072645664,2024,2025,2560,2032,2032,2897,3401,3400,3214,3335,3051,3025,3130,3119,3216,2822,3387,3392,3221,3336,3098,3327,3357,3159
1508405199541238239,110,1508405199540797229,plot_matl,0.25,-4000.0,0.232418909669,0.005674703978,-0.0175810940564,-68.80443573,0.349065840244,0.0269896276295,-0.00106174312532,0.232428237796,-0.00776030868292,-0.00776030868292,0.00791472941637,0.00543605489656,-67.7938156128,-67.7938156128,0.11111342907,86.2676773071,2007,2065,2112,2035,2035,2708,3312,3331,3137,3280,2993,2956,3043,3069,3155,2903,3374,3367,3199,3265,2911,3266,3292,3013,0.009997789,1.100002397,1.09975679,0.401425719261,4500.0,0.37605547905,-0.0155422650278,-0.0253702495247,114.166122437,0.0,6000.0,-0.0010232324712,0.0071475058794,0.0,0.0,0.349065840244,0.0216827709228,0.0045566582121,0.295698404312,0.00174676801544,0.00174676801544,0.000136082773679,0.0261368341744,150.051116943,150.051116943,0.0817535966635,0.529350399971,2023,2032,2559,2034,2034,2900,3403,3400,3214,3335,3051,3025,3130,3119,3216,2822,3387,3392,3221,3339,3099,3327,3359,3161
1508405199551143786,111,1508405199550813671,plot_matl,0.25,-4000.0,0.232506304979,0.00399489933625,-0.0174936968833,-68.9573287964,0.349065840244,0.0269896276295,-0.00102511711884,0.232484489679,-0.00805230624974,-0.00805230624974,0.00722391577438,0.00442150374874,-67.6477279663,-67.6477279663,0.117299221456,86.1808013916,2025,2063,2112,2035,2035,2708,3312,3332,3138,3280,2994,2956,3042,3067,3152,2902,3368,3367,3199,3265,2911,3266,3292,3013,0.010016787,1.110019183,1.111863357,0.401425719261,4500.0,0.37605547905,-0.0150554561988,-0.0253702495247,114.166122437,0.0,6000.0,-0.00101725838613,-0.00637295097113,0.0,0.0,0.349065840244,0.0216827709228,0.0045567988418,0.295613288879,0.00140773353633,0.00140773353633,0.000111428460514,0.0279241204262,150.12902832,150.12902832,-0.0610417835414,0.645828127861,2022,2019,2559,2034,2034,2900,3403,3401,3216,3335,3052,3027,3130,3121,3211,2822,3385,3392,3221,3339,3099,3327,3359,3161
1508405199561135516,112,1508405199560800256,plot_matl,0.25,-4000.0,0.23250746727,0.00399713311344,-0.0174925271422,-68.9923934937,0.349065840244,0.0269896276295,-0.00102156656794,0.232525572181,-0.00783578306437,-0.00783578306437,-0.00626485841349,0.00361807178706,-67.753288269,-67.753288269,-0.0744988322258,86.4401550293,2014,2063,2112,2033,2033,2708,3312,3332,3138,3280,2994,2956,3042,3067,3152,2902,3368,3364,3199,3263,2910,3263,3292,3008,0.009986175,1.120005807,1.1184516,0.401425719261,4500.0,0.37605547905,-0.0152334449813,-0.0253702495247,114.166122437,0.0,6000.0,-0.00101207231637,0.0069714654237,0.0,0.0,0.349065840244,0.0216827709228,0.00455691479146,0.295472502708,0.00283432961442,0.00283432961442,9.11807801458e-05,-0.0312223676592,150.173339844,150.173339844,-0.0094913970679,0.937224507332,2024,2025,2559,2034,2034,2900,3403,3401,3216,3335,3052,3027,3130,3121,3211,2822,3385,3388,3218,3338,3098,3325,3358,3160
1508405199570968947,113,1508405199570801578,plot_matl,0.25,-4000.0,0.232511997223,0.00390746677294,-0.0174880027771,-68.9816970825,0.349065840244,0.0269896276295,-0.00104227114934,0.232452958822,-0.00740380724892,-0.00740380724892,-0.00583867914975,-0.0328160785139,-67.7405471802,-67.7405471802,-0.025223467499,86.2872543335,2025,2048,2112,2033,2033,2707,3312,3333,3139,3278,2994,2956,3042,3065,3151,2902,3368,3364,3199,3263,2910,3263,3292,3008,0.009998701,1.130006041,1.129853213,0.401425719261,4500.0,0.37740495801,0.0117816859856,-0.024020768702,108.093460083,0.0,6000.0,-0.00105695880484,-0.00554179865867,0.0,0.0,0.349065840244,0.0216827709228,0.00455700932071,0.295420885086,0.00313987303525,0.00313987303525,7.46703226469e-05,0.0317051075399,150.000320435,150.000320435,-0.185088172555,0.866577506065,2020,2011,2559,2034,2034,2897,3402,3401,3214,3335,3052,3024,3131,3119,3210,2822,3385,3388,3218,3338,3098,3325,3358,3160
1508405199581454134,114,1508405199580866782,plot_matl,0.25,-4000.0,0.232521533966,0.0037653488107,-0.0174784623086,-69.0316390991,0.349065840244,0.0283391084522,-0.00105721817818,0.232461750507,0.00583711173385,0.00583711173385,-0.00552768213674,0.00494335358962,-67.7654190063,-67.7654190063,-0.0185539424419,86.2266998291,2025,2066,2112,2033,2033,2707,3312,3333,3139,3278,2994,2956,3042,3065,3151,2901,3368,3363,3197,3261,2910,3263,3291,3010,0.010068399,1.140072446,1.147797486,0.401425719261,4500.0,0.37740495801,0.0110820885748,-0.024020768702,108.093460083,0.0,6000.0,-0.00105751457158,-0.00550652807578,0.0,0.0,0.349065840244,0.0216827709228,0.00457121105865,0.295488536358,0.00433036871254,0.00433036871254,-0.000228665885516,0.0304489415139,150.054229736,150.054229736,-0.26208871603,0.746861279011,2022,2029,2559,2034,2034,2897,3402,3401,3214,3335,3052,3024,3131,3119,3210,2821,3383,3390,3219,3337,3098,3325,3359,3161
1508405199591376742,115,1508405199590839950,plot_matl,0.25,-4000.0,0.232490777969,-0.0334392562509,-0.0175092183053,-77.5494842529,0.349065840244,0.0283391084522,-0.00104592158459,0.232506081462,0.00552943581715,0.00552943581715,0.00768030621111,-0.0337911695242,-67.6988601685,-67.6988601685,0.0951619520783,86.2680587769,2021,2057,2112,2035,2035,2709,3313,3332,3137,3280,2992,2957,3042,3065,3151,2901,3368,3363,3197,3261,2910,3263,3291,3010,0.009973454,1.15004577,1.14694721,0.401425719261,4500.0,0.37605547905,-0.0161979980767,-0.0253702495247,114.166122437,0.0,6000.0,-0.00104873243254,0.00771506130695,0.0,0.0,0.349065840244,0.0192735753953,0.00455450359732,0.295435547829,-0.0194775443524,-0.0194775443524,9.27952642087e-05,-0.03027314879,150.093856812,150.093856812,-0.478448241949,1.33496308327,2024,2019,2559,2038,2038,2900,3402,3401,3213,3335,3051,3025,3131,3119,3210,2821,3383,3390,3219,3337,3098,3325,3359,3161
1508405199600971581,116,1508405199600784411,plot_matl,0.25,-4000.0,0.232462406158,-0.0328220203519,-0.0175375882536,-77.8306808472,0.349065840244,0.0269896276295,-0.00103795330506,0.23247627914,-0.00732780620456,-0.00732780620456,0.00749984709546,-0.0331041254103,-68.0065612793,-68.0065612793,0.146616250277,86.2457427979,2014,2060,2112,2035,2035,2709,3313,3332,3137,3280,2992,2957,3042,3068,3152,2900,3370,3362,3197,3264,2910,3265,3291,3010,0.009940598,1.159989096,1.153109368,0.401425719261,4500.0,0.37605547905,-0.0137722678483,-0.0253702495247,114.166122437,0.0,6000.0,-0.00102836382575,-0.00611513247713,0.0,0.0,0.349065840244,0.0216827709228,0.00455503584817,0.295493543148,0.00353428046219,0.00353428046219,7.59544345783e-05,-0.0313113853335,149.933181763,149.933181763,-0.569259941578,1.49027574062,2027,2032,2559,2038,2038,2900,3402,3401,3213,3335,3051,3025,3131,3118,3211,2820,3385,3390,3217,3336,3098,3325,3357,3161
1508405199611186138,117,1508405199610800885,plot_matl,0.25,-4000.0,0.232442080975,0.00549267139286,-0.0175579134375,-68.9892883301,0.349065840244,0.0269896276295,-0.00103795330506,0.23247627914,-0.00732780620456,-0.00732780620456,0.00749984709546,-0.0331041254103,-68.0065612793,-68.0065612793,0.146616250277,86.2457427979,2017,2054,2112,2037,2037,2707,3309,3331,3138,3280,2992,2957,3042,3068,3152,2900,3370,3362,3197,3264,2910,3265,3291,3007,0.010017753,1.170006373,1.172077101,0.401425719261,4500.0,0.37605547905,-0.0142171988264,-0.0253702495247,114.166122437,0.0,6000.0,-0.00102394353598,0.00722384499386,0.0,0.0,0.349065840244,0.0216827709228,0.00455503584817,0.295493543148,0.00353428046219,0.00353428046219,7.59544345783e-05,-0.0313113853335,149.933181763,149.933181763,-0.569259941578,1.49027574062,2020,2027,2559,2035,2035,2900,3401,3399,3212,3335,3053,3025,3131,3118,3211,2820,3385,3390,3217,3336,3098,3325,3357,3160
1508405199620885566,118,1508405199620773252,plot_matl,0.25,-4000.0,0.232362374663,0.00713468389586,-0.017637623474,-68.8864593506,0.349065840244,0.0269896276295,-0.00103795330506,0.23247627914,-0.00732780620456,-0.00732780620456,0.00749984709546,-0.0331041254103,-68.0065612793,-68.0065612793,0.146616250277,86.2457427979,2009,2041,2112,2037,2037,2707,3309,3331,3138,3280,2992,2955,3043,3069,3152,2901,3367,3365,3197,3262,2911,3265,3291,3007,0.009969795,1.179977482,1.17643581,0.401425719261,4500.0,0.37740495801,0.0120976828039,-0.024020768702,108.093460083,0.0,6000.0,-0.00103307445534,0.0073798019439,0.0,0.0,0.349065840244,0.0216827709228,0.00455503584817,0.295493543148,0.00353428046219,0.00353428046219,7.59544345783e-05,-0.0313113853335,149.933181763,149.933181763,-0.569259941578,1.49027574062,2032,2030,2559,2035,2035,2900,3401,3399,3212,3335,3053,3024,3129,3121,3210,2820,3385,3390,3220,3338,3099,3325,3357,3160
1508405199631166872,119,1508405199630807733,plot_matl,0.25,-4000.0,0.232364654541,0.00708611449227,-0.0176353473216,-69.0149154663,0.349065840244,0.0269896276295,-0.00103641871829,0.232328787446,-0.00764320464805,-0.00764320464805,-0.00596820097417,0.00782086141407,-68.0881576538,-68.0881576538,0.557724535465,86.2329711914,2011,2034,2113,2032,2032,2709,3311,3331,3138,3280,2992,2955,3043,3069,3152,2901,3367,3365,3197,3262,2911,3263,3291,3009,0.010037638,1.190013663,1.194478922,0.401425719261,4500.0,0.37740495801,0.011840431951,-0.024020768702,108.093460083,0.0,6000.0,-0.00103957939427,0.00750033510849,0.0,0.0,0.349065840244,0.0240919683129,0.00456703221425,0.295689940453,0.0252382587641,0.0252382587641,-0.000149238912854,0.0264776945114,150.061782837,150.061782837,-0.157948359847,1.13940954208,2026,2024,2559,2035,2035,2898,3402,3402,3212,3335,3053,3024,3129,3121,3210,2820,3385,3390,3220,3338,3099,3326,3358,3158
1508405199641060368,120,1508405199640787842,plot_matl,0.25,-4000.0,0.232363328338,0.00712347822264,-0.017636667937,-68.9653930664,0.349065840244,0.0269896276295,-0.00103641871829,0.232328787446,-0.00764320464805,-0.00764320464805,-0.00596820097417,0.00782086141407,-68.0881576538,-68.0881576538,0.557724535465,86.2329711914,2007,2042,2113,2032,2032,2709,3311,3331,3138,3277,2994,2957,3041,3067,3151,2901,3369,3362,3197,3262,2911,3263,3291,3009,0.009978518,1.199993195,1.19742216,0.401425719261,4500.0,0.37740495801,0.0121564269066,-0.024020768702,108.093460083,0.0,6000.0,-0.00102188694291,-0.00629203347489,0.0,0.0,0.349065840244,0.0240919683129,0.00456703221425,0.295689940453,0.0252382587641,0.0252382587641,-0.000149238912854,0.0264776945114,150.061782837,150.061782837,-0.157948359847,1.13940954208,2027,2026,2559,2035,2035,2898,3402,3402,3212,3335,3051,3026,3131,3120,3211,2820,3383,3388,3218,3338,3099,3326,3358,3158
1508405199651323274,121,1508405199650822840,plot_matl,0.25,-4000.0,0.232427924871,0.0058523286134,-0.0175720807165,-69.0021591187,0.349065840244,0.0269896276295,-0.00103641871829,0.232328787446,-0.00764320464805,-0.00764320464805,-0.00596820097417,0.00782086141407,-68.0881576538,-68.0881576538,0.557724535465,86.2329711914,2001,2044,2112,2030,2030,2708,3314,3331,3138,3277,2994,2957,3041,3067,3151,2901,3369,3362,3197,3262,2909,3264,3289,3009,0.010035331,1.210028499,1.214275051,0.401425719261,4500.0,0.37605547905,-0.0153350522742,-0.0253702495247,114.166122437,0.0,6000.0,-0.00101756595541,0.00704537238926,0.0,0.0,0.349065840244,0.0240919683129,0.00456703221425,0.295689940453,0.0252382587641,0.0252382587641,-0.000149238912854,0.0264776945114,150.061782837,150.061782837,-0.157948359847,1.13940954208,2022,2028,2560,2034,2034,2897,3403,3402,3212,3335,3051,3026,3131,3120,3211,2820,3383,3388,3218,3337,3098,3325,3358,3157
1508405199661387559,122,1508405199660803134,plot_matl,0.25,-4000.0,0.232437953353,-0.0322968065739,-0.0175620503724,-77.8842926025,0.349065840244,0.0269896276295,-0.00103641871829,0.232328787446,-0.00764320464805,-0.00764320464805,-0.00596820097417,0.00782086141407,-68.0881576538,-68.0881576538,0.557724535465,86.2329711914,2000,2057,2112,2030,2030,2708,3314,3332,3136,3280,2993,2955,3042,3066,3153,2900,3370,3362,3197,3262,2909,3264,3289,3009,0.009979868,1.220008783,1.217543896,0.401425719261,4500.0,0.37605547905,-0.0150111000985,-0.0253702495247,114.166122437,0.0,6000.0,-0.00106025999412,-0.0054752076976,0.0,0.0,0.349065840244,0.0240919683129,0.00456703221425,0.295689940453,0.0252382587641,0.0252382587641,-0.000149238912854,0.0264776945114,150.061782837,150.061782837,-0.157948359847,1.13940954208,2021,2029,2560,2034,2034,2897,3403,3400,3214,3335,3053,3025,3129,3121,3211,2819,3384,3388,3218,3337,3098,3325,3358,3157
1508405199671193104,123,1508405199670793837,plot_matl,0.25,-4000.0,0.232385456562,0.006656460464,-0.0176145453006,-68.9916687012,0.349065840244,0.0269896276295,-0.0010609003948,0.232391193509,-0.00730105582625,-0.00730105582625,-0.00545086571947,-0.031345538795,-68.483543396,-68.483543396,0.606478452682,86.1228103638,2005,2062,2112,2029,2029,2708,3314,3332,3136,3280,2993,2955,3042,3066,3153,2900,3370,3362,3196,3261,2911,3263,3292,3007,0.009990271,1.229999168,1.228803333,0.401425719261,4500.0,0.37605547905,-0.0142560787499,-0.0253702495247,114.166122437,0.0,6000.0,-0.00106133846566,0.00797825865448,0.0,0.0,0.349065840244,0.0216827709228,0.00457415310666,0.295707315207,0.00159117637668,0.00159117637668,-0.000300581363263,-0.0354799702764,150.085540771,150.085540771,-0.462326705456,1.03070640564,2019,2026,2559,2038,2038,2897,3403,3400,3214,3335,3053,3025,3129,3121,3211,2819,3384,3389,3217,3338,3098,3326,3358,3160
1508405199681010039,124,1508405199680784706,plot_matl,0.25,-4000.0,0.232404604554,-0.0316955856979,-0.0175953879952,-78.0129699707,0.349065840244,0.0269896276295,-0.0010609003948,0.232391193509,-0.00730105582625,-0.00730105582625,-0.00545086571947,-0.031345538795,-68.483543396,-68.483543396,0.606478452682,86.1228103638,2010,2052,2112,2029,2029,2708,3310,3331,3136,3278,2992,2957,3041,3067,3151,2900,3370,3362,3196,3261,2911,3263,3292,3007,0.009989767,1.239989604,1.238731108,0.401425719261,4500.0,0.37605547905,-0.0140608083457,-0.0253702495247,114.166122437,0.0,6000.0,-0.00103944877628,-0.00589608075097,0.0,0.0,0.349065840244,0.0216827709228,0.00457415310666,0.295707315207,0.00159117637668,0.00159117637668,-0.000300581363263,-0.0354799702764,150.085540771,150.085540771,-0.462326705456,1.03070640564,2018,2024,2559,2038,2038,2898,3401,3403,3213,3334,3054,3025,3131,3120,3209,2819,3384,3389,3217,3338,3098,3326,3358,3160
1508405199691020355,125,1508405199690809419,plot_matl,0.25,-4000.0,0.232468560338,0.00498912017792,-0.0175314377993,-68.9807662964,0.349065840244,0.0269896276295,-0.0010609003948,0.232391193509,-0.00730105582625,-0.00730105582625,-0.00545086571947,-0.031345538795,-68.483543396,-68.483543396,0.606478452682,86.1228103638,2010,2057,2113,2029,2029,2708,3310,3331,3136,3278,2992,2957,3041,3067,3151,2901,3369,3365,3198,3262,2910,3267,3291,3008,0.01002418,1.250014018,1.2530225,0.401425719261,4500.0,0.37605547905,-0.0140511933714,-0.0253702495247,114.166122437,0.0,6000.0,-0.00103190296795,-0.00602694787085,0.0,0.0,0.349065840244,0.0216827709228,0.00457415310666,0.295707315207,0.00159117637668,0.00159117637668,-0.000300581363263,-0.0354799702764,150.085540771,150.085540771,-0.462326705456,1.03070640564,2020,2023,2558,2038,2038,2898,3401,3403,3213,3334,3054,3025,3131,3120,3209,2820,3382,3390,3219,3335,3097,3325,3356,3160
1508405199701155128,126,1508405199700791899,plot_matl,0.25,-4000.0,0.232468560338,0.00498912017792,-0.0175314377993,-68.9807662964,0.349065840244,0.0269896276295,-0.0010609003948,0.232391193509,-0.00730105582625,-0.00730105582625,-0.00545086571947,-0.031345538795,-68.483543396,-68.483543396,0.606478452682,86.1228103638,2010,2057,2113,2029,2029,2708,3310,3331,3136,3278,2992,2957,3041,3067,3151,2901,3369,3365,3198,3262,2910,3267,3291,3008,0.009983468,1.259997238,1.257916968,0.401425719261,4500.0,0.37605547905,-0.0140511933714,-0.0253702495247,114.166122437,0.0,6000.0,-0.00103190296795,-0.00602694787085,0.0,0.0,0.349065840244,0.0216827709228,0.00457415310666,0.295707315207,0.00159117637668,0.00159117637668,-0.000300581363263,-0.0354799702764,150.085540771,150.085540771,-0.462326705456,1.03070640564,2020,2023,2558,2038,2038,2898,3401,3403,3213,3334,3054,3025,3131,3120,3209,2820,3382,3390,3219,3335,3097,3325,3356,3160
1508405199711353827,127,1508405199710960616,plot_matl,0.25,-4000.0,0.232479706407,0.00476475572214,-0.0175202991813,-68.4404373169,0.349065840244,0.0283391084522,-0.00106126558967,0.232479706407,0.00698461988941,0.00698461988941,-0.006107872352,0.00476475572214,-68.4655151367,-68.4655151367,0.216120362282,86.2125396729,2033,2068,2113,2030,2030,2709,3312,3332,3137,3279,2993,2969,3055,3067,3151,2901,3369,3365,3198,3262,2910,3267,3291,3008,0.010169904,1.270166801,1.291577808,0.401425719261,4500.0,0.37740495801,0.0139692397788,-0.024020768702,108.093460083,0.0,6000.0,-0.00106126558967,-0.006107872352,0.0,0.0,0.349065840244,0.0240919683129,0.00455658277497,0.295969039202,0.0227201264352,0.0227201264352,2.52941663348e-05,0.0211924035102,150.06489563,150.06489563,-0.62749838829,0.476637333632,2035,2030,2558,2034,2034,2898,3402,3399,3213,3334,3053,3037,3143,3120,3209,2820,3382,3390,3219,3335,3097,3325,3356,3160
1508405199721069149,128,1508405199720796485,plot_matl,0.25,-4000.0,0.232419013977,0.00595613894984,-0.0175809841603,-68.876121521,0.349065840244,0.0283391084522,-0.00106126558967,0.232479706407,0.00698461988941,0.00698461988941,-0.006107872352,0.00476475572214,-68.4655151367,-68.4655151367,0.216120362282,86.2125396729,2034,2064,2113,2030,2030,2709,3312,3332,3137,3279,2993,2969,3055,3079,3165,2909,3377,3374,3205,3269,2915,3270,3295,3008,0.009833976,1.280001603,1.258748928,0.401425719261,4500.0,0.37740495801,0.0132985180244,-0.024020768702,108.093460083,0.0,6000.0,-0.0010371421231,-0.00647125951946,0.0,0.0,0.349065840244,0.0240919683129,0.00455658277497,0.295969039202,0.0227201264352,0.0227201264352,2.52941663348e-05,0.0211924035102,150.06489563,150.06489563,-0.62749838829,0.476637333632,2026,2025,2558,2034,2034,2898,3402,3399,3213,3334,3053,3037,3143,3131,3221,2828,3393,3397,3225,3343,3104,3333,3361,3160
1508405199731164559,129,1508405199730796625,plot_matl,0.25,-4000.0,0.232437342405,-0.0323101878166,-0.0175626594573,-77.4424285889,0.349065840244,0.0283391084522,-0.00106126558967,0.232479706407,0.00698461988941,0.00698461988941,-0.006107872352,0.00476475572214,-68.4655151367,-68.4655151367,0.216120362282,86.2125396729,2022,2057,2112,2031,2031,2709,3314,3333,3138,3278,2995,2969,3055,3079,3165,2909,3377,3374,3205,3269,2915,3270,3295,3014,0.009999702,1.290001812,1.289961558,0.401425719261,4500.0,0.37605547905,-0.0143595244735,-0.0253702495247,114.166122437,0.0,6000.0,-0.00103004439734,-0.00651448732242,0.0,0.0,0.349065840244,0.0240919683129,0.00455658277497,0.295969039202,0.0227201264352,0.0227201264352,2.52941663348e-05,0.0211924035102,150.06489563,150.06489563,-0.62749838829,0.476637333632,2028,2024,2559,2033,2033,2901,3405,3403,3214,3337,3055,3037,3143,3131,3221,2828,3393,3397,3225,3343,3104,3333,3361,3164
1508405199741107706,130,1508405199740792075,plot_matl,0.25,-4000.0,0.232487156987,0.00458157388493,-0.0175128411502,-68.8938980103,0.349065840244,0.0283391084522,-0.00106126558967,0.232479706407,0.00698461988941,0.00698461988941,-0.006107872352,0.00476475572214,-68.4655151367,-68.4655151367,0.216120362282,86.2125396729,2042,2075,2112,2031,2031,2709,3314,3333,3138,3278,2995,2958,3043,3068,3153,2904,3374,3363,3198,3264,2911,3270,3295,3014,0.009995075,1.299997268,1.29935975,0.401425719261,4500.0,0.37740495801,0.012518919073,-0.024020768702,108.093460083,0.0,6000.0,-0.00103444803972,-0.00632490869612,0.0,0.0,0.349065840244,0.0240919683129,0.00455658277497,0.295969039202,0.0227201264352,0.0227201264352,2.52941663348e-05,0.0211924035102,150.06489563,150.06489563,-0.62749838829,0.476637333632,2025,2023,2559,2033,2033,2901,3405,3403,3214,3337,3055,3028,3132,3123,3214,2822,3386,3391,3218,3338,3100,3333,3361,3164
1508405199751184819,131,1508405199750800618,plot_matl,0.25,-4000.0,0.232427299023,0.0058212177828,-0.0175727009773,-68.9380340576,0.349065840244,0.0283391084522,-0.0010092734592,0.232421666384,0.00622046459466,0.00622046459466,0.00664281938225,0.00593705009669,-68.0787734985,-68.0787734985,0.432529866695,86.8100280762,2038,2061,2112,2033,2033,2710,3313,3332,3136,3278,2995,2958,3043,3068,3153,2904,3374,3363,3198,3264,2911,3265,3293,3010,0.010009134,1.310006127,1.311196554,0.401425719261,4500.0,0.37605547905,-0.014527272433,-0.0253702495247,114.166122437,0.0,6000.0,-0.00100254628342,0.00651321746409,0.0,0.0,0.349065840244,0.0216827709228,0.00457888096571,0.295833438635,0.0008520820993,0.0008520820993,-0.000411680084653,0.0239589065313,150.025924683,150.025924683,-0.483684629202,0.288837134838,2022,2025,2560,2035,2035,2898,3402,3401,3214,3337,3055,3028,3132,3123,3214,2822,3386,3391,3218,3338,3100,3327,3360,3161
1508405199761294587,132,1508405199760829468,plot_matl,0.25,-4000.0,0.232380449772,-0.0311233419925,-0.0176195520908,-77.4761276245,0.349065840244,0.0283391084522,-0.0010092734592,0.232421666384,0.00622046459466,0.00622046459466,0.00664281938225,0.00593705009669,-68.0787734985,-68.0787734985,0.432529866695,86.8100280762,2030,2052,2112,2033,2033,2710,3313,3332,3136,3279,2993,2958,3043,3069,3151,2903,3371,3361,3197,3264,2911,3265,3293,3010,0.01002907,1.320035212,1.32383724,0.401425719261,4500.0,0.37740495801,0.0123872635886,-0.024020768702,108.093460083,0.0,6000.0,-0.000978676136583,0.00607790099457,0.0,0.0,0.349065840244,0.0216827709228,0.00457888096571,0.295833438635,0.0008520820993,0.0008520820993,-0.000411680084653,0.0239589065313,150.025924683,150.025924683,-0.483684629202,0.288837134838,2032,2023,2560,2035,2035,2898,3402,3401,3214,3337,3054,3027,3129,3121,3211,2821,3384,3390,3218,3338,3100,3327,3360,3161
1508405199771119088,133,1508405199770778684,plot_matl,0.25,-4000.0,0.232409119606,0.00619134074077,-0.017590874806,-68.8133773804,0.349065840244,0.0283391084522,-0.0010092734592,0.232421666384,0.00622046459466,0.00622046459466,0.00664281938225,0.00593705009669,-68.0787734985,-68.0787734985,0.432529866695,86.8100280762,2021,2055,2112,2034,2034,2707,3312,3332,3136,3279,2993,2958,3043,3069,3151,2903,3371,3361,3197,3263,2910,3267,3291,3009,0.009945827,1.329983082,1.322794991,0.401425719261,4500.0,0.37605547905,-0.0126396231353,-0.0253702495247,114.166122437,0.0,6000.0,-0.000971278524958,-0.00746053317562,0.0,0.0,0.349065840244,0.0216827709228,0.00457888096571,0.295833438635,0.0008520820993,0.0008520820993,-0.000411680084653,0.0239589065313,150.025924683,150.025924683,-0.483684629202,0.288837134838,2022,2023,2559,2036,2036,2899,3403,3401,3214,3337,3054,3027,3129,3121,3211,2821,3384,3390,3218,3339,3099,3327,3358,3161
1508405199781256283,134,1508405199780821773,plot_matl,0.25,-4000.0,0.232400402427,0.0443016551435,-0.017599593848,-59.7531509399,0.349065840244,0.0283391084522,-0.0010092734592,0.232421666384,0.00622046459466,0.00622046459466,0.00664281938225,0.00593705009669,-68.0787734985,-68.0787734985,0.432529866695,86.8100280762,2012,2053,2112,2034,2034,2707,3312,3330,3136,3280,2994,2956,3043,3069,3153,2901,3369,3361,3197,3263,2910,3267,3291,3009,0.010045757,1.340027522,1.346131438,0.401425719261,4500.0,0.37740495801,0.0129481153563,-0.024020768702,108.093460083,0.0,6000.0,-0.000985973048955,-0.00710603734478,0.0,0.0,0.349065840244,0.0216827709228,0.00457888096571,0.295833438635,0.0008520820993,0.0008520820993,-0.000411680084653,0.0239589065313,150.025924683,150.025924683,-0.483684629202,0.288837134838,2023,2025,2559,2036,2036,2899,3403,3399,3213,3335,3054,3025,3131,3120,3210,2821,3384,3390,3218,3339,3099,3327,3358,3161
1508405199791036333,135,1508405199790804478,plot_matl,0.25,-4000.0,0.232456609607,0.00523336417973,-0.0175433848053,-69.0514068604,0.349065840244,0.0283391084522,-0.00101973442361,0.232451945543,0.00596209894866,0.00596209894866,-0.00640925951302,0.00532971695065,-67.5995025635,-67.5995025635,0.454410970211,86.5512008667,1998,2042,2113,2031,2031,2707,3312,3330,3136,3280,2994,2956,3043,3069,3153,2901,3369,3363,3195,3262,2911,3264,3289,3009,0.009983252,1.35001084,1.34773902,0.401425719261,4500.0,0.37740495801,0.0117086274549,-0.024020768702,108.093460083,0.0,6000.0,-0.0010253242217,-0.00629339041188,0.0,0.0,0.349065840244,0.0192735753953,0.0045451130718,0.295565038919,-0.0240061786026,-0.0240061786026,0.00030067175976,0.0295355971903,150.244415283,150.244415283,-0.350820571184,0.0696507319808,2020,2027,2559,2037,2037,2899,3403,3399,3213,3335,3054,3025,3131,3120,3210,2821,3384,3390,3217,3337,3098,3327,3358,3160
1508405199801281618,136,1508405199800833107,plot_matl,0.25,-4000.0,0.232459932566,-0.0328150466084,-0.0175400748849,-78.5771942139,0.349065840244,0.0283391084522,-0.00101973442361,0.232451945543,0.00596209894866,0.00596209894866,-0.00640925951302,0.00532971695065,-67.5995025635,-67.5995025635,0.454410970211,86.5512008667,2010,2048,2113,2031,2031,2710,3312,3332,3139,3279,2993,2957,3043,3068,3150,2901,3369,3363,3195,3262,2911,3264,3289,3009,0.010027219,1.360038866,1.363701784,0.401425719261,4500.0,0.37605547905,-0.0147084128112,-0.0253702495247,114.166122437,0.0,6000.0,-0.00103476527147,-0.00608968827873,0.0,0.0,0.349065840244,0.0192735753953,0.0045451130718,0.295565038919,-0.0240061786026,-0.0240061786026,0.00030067175976,0.0295355971903,150.244415283,150.244415283,-0.350820571184,0.0696507319808,2018,2022,2559,2037,2037,2898,3400,3401,3213,3336,3053,3026,3130,3121,3211,2821,3384,3390,3217,3337,3098,3327,3358,3160
1508405199811201379,137,1508405199810811897,plot_matl,0.25,-4000.0,0.232499733567,0.00425420934334,-0.0175002608448,-68.906539917,0.349065840244,0.0283391084522,-0.00101973442361,0.232451945543,0.00596209894866,0.00596209894866,-0.00640925951302,0.00532971695065,-67.5995025635,-67.5995025635,0.454410970211,86.5512008667,2008,2036,2113,2031,2031,2710,3312,3332,3139,3279,2993,2957,3043,3068,3150,2900,3371,3364,3196,3263,2910,3264,3290,3008,0.009977554,1.370017027,1.366924898,0.401425719261,4500.0,0.37740495801,0.0118007333949,-0.024020768702,108.093460083,0.0,6000.0,-0.00105204433203,-0.00569598982111,0.0,0.0,0.349065840244,0.0192735753953,0.0045451130718,0.295565038919,-0.0240061786026,-0.0240061786026,0.00030067175976,0.0295355971903,150.244415283,150.244415283,-0.350820571184,0.0696507319808,2030,2026,2560,2037,2037,2898,3400,3401,3213,3336,3053,3026,3130,3121,3211,2819,3385,3390,3218,3338,3098,3325,3360,3159
1508405199821053885,138,1508405199820793353,plot_matl,0.25,-4000.0,0.232540398836,0.0413267984986,-0.0174596086144,-59.8148803711,0.349065840244,0.0283391084522,-0.00101973442361,0.232451945543,0.00596209894866,0.00596209894866,-0.00640925951302,0.00532971695065,-67.5995025635,-67.5995025635,0.454410970211,86.5512008667,2003,2033,2113,2032,2032,2709,3309,3331,3137,3279,2994,2956,3043,3068,3150,2900,3371,3364,3196,3263,2910,3264,3290,3008,0.009979334,1.379997814,1.377148092,0.401425719261,4500.0,0.37740495801,0.0107415467501,-0.024020768702,108.093460083,0.0,6000.0,-0.00105458218604,-0.00564879830927,0.0,0.0,0.349065840244,0.0192735753953,0.0045451130718,0.295565038919,-0.0240061786026,-0.0240061786026,0.00030067175976,0.0295355971903,150.244415283,150.244415283,-0.350820571184,0.0696507319808,2027,2024,2560,2036,2036,2898,3401,3400,3213,3334,3053,3025,3131,3121,3211,2819,3385,3390,3218,3338,3098,3325,3360,3159
1508405199831279761,139,1508405199830802133,plot_matl,0.25,-4000.0,0.232544958591,0.00333553855307,-0.0174550451338,-69.0180740356,0.349065840244,0.0283391084522,-0.00106432428584,0.23254160583,0.00477842893451,0.00477842893451,-0.00544456159696,0.00340285105631,-68.1806030273,-68.1806030273,0.390308797359,86.694152832,2016,2039,2113,2032,2032,2709,3309,3331,3137,3279,2994,2956,3043,3067,3152,2901,3370,3361,3197,3262,2911,3262,3291,3008,0.010011589,1.390007752,1.391610871,0.401425719261,4500.0,0.37740495801,0.00936781149358,-0.024020768702,108.093460083,0.0,6000.0,-0.00105641456321,0.00782056991011,0.0,0.0,0.349065840244,0.0216827709228,0.00455967523158,0.295450747013,0.00111427344382,0.00111427344382,-2.39784458245e-05,-0.0300579629838,150.295761108,150.295761108,-0.458343327045,-0.502206027508,2022,2021,2560,2036,2036,2898,3401,3400,3213,3334,3053,3025,3131,3119,3210,2819,3382,3389,3219,3337,3100,3327,3359,3159
1508405199841295801,140,1508405199840834936,plot_matl,0.25,-4000.0,0.232469394803,-0.0330396182835,-0.0175306107849,-77.7555236816,0.349065840244,0.0283391084522,-0.00106432428584,0.23254160583,0.00477842893451,0.00477842893451,-0.00544456159696,0.00340285105631,-68.1806030273,-68.1806030273,0.390308797359,86.694152832,2019,2045,2112,2031,2031,2709,3311,3332,3139,3279,2993,2956,3043,3067,3152,2901,3370,3361,3197,3262,2911,3262,3291,3009,0.010032408,1.400040605,1.40453712,0.401425719261,4500.0,0.37740495801,0.00911521818489,-0.024020768702,108.093460083,0.0,6000.0,-0.00102224212606,-0.00625968538225,0.0,0.0,0.349065840244,0.0216827709228,0.00455967523158,0.295450747013,0.00111427344382,0.00111427344382,-2.39784458245e-05,-0.0300579629838,150.295761108,150.295761108,-0.458343327045,-0.502206027508,2022,2024,2559,2037,2037,2898,3401,3402,3214,3334,3054,3025,3131,3119,3210,2819,3382,3389,3219,3337,3100,3327,3359,3160
1508405199851383113,141,1508405199850848411,plot_matl,0.25,-4000.0,0.232513099909,0.0039917700924,-0.0174869056791,-69.0637741089,0.349065840244,0.0283391084522,-0.00106432428584,0.23254160583,0.00477842893451,0.00477842893451,-0.00544456159696,0.00340285105631,-68.1806030273,-68.1806030273,0.390308797359,86.694152832,2023,2051,2112,2031,2031,2709,3311,3332,3139,3279,2993,2957,3042,3068,3153,2902,3368,3362,3197,3262,2910,3262,3291,3009,0.0100141,1.41005427,1.4119881,0.401425719261,4500.0,0.37605547905,-0.0172992125154,-0.0253702495247,114.166122437,0.0,6000.0,-0.0010309756035,-0.00608049985021,0.0,0.0,0.349065840244,0.0216827709228,0.00455967523158,0.295450747013,0.00111427344382,0.00111427344382,-2.39784458245e-05,-0.0300579629838,150.295761108,150.295761108,-0.458343327045,-0.502206027508,2025,2025,2559,2037,2037,2898,3401,3402,3214,3334,3054,3024,3130,3120,3211,2819,3385,3389,3219,3338,3098,3327,3359,3160
1508405199861205379,142,1508405199860832348,plot_matl,0.25,-4000.0,0.232512593269,0.00396680133417,-0.0174874123186,-69.0866088867,0.349065840244,0.0283391084522,-0.00106432428584,0.23254160583,0.00477842893451,0.00477842893451,-0.00544456159696,0.00340285105631,-68.1806030273,-68.1806030273,0.390308797359,86.694152832,2029,2061,2113,2029,2029,2709,3312,3332,3137,3279,2993,2957,3042,3068,3153,2902,3368,3362,3197,3262,2910,3264,3291,3008,0.009981628,1.420037797,1.417391176,0.401425719261,4500.0,0.37740495801,0.00950167793781,-0.024020768702,108.093460083,0.0,6000.0,-0.00106131844223,0.00795586965978,0.0,0.0,0.349065840244,0.0216827709228,0.00455967523158,0.295450747013,0.00111427344382,0.00111427344382,-2.39784458245e-05,-0.0300579629838,150.295761108,150.295761108,-0.458343327045,-0.502206027508,2020,2028,2560,2034,2034,2899,3402,3400,3212,3334,3054,3024,3130,3120,3211,2819,3385,3389,3219,3338,3098,3325,3359,3160
1508405199871244015,143,1508405199870789516,plot_matl,0.25,-4000.0,0.232553049922,0.0031583707314,-0.0174469556659,-69.0217666626,0.349065840244,0.0283391084522,-0.00104516244028,0.232549846172,0.00467493291944,0.00467493291944,0.0076439245604,0.00322236935608,-68.3162155151,-68.3162155151,0.170847952366,86.4692230225,2027,2054,2113,2029,2029,2709,3312,3332,3137,3280,2991,2957,3042,3067,3149,2901,3367,3362,3196,3262,2910,3264,3291,3008,0.009956144,1.429994534,1.423728592,0.401425719261,4500.0,0.37875443697,0.0358848869801,-0.0226712878793,102.0207901,0.0,6000.0,-0.00105079833884,-0.00566478911787,0.0,0.0,0.349065840244,0.0216827709228,0.00457172747701,0.295082449913,0.00158407585695,0.00158407585695,-0.000283316679997,-0.0228206589818,150.250244141,150.250244141,-0.745674371719,-0.250811606646,2028,2028,2560,2034,2034,2899,3402,3400,3212,3334,3054,3024,3127,3120,3212,2820,3385,3389,3219,3338,3098,3325,3359,3160
1508405199881244310,144,1508405199880807470,plot_matl,0.25,-4000.0,0.232582837343,0.00255920970812,-0.0174171607941,-69.0080871582,0.349065840244,0.0283391084522,-0.00104516244028,0.232549846172,0.00467493291944,0.00467493291944,0.0076439245604,0.00322236935608,-68.3162155151,-68.3162155151,0.170847952366,86.4692230225,2033,2063,2112,2028,2028,2709,3309,3332,3137,3280,2991,2957,3042,3067,3149,2901,3367,3362,3196,3263,2909,3264,3291,3009,0.010020118,1.440013945,1.442896992,0.401425719261,4500.0,0.37740495801,0.00799041986465,-0.024020768702,108.093460083,0.0,6000.0,-0.0010269213235,0.00728764850646,0.0,0.0,0.349065840244,0.0216827709228,0.00457172747701,0.295082449913,0.00158407585695,0.00158407585695,-0.000283316679997,-0.0228206589818,150.250244141,150.250244141,-0.745674371719,-0.250811606646,2027,2027,2559,2036,2036,2899,3403,3400,3212,3334,3054,3024,3127,3120,3212,2820,3385,3389,3219,3337,3098,3326,3359,3158
1508405199891168878,145,1508405199890822086,plot_matl,0.25,-4000.0,0.232571303844,0.00281820399687,-0.0174286961555,-69.008895874,0.349065840244,0.0283391084522,-0.00104516244028,0.232549846172,0.00467493291944,0.00467493291944,0.0076439245604,0.00322236935608,-68.3162155151,-68.3162155151,0.170847952366,86.4692230225,2033,2064,2112,2028,2028,2709,3309,3332,3138,3280,2992,2958,3043,3067,3152,2900,3369,3362,3196,3263,2909,3264,3291,3009,0.010012477,1.450027585,1.451809165,0.401425719261,4500.0,0.37740495801,0.00700704660267,-0.024020768702,108.093460083,0.0,6000.0,-0.00101936946157,0.00716433860362,0.0,0.0,0.349065840244,0.0216827709228,0.00457172747701,0.295082449913,0.00158407585695,0.00158407585695,-0.000283316679997,-0.0228206589818,150.250244141,150.250244141,-0.745674371719,-0.250811606646,2025,2025,2559,2036,2036,2899,3403,3400,3214,3334,3051,3023,3130,3120,3210,2821,3381,3389,3219,3337,3098,3326,3359,3158
1508405199901309305,146,1508405199900801554,plot_matl,0.25,-4000.0,0.23253120482,0.00363978277892,-0.017468797043,-69.0573348999,0.349065840244,0.0283391084522,-0.00104516244028,0.232549846172,0.00467493291944,0.00467493291944,0.0076439245604,0.00322236935608,-68.3162155151,-68.3162155151,0.170847952366,86.4692230225,2035,2078,2112,2026,2026,2709,3309,3332,3138,3280,2992,2958,3043,3067,3152,2900,3369,3363,3196,3262,2909,3265,3289,3009,0.009980645,1.460007579,1.45717417,0.401425719261,4500.0,0.37740495801,0.00670036580414,-0.024020768702,108.093460083,0.0,6000.0,-0.00103773409501,-0.00587262399495,0.0,0.0,0.349065840244,0.0216827709228,0.00457172747701,0.295082449913,0.00158407585695,0.00158407585695,-0.000283316679997,-0.0228206589818,150.250244141,150.250244141,-0.745674371719,-0.250811606646,2022,2028,2560,2035,2035,2899,3403,3400,3214,3334,3051,3023,3130,3120,3210,2821,3381,3389,3219,3338,3098,3325,3359,3158
1508405199911140538,147,1508405199910793985,plot_matl,0.25,-4000.0,0.232432112098,0.00564801320434,-0.0175678879023,-68.9092559814,0.349065840244,0.0296885911375,-0.00101259537041,0.232426434755,0.0166627820581,0.0166627820581,-0.00638285512105,0.00576314656064,-68.7420349121,-68.7420349121,0.200132668018,86.7670059204,2021,2073,2112,2026,2026,2708,3312,3333,3136,3276,2994,2957,3044,3067,3152,2900,3369,3363,3196,3262,2909,3265,3289,3009,0.00999064,1.469999224,1.46862408,0.401425719261,4500.0,0.37740495801,0.00594067294151,-0.024020768702,108.093460083,0.0,6000.0,-0.00101891497616,-0.00625534169376,0.0,0.0,0.349065840244,0.0216827709228,0.00453916378319,0.295289337635,-0.000824899529107,-0.000824899529107,0.000385932362406,-0.0270947478712,150.08770752,150.08770752,-0.593844592571,-0.183632194996,2023,2033,2560,2035,2035,2899,3402,3400,3213,3335,3053,3027,3130,3119,3211,2821,3381,3389,3219,3338,3098,3325,3359,3158
1508405199921157738,148,1508405199920800113,plot_matl,0.25,-4000.0,0.23241519928,0.00598292192444,-0.0175848007202,-69.0516204834,0.349065840244,0.0296885911375,-0.00101259537041,0.232426434755,0.0166627820581,0.0166627820581,-0.00638285512105,0.00576314656064,-68.7420349121,-68.7420349121,0.200132668018,86.7670059204,2026,2072,2112,2026,2026,2708,3312,3333,3136,3276,2994,2957,3044,3067,3152,2901,3368,3363,3196,3262,2910,3265,3291,3007,0.010006366,1.480005928,1.480942168,0.401425719261,4500.0,0.37605547905,-0.0198805611581,-0.0253702495247,114.166122437,0.0,6000.0,-0.000977704999968,0.00633602775633,0.0,0.0,0.349065840244,0.0216827709228,0.00453916378319,0.295289337635,-0.000824899529107,-0.000824899529107,0.000385932362406,-0.0270947478712,150.08770752,150.08770752,-0.593844592571,-0.183632194996,2027,2030,2560,2035,2035,2899,3402,3400,3213,3335,3053,3027,3130,3119,3211,2820,3383,3388,3219,3339,3098,3325,3357,3161
1508405199931201130,149,1508405199930816734,plot_matl,0.25,-4000.0,0.232370436192,0.00685978354886,-0.0176295656711,-68.9641647339,0.349065840244,0.0296885911375,-0.00101259537041,0.232426434755,0.0166627820581,0.0166627820581,-0.00638285512105,0.00576314656064,-68.7420349121,-68.7420349121,0.200132668018,86.7670059204,2019,2058,2112,2032,2032,2708,3310,3333,3136,3279,2993,2957,3042,3067,3152,2901,3368,3363,3196,3262,2910,3265,3291,3007,0.010014774,1.490021619,1.492201326,0.401425719261,4500.0,0.37740495801,0.00756444595754,-0.024020768702,108.093460083,0.0,6000.0,-0.000968209467828,-0.00727056153119,0.0,0.0,0.349065840244,0.0216827709228,0.00453916378319,0.295289337635,-0.000824899529107,-0.000824899529107,0.000385932362406,-0.0270947478712,150.08770752,150.08770752,-0.593844592571,-0.183632194996,2020,2024,2560,2037,2037,2899,3402,3402,3213,3334,3053,3025,3130,3119,3211,2820,3383,3388,3219,3339,3098,3325,3357,3161
1508405199941213157,150,1508405199940822171,plot_matl,0.25,-4000.0,0.232468277216,0.00484767230228,-0.0175317209214,-68.8534698486,0.349065840244,0.0296885911375,-0.00101259537041,0.232426434755,0.0166627820581,0.0166627820581,-0.00638285512105,0.00576314656064,-68.7420349121,-68.7420349121,0.200132668018,86.7670059204,2015,2058,2112,2032,2032,2708,3310,3333,3136,3279,2993,2957,3042,3069,3152,2899,3368,3363,3198,3263,2911,3264,3292,3009,0.010006323,1.500027765,1.50094845,0.401425719261,4500.0,0.37740495801,0.00895168725401,-0.024020768702,108.093460083,0.0,6000.0,-0.000961356097832,0.00613611284643,0.0,0.0,0.349065840244,0.0216827709228,0.00453916378319,0.295289337635,-0.000824899529107,-0.000824899529107,0.000385932362406,-0.0270947478712,150.08770752,150.08770752,-0.593844592571,-0.183632194996,2024,2030,2560,2037,2037,2899,3402,3402,3213,3334,3053,3025,3130,3121,3212,2821,3385,3388,3218,3337,3097,3327,3358,3158
1508405199951236800,151,1508405199950809216,plot_matl,0.25,-4000.0,0.232439592481,0.00537229981273,-0.0175604149699,-68.9289016724,0.349065840244,0.0283391084522,-0.000961414712947,0.232434108853,0.00524879153818,0.00524879153818,-0.00728485640138,0.00548074115068,-69.0672531128,-69.0672531128,-0.115396790206,86.9705734253,2028,2033,2112,2030,2030,2708,3310,3332,3136,3279,2993,2956,3042,3069,3152,2899,3368,3363,3198,3263,2911,3264,3292,3009,0.009987796,1.510015371,1.508157196,0.401425719261,4500.0,0.37740495801,0.0102898795158,-0.024020768702,108.093460083,0.0,6000.0,-0.000968686304986,-0.00714071886614,0.0,0.0,0.349065840244,0.0216827709228,0.00454713683575,0.295179158449,0.00141602056101,0.00141602056101,0.000177767447894,-0.0244717858732,149.881912231,149.881912231,-0.757832825184,-0.251823425293,2038,2020,2559,2038,2038,2897,3402,3401,3215,3334,3053,3024,3130,3121,3212,2821,3385,3388,3218,3337,3097,3327,3358,3158
1508405199961276324,152,1508405199960809139,plot_matl,0.25,-4000.0,0.232383355498,0.00650238478556,-0.0176166500896,-68.8978347778,0.349065840244,0.0283391084522,-0.000961414712947,0.232434108853,0.00524879153818,0.00524879153818,-0.00728485640138,0.00548074115068,-69.0672531128,-69.0672531128,-0.115396790206,86.9705734253,2024,2050,2112,2030,2030,2708,3310,3332,3136,3279,2993,2956,3042,3068,3151,2901,3369,3363,3198,3262,2909,3263,3292,3009,0.009999538,1.520014869,1.519929776,0.401425719261,4500.0,0.37605547905,-0.016276512295,-0.0253702495247,114.166122437,0.0,6000.0,-0.000983937992714,-0.00684184208512,0.0,0.0,0.349065840244,0.0216827709228,0.00454713683575,0.295179158449,0.00141602056101,0.00141602056101,0.000177767447894,-0.0244717858732,149.881912231,149.881912231,-0.757832825184,-0.251823425293,2029,2029,2559,2038,2038,2897,3402,3401,3215,3334,3053,3024,3131,3121,3213,2821,3382,3388,3219,3337,3098,3327,3358,3158
1508405199971161488,153,1508405199970842790,plot_matl,0.25,-4000.0,0.232403948903,0.00605975557119,-0.017596045509,-69.0179214478,0.349065840244,0.0283391084522,-0.000961414712947,0.232434108853,0.00524879153818,0.00524879153818,-0.00728485640138,0.00548074115068,-69.0672531128,-69.0672531128,-0.115396790206,86.9705734253,2022,2048,2112,2029,2029,2708,3311,3332,3137,3277,2993,2956,3042,3068,3151,2901,3369,3363,3198,3262,2909,3263,3292,3010,0.010032031,1.530048153,1.534900743,0.401425719261,4500.0,0.37740495801,0.0109952921048,-0.024020768702,108.093460083,0.0,6000.0,-0.000985358725302,0.0065769138746,0.0,0.0,0.349065840244,0.0216827709228,0.00454713683575,0.295179158449,0.00141602056101,0.00141602056101,0.000177767447894,-0.0244717858732,149.881912231,149.881912231,-0.757832825184,-0.251823425293,2026,2024,2559,2034,2034,2897,3402,3400,3214,3335,3053,3024,3131,3121,3213,2821,3382,3388,3219,3337,3098,3327,3359,3159
1508405199981372735,154,1508405199980844663,plot_matl,0.25,-4000.0,0.232486978173,-0.0335210524499,-0.0175130292773,-78.4949951172,0.349065840244,0.0283391084522,-0.000961414712947,0.232434108853,0.00524879153818,0.00524879153818,-0.00728485640138,0.00548074115068,-69.0672531128,-69.0672531128,-0.115396790206,86.9705734253,2022,2048,2112,2029,2029,2708,3311,3332,3137,3277,2993,2956,3042,3068,3151,2901,3369,3363,3198,3262,2909,3263,3292,3010,0.010002895,1.540050377,1.54044583,0.401425719261,4500.0,0.37605547905,-0.0167806763202,-0.0253702495247,114.166122437,0.0,6000.0,-0.000973983027507,0.00633475137874,0.0,0.0,0.349065840244,0.0216827709228,0.00454713683575,0.295179158449,0.00141602056101,0.00141602056101,0.000177767447894,-0.0244717858732,149.881912231,149.881912231,-0.757832825184,-0.251823425293,2026,2024,2559,2034,2034,2897,3402,3400,3214,3335,3053,3024,3131,3121,3213,2821,3382,3388,3219,3337,3098,3327,3359,3159
1508405199991248729,155,1508405199990803984,plot_matl,0.25,-4000.0,0.23242379725,0.00568107469007,-0.0175761990249,-68.9132232666,0.349065840244,0.0269896276295,-0.000984114944004,0.232418000698,-0.00800838693976,-0.00800838693976,-0.00689721666276,0.00579594215378,-68.6235809326,-68.6235809326,0.375336706638,86.2960891724,2012,2055,2112,2028,2028,2708,3313,3332,3137,3277,2993,2957,3042,3066,3150,2901,3368,3363,3198,3263,2911,3262,3289,3010,0.00995848,1.550009458,1.5435644,0.401425719261,4500.0,0.37605547905,-0.0156993437558,-0.0253702495247,114.166122437,0.0,6000.0,-0.000990948756225,-0.00676052318886,0.0,0.0,0.349065840244,0.0216827709228,0.00457464111969,0.29536524415,0.00288314162754,0.00288314162754,-0.000368563312804,0.0333856754005,149.873336792,149.873336792,-0.48514008522,0.129257112741,2024,2032,2559,2037,2037,2898,3403,3401,3214,3335,3053,3024,3129,3118,3209,2820,3382,3388,3217,3337,3098,3325,3358,3159
1508405200001085992,156,1508405200000803158,plot_matl,0.25,-4000.0,0.232405364513,0.00609074532986,-0.0175946354866,-68.8971481323,0.349065840244,0.0269896276295,-0.000984114944004,0.232418000698,-0.00800838693976,-0.00800838693976,-0.00689721666276,0.00579594215378,-68.6235809326,-68.6235809326,0.375336706638,86.2960891724,2008,2046,2112,2028,2028,2708,3313,3332,3138,3278,2991,2958,3043,3068,3150,2900,3369,3362,3198,3263,2911,3262,3289,3010,0.00999805,1.560008575,1.5596958,0.401425719261,4500.0,0.37605547905,-0.013354729861,-0.0253702495247,114.166122437,0.0,6000.0,-0.00099124875851,-0.00676174834371,0.0,0.0,0.349065840244,0.0216827709228,0.00457464111969,0.29536524415,0.00288314162754,0.00288314162754,-0.000368563312804,0.0333856754005,149.873336792,149.873336792,-0.48514008522,0.129257112741,2025,2028,2559,2037,2037,2898,3403,3401,3213,3335,3054,3024,3128,3121,3211,2821,3382,3389,3217,3337,3098,3325,3358,3159
1508405200011341531,157,1508405200010886920,plot_matl,0.25,-4000.0,0.232424423099,0.00570183061063,-0.0175755750388,-68.9190979004,0.349065840244,0.0269896276295,-0.000984114944004,0.232418000698,-0.00800838693976,-0.00800838693976,-0.00689721666276,0.00579594215378,-68.6235809326,-68.6235809326,0.375336706638,86.2960891724,2024,2061,2112,2028,2028,2709,3313,3332,3138,3278,2991,2958,3043,3068,3150,2900,3369,3362,3196,3261,2911,3262,3290,3008,0.010083827,1.570092379,1.583160839,0.401425719261,4500.0,0.37740495801,0.0128936469555,-0.024020768702,108.093460083,0.0,6000.0,-0.00100454466883,0.00692791491747,0.0,0.0,0.349065840244,0.0216827709228,0.00457464111969,0.29536524415,0.00288314162754,0.00288314162754,-0.000368563312804,0.0333856754005,149.873336792,149.873336792,-0.48514008522,0.129257112741,2028,2029,2559,2033,2033,2898,3403,3401,3213,3335,3054,3024,3128,3121,3211,2821,3382,3389,3219,3338,3099,3324,3358,3161
1508405200021173544,158,1508405200020807775,plot_matl,0.25,-4000.0,0.232438102365,0.0053893267177,-0.017561905086,-68.966758728,0.349065840244,0.0269896276295,-0.000984114944004,0.232418000698,-0.00800838693976,-0.00800838693976,-0.00689721666276,0.00579594215378,-68.6235809326,-68.6235809326,0.375336706638,86.2960891724,2027,2059,2112,2028,2028,2709,3308,3332,3137,3280,2994,2958,3041,3065,3152,2902,3369,3362,3196,3261,2911,3262,3290,3008,0.009921445,1.580013814,1.56758831,0.401425719261,4500.0,0.37740495801,0.0130470609292,-0.024020768702,108.093460083,0.0,6000.0,-0.000989779829979,0.00663443049416,0.0,0.0,0.349065840244,0.0216827709228,0.00457464111969,0.29536524415,0.00288314162754,0.00288314162754,-0.000368563312804,0.0333856754005,149.873336792,149.873336792,-0.48514008522,0.129257112741,2028,2025,2559,2033,2033,2898,3403,3401,3213,3334,3052,3026,3129,3119,3211,2820,3382,3389,3219,3338,3099,3324,3358,3161
1508405200031159260,159,1508405200030793095,plot_matl,0.25,-4000.0,0.232449948788,0.00516145443544,-0.0175500493497,-69.0425415039,0.349065840244,0.0269896276295,-0.00099750875961,0.232445120811,-0.00768157374114,-0.00768157374114,-0.00664924224839,-0.0326232612133,-68.2565917969,-68.2565917969,0.451692819595,86.5705871582,2030,2074,2112,2029,2029,2709,3308,3332,3137,3280,2994,2958,3041,3065,3152,2902,3370,3363,3199,3262,2910,3265,3292,3010,0.009983121,1.589998253,1.587316239,0.401425719261,4500.0,0.37740495801,0.011659681797,-0.024020768702,108.093460083,0.0,6000.0,-0.000991456676275,0.00663978094235,0.0,0.0,0.349065840244,0.0216827709228,0.00452576950192,0.295265287161,0.00291982246563,0.00291982246563,0.000642736849841,-0.0264551751316,149.903381348,149.903381348,-0.475243061781,-0.213073045015,2028,2033,2558,2040,2040,2898,3403,3401,3213,3334,3052,3026,3129,3119,3211,2820,3384,3390,3219,3338,3098,3327,3357,3160
1508405200041228972,160,1508405200040808128,plot_matl,0.25,-4000.0,0.23243445158,0.00550075108185,-0.0175655446947,-68.9084472656,0.349065840244,0.0269896276295,-0.00099750875961,0.232445120811,-0.00768157374114,-0.00768157374114,-0.00664924224839,-0.0326232612133,-68.2565917969,-68.2565917969,0.451692819595,86.5705871582,2027,2068,2112,2029,2029,2709,3311,3331,3135,3277,2993,2957,3042,3066,3152,2902,3370,3363,3199,3262,2910,3265,3292,3010,0.010016591,1.600013963,1.60265456,0.401425719261,4500.0,0.37605547905,-0.015646154061,-0.0253702495247,114.166122437,0.0,6000.0,-0.000968738342635,0.00616762880236,0.0,0.0,0.349065840244,0.0216827709228,0.00452576950192,0.295265287161,0.00291982246563,0.00291982246563,0.000642736849841,-0.0264551751316,149.903381348,149.903381348,-0.475243061781,-0.213073045015,2023,2030,2558,2040,2040,2898,3401,3401,3214,3333,3054,3025,3129,3119,3211,2820,3384,3390,3219,3338,3098,3327,3357,3160
1508405200050970059,161,1508405200050777785,plot_matl,0.25,-4000.0,0.232448533177,0.00520952651277,-0.0175514668226,-68.9392089844,0.349065840244,0.0269896276295,-0.00099750875961,0.232445120811,-0.00768157374114,-0.00768157374114,-0.00664924224839,-0.0326232612133,-68.2565917969,-68.2565917969,0.451692819595,86.5705871582,2027,2068,2112,2029,2029,2709,3311,3331,3135,3277,2993,2957,3042,3066,3153,2899,3369,3361,3195,3262,2910,3265,3288,3010,0.00996588,1.609982055,1.60450668,0.401425719261,4500.0,0.37605547905,-0.0132721411064,-0.0253702495247,114.166122437,0.0,6000.0,-0.000997923198156,-0.00666503654793,0.0,0.0,0.349065840244,0.0216827709228,0.00452576950192,0.295265287161,0.00291982246563,0.00291982246563,0.000642736849841,-0.0264551751316,149.903381348,149.903381348,-0.475243061781,-0.213073045015,2031,2032,2558,2040,2040,2898,3401,3401,3214,3333,3054,3025,3129,3119,3211,2819,3382,3390,3219,3339,3099,3328,3358,3160
1508405200061125495,162,1508405200060818394,plot_matl,0.25,-4000.0,0.232392221689,-0.0315501913428,-0.0176077820361,-78.0787582397,0.349065840244,0.0269896276295,-0.00099750875961,0.232445120811,-0.00768157374114,-0.00768157374114,-0.00664924224839,-0.0326232612133,-68.2565917969,-68.2565917969,0.451692819595,86.5705871582,2020,2056,2112,2030,2030,2708,3311,3333,3137,3279,2993,2958,3042,3066,3153,2899,3369,3361,3195,3262,2910,3265,3288,3010,0.010042564,1.620024109,1.626895368,0.401425719261,4500.0,0.37605547905,-0.0123227909207,-0.0253702495247,114.166122437,0.0,6000.0,-0.000971304776613,0.00623393477872,0.0,0.0,0.349065840244,0.0216827709228,0.00452576950192,0.295265287161,0.00291982246563,0.00291982246563,0.000642736849841,-0.0264551751316,149.903381348,149.903381348,-0.475243061781,-0.213073045015,2022,2023,2560,2033,2033,2899,3403,3399,3212,3335,3054,3023,3129,3119,3211,2819,3382,3390,3219,3339,3099,3328,3358,3160
1508405200071210371,163,1508405200070812074,plot_matl,0.25,-4000.0,0.232376620173,0.00659374753013,-0.0176233835518,-68.8807907104,0.349065840244,0.0269896276295,-0.000980085576884,0.23236989975,-0.00636113109067,-0.00636113109067,-0.00701432209462,-0.0311839114875,-68.4712905884,-68.4712905884,0.51712012291,85.9572219849,2038,2047,2112,2030,2030,2708,3311,3333,3137,3279,2993,2958,3040,3067,3152,2900,3369,3364,3195,3262,2910,3266,3288,3010,0.009991873,1.630016852,1.628675299,0.401425719261,4500.0,0.37605547905,-0.0124713145196,-0.0253702495247,114.166122437,0.0,6000.0,-0.000986966537312,-0.00687596388161,0.0,0.0,0.349065840244,0.0216827709228,0.00454967701808,0.295056372881,0.00188607210293,0.00188607210293,0.000159907227498,-0.022258207202,150.013473511,150.013473511,-0.243371903896,0.340358942747,2030,2021,2560,2033,2033,2899,3403,3399,3212,3335,3054,3023,3128,3119,3211,2819,3384,3388,3219,3337,3097,3325,3358,3160
1508405200081129497,164,1508405200080800702,plot_matl,0.25,-4000.0,0.232331112027,0.00750824576244,-0.0176688935608,-68.9488677979,0.349065840244,0.0269896276295,-0.000980085576884,0.23236989975,-0.00636113109067,-0.00636113109067,-0.00701432209462,-0.0311839114875,-68.4712905884,-68.4712905884,0.51712012291,85.9572219849,2040,2051,2112,2029,2029,2709,3312,3329,3136,3279,2993,2958,3040,3067,3152,2900,3369,3364,3195,3262,2910,3266,3291,3008,0.009990583,1.640006461,1.638455612,0.401425719261,4500.0,0.37605547905,-0.0121993981302,-0.0253702495247,114.166122437,0.0,6000.0,-0.000966467836406,0.00608988804743,0.0,0.0,0.349065840244,0.0216827709228,0.00454967701808,0.295056372881,0.00188607210293,0.00188607210293,0.000159907227498,-0.022258207202,150.013473511,150.013473511,-0.243371903896,0.340358942747,2036,2024,2559,2036,2036,2898,3402,3400,3214,3333,3054,3023,3128,3119,3211,2819,3384,3388,3219,3337,3097,3325,3360,3159
1508405200091496192,165,1508405200090869532,plot_matl,0.25,-4000.0,0.232398107648,0.00618024729192,-0.01760189794,-68.7547454834,0.349065840244,0.0269896276295,-0.000980085576884,0.23236989975,-0.00636113109067,-0.00636113109067,-0.00701432209462,-0.0311839114875,-68.4712905884,-68.4712905884,0.51712012291,85.9572219849,2030,2051,2112,2029,2029,2709,3312,3329,3136,3279,2994,2956,3042,3067,3150,2901,3370,3362,3197,3262,2910,3266,3291,3008,0.010069151,1.650075246,1.661409915,0.401425719261,4500.0,0.37605547905,-0.0109202293679,-0.0253702495247,114.166122437,0.0,6000.0,-0.000995889189653,-0.00674990192056,0.0,0.0,0.349065840244,0.0216827709228,0.00454967701808,0.295056372881,0.00188607210293,0.00188607210293,0.000159907227498,-0.022258207202,150.013473511,150.013473511,-0.243371903896,0.340358942747,2030,2029,2559,2036,2036,2898,3402,3400,3214,3333,3054,3024,3130,3121,3210,2820,3382,3389,3217,3336,3097,3325,3360,3159
