%time,field.header.seq,field.header.stamp,field.header.frame_id,field.FFJ4_set_point,field.FFJ4_position_gain,field.FFJ4_process_value,field.FFJ4_process_value_dot,field.FFJ4_error,field.FFJ4_command,field.FFJ1,field.FFJ2,field.FFJ3,field.FFJ4,field.FFJ1_dot,field.FFJ2_dot,field.FFJ3_dot,field.FFJ4_dot,field.FFJ1_tao,field.FFJ2_tao,field.FFJ3_tao,field.FFJ4_tao,field.pac0,field.pac1,field.pdc0,field.tac0,field.tdc0,field.el0,field.el1,field.el2,field.el3,field.el4,field.el5,field.el6,field.el7,field.el8,field.el9,field.el10,field.el11,field.el12,field.el13,field.el14,field.el15,field.el16,field.el17,field.el18,field.dt,field.time,field.test_time2,field.FFJ0_set_point,field.FFJ0_position_gain,field.FFJ0_process_value,field.FFJ0_process_value_dot,field.FFJ0_error,field.FFJ0_command,field.FFJ3_set_point,field.FFJ3_position_gain,field.FFJ3_process_value,field.FFJ3_process_value_dot,field.FFJ3_error,field.FFJ3_command,field.MFJ1,field.MFJ2,field.MFJ3,field.MFJ4,field.MFJ1_dot,field.MFJ2_dot,field.MFJ3_dot,field.MFJ4_dot,field.MFJ1_tao,field.MFJ2_tao,field.MFJ3_tao,field.MFJ4_tao,field.Mpac0,field.Mpac1,field.Mpdc0,field.Mtac0,field.Mtdc0,field.Mel0,field.Mel1,field.Mel2,field.Mel3,field.Mel4,field.Mel5,field.Mel6,field.Mel7,field.Mel8,field.Mel9,field.Mel10,field.Mel11,field.Mel12,field.Mel13,field.Mel14,field.Mel15,field.Mel16,field.Mel17,field.Mel18
1508400999738153527,158,1508400999737634195,plot_matl,0.25,-4000.0,0.234421342611,0.0033287096303,-0.0155786545947,-61.5321273804,0.349065840244,0.0796194002032,-0.00232176296413,0.234731286764,0.00543498760089,0.00543498760089,-0.00678006792441,-0.00296135712415,-76.3892669678,-76.3892669678,-1.08430063725,88.1226043701,2031,2048,2111,2023,2023,2696,3313,3336,3139,3287,2998,2977,3054,3086,3163,2936,3385,3378,3214,3278,2928,3274,3302,3019,0.010011528,1.579959563,1.581821424,0.453785598278,4500.0,0.427335768938,-0.0130540495738,-0.0264498349279,119.024261475,0.0,6000.0,-0.00240956433117,-0.00502318050712,0.0,0.0,0.349065840244,0.0240919683129,-0.00183392106555,0.314568221569,0.0024927360937,0.0024927360937,-0.00896529760212,-0.0453277379274,111.502815247,111.502815247,0.544325709343,1.10512256622,2027,2023,2546,2038,2038,2929,3423,3420,3237,3354,3080,3055,3158,3150,3238,2861,3409,3413,3249,3362,3130,3350,3380,3183
1508400999748074582,159,1508400999747636168,plot_matl,0.25,-4000.0,0.234424769878,0.0411997251213,-0.0155752236024,-52.293548584,0.349065840244,0.0796194002032,-0.00232176296413,0.234731286764,0.00543498760089,0.00543498760089,-0.00678006792441,-0.00296135712415,-76.3892669678,-76.3892669678,-1.08430063725,88.1226043701,2019,2054,2111,2023,2023,2696,3314,3336,3142,3288,2998,2976,3053,3085,3165,2935,3385,3378,3214,3278,2928,3274,3302,3019,0.01000058,1.589960745,1.59009222,0.453785598278,4500.0,0.428685247898,0.0111398790032,-0.0251003541052,112.951591492,0.0,6000.0,-0.00244167726487,-0.0043721483089,0.0,0.0,0.349065840244,0.0240919683129,-0.00183392106555,0.314568221569,0.0024927360937,0.0024927360937,-0.00896529760212,-0.0453277379274,111.502815247,111.502815247,0.544325709343,1.10512256622,2023,2021,2546,2038,2038,2929,3422,3421,3238,3357,3079,3055,3159,3150,3240,2860,3409,3413,3249,3362,3130,3350,3380,3183
1508400999758118315,160,1508400999757655285,plot_matl,0.25,-4000.0,0.234491363168,0.00195326050743,-0.0155086349696,-61.5474395752,0.349065840244,0.0796194002032,-0.00232176296413,0.234731286764,0.00543498760089,0.00543498760089,-0.00678006792441,-0.00296135712415,-76.3892669678,-76.3892669678,-1.08430063725,88.1226043701,2011,2062,2111,2024,2024,2696,3314,3336,3142,3288,2998,2976,3053,3085,3165,2935,3385,3378,3216,3278,2929,3275,3302,3019,0.010018359,1.599979673,1.60293744,0.453785598278,4500.0,0.427335768938,-0.0170932468027,-0.0264498349279,119.024261475,0.0,6000.0,-0.00242128339596,-0.00476903747767,0.0,0.0,0.349065840244,0.0240919683129,-0.00183392106555,0.314568221569,0.0024927360937,0.0024927360937,-0.00896529760212,-0.0453277379274,111.502815247,111.502815247,0.544325709343,1.10512256622,2020,2028,2546,2041,2041,2929,3422,3421,3238,3357,3079,3055,3159,3150,3240,2860,3408,3413,3247,3361,3129,3350,3381,3182
1508400999767837310,161,1508400999767617873,plot_matl,0.25,-4000.0,0.234379813075,-0.0336162596941,-0.0156201831996,-70.0823745728,0.349065840244,0.0796194002032,-0.00232176296413,0.234731286764,0.00543498760089,0.00543498760089,-0.00678006792441,-0.00296135712415,-76.3892669678,-76.3892669678,-1.08430063725,88.1226043701,2002,2064,2111,2024,2024,2697,3313,3336,3140,3287,2998,2975,3055,3086,3165,2935,3385,3378,3216,3278,2929,3275,3302,3019,0.009962465,1.609942514,1.603956865,0.453785598278,4500.0,0.428685247898,0.00783633068204,-0.0251003541052,112.951591492,0.0,6000.0,-0.00239118048921,0.00803585071117,0.0,0.0,0.349065840244,0.0240919683129,-0.00183392106555,0.314568221569,0.0024927360937,0.0024927360937,-0.00896529760212,-0.0453277379274,111.502815247,111.502815247,0.544325709343,1.10512256622,2021,2033,2546,2041,2041,2930,3423,3420,3236,3358,3079,3056,3159,3150,3240,2860,3408,3413,3247,3361,3129,3350,3381,3182
1508400999778032421,162,1508400999777632086,plot_matl,0.25,-4000.0,0.2343454808,-0.0329240262508,-0.015654515475,-70.5211868286,0.349065840244,0.0782699212432,-0.00239459518343,0.234437331557,-0.00707375537604,-0.00707375537604,-0.00531353289261,0.0030355269555,-76.5507888794,-76.5507888794,-0.884013235569,87.5528869629,2014,2063,2111,2024,2024,2697,3313,3336,3140,3287,2998,2975,3055,3086,3164,2937,3386,3380,3217,3277,2929,3278,3302,3020,0.010013991,1.619956687,1.622266542,0.453785598278,4500.0,0.427335768938,-0.0203550904989,-0.0264498349279,119.024261475,0.0,6000.0,-0.00237978785299,0.00779661303386,0.0,0.0,0.349065840244,0.0240919683129,-0.00176485336851,0.314100146294,0.00302175967954,0.00302175967954,0.00497716013342,0.0259644147009,111.287895203,111.287895203,0.647567212582,0.474449336529,2023,2033,2546,2041,2041,2930,3423,3420,3236,3358,3079,3056,3159,3150,3239,2860,3408,3413,3247,3362,3129,3351,3381,3185
1508400999788172374,163,1508400999787677151,plot_matl,0.25,-4000.0,0.234384864569,0.00419150060043,-0.0156151391566,-61.4901771545,0.349065840244,0.0782699212432,-0.00239459518343,0.234437331557,-0.00707375537604,-0.00707375537604,-0.00531353289261,0.0030355269555,-76.5507888794,-76.5507888794,-0.884013235569,87.5528869629,2026,2061,2111,2028,2028,2696,3312,3336,3140,3287,2999,2977,3055,3086,3164,2937,3386,3380,3217,3277,2929,3278,3302,3020,0.0100468,1.630002465,1.6376284,0.453785598278,4500.0,0.428685247898,0.00569681450725,-0.0251003541052,112.951591492,0.0,6000.0,-0.00233364035375,-0.00654942402616,0.0,0.0,0.349065840244,0.0240919683129,-0.00176485336851,0.314100146294,0.00302175967954,0.00302175967954,0.00497716013342,0.0259644147009,111.287895203,111.287895203,0.647567212582,0.474449336529,2030,2031,2546,2042,2042,2932,3422,3418,3236,3356,3078,3056,3159,3150,3239,2860,3408,3413,3247,3362,3129,3351,3381,3185
1508400999798183729,164,1508400999797644895,plot_matl,0.25,-4000.0,0.234319120646,0.00551386456937,-0.0156808737665,-61.4983444214,0.349065840244,0.0782699212432,-0.00239459518343,0.234437331557,-0.00707375537604,-0.00707375537604,-0.00531353289261,0.0030355269555,-76.5507888794,-76.5507888794,-0.884013235569,87.5528869629,2037,2057,2111,2028,2028,2696,3312,3336,3140,3287,2999,2977,3054,3085,3165,2936,3386,3379,3214,3277,2929,3276,3302,3020,0.009966294,1.639969634,1.634472216,0.453785598278,4500.0,0.428685247898,0.00619813008234,-0.0251003541052,112.951591492,0.0,6000.0,-0.00235742772929,-0.00609232624993,0.0,0.0,0.349065840244,0.0240919683129,-0.00176485336851,0.314100146294,0.00302175967954,0.00302175967954,0.00497716013342,0.0259644147009,111.287895203,111.287895203,0.647567212582,0.474449336529,2034,2030,2546,2042,2042,2932,3422,3418,3236,3356,3078,3056,3159,3151,3240,2861,3407,3414,3247,3361,3130,3352,3381,3185
1508400999808057501,165,1508400999807659409,plot_matl,0.25,-4000.0,0.234303116798,0.00584096414968,-0.0156968869269,-61.386428833,0.349065840244,0.0782699212432,-0.00239459518343,0.234437331557,-0.00707375537604,-0.00707375537604,-0.00531353289261,0.0030355269555,-76.5507888794,-76.5507888794,-0.884013235569,87.5528869629,2026,2036,2110,2027,2027,2696,3314,3337,3139,3284,2999,2977,3054,3085,3165,2936,3386,3379,3214,3277,2929,3276,3301,3019,0.010015116,1.649984993,1.65249414,0.453785598278,4500.0,0.427335768938,-0.0196341983974,-0.0264498349279,119.024261475,0.0,6000.0,-0.00236389157362,0.00746200280264,0.0,0.0,0.349065840244,0.0240919683129,-0.00176485336851,0.314100146294,0.00302175967954,0.00302175967954,0.00497716013342,0.0259644147009,111.287895203,111.287895203,0.647567212582,0.474449336529,2026,2021,2545,2041,2041,2931,3421,3419,3237,3356,3078,3056,3159,3151,3240,2861,3407,3414,3247,3361,3130,3352,3379,3185
1508400999818074374,166,1508400999817633344,plot_matl,0.25,-4000.0,0.234321504831,0.00540988892317,-0.0156784951687,-61.478931427,0.349065840244,0.0809688791633,-0.00237558968365,0.234387949109,0.0173935797065,0.0173935797065,0.00772089371458,0.0041371062398,-76.7000732422,-76.7000732422,-0.969780743122,87.176109314,2021,2051,2110,2027,2027,2696,3314,3337,3139,3284,3001,2976,3057,3086,3164,2937,3383,3378,3218,3277,2929,3276,3301,3019,0.009971554,1.659957896,1.655277964,0.453785598278,4500.0,0.428685247898,0.00823161564767,-0.0251003541052,112.951591492,0.0,6000.0,-0.00234579527751,0.00710513629019,0.0,0.0,0.349065840244,0.0240919683129,-0.00179968005978,0.314001202583,0.0043193702586,0.0043193702586,-0.00967956054956,0.0279443990439,111.209007263,111.209007263,0.388211876154,0.519118189812,2029,2028,2545,2041,2041,2931,3421,3419,3237,3356,3079,3056,3158,3148,3239,2860,3407,3413,3246,3362,3130,3352,3379,3185
1508400999828277388,167,1508400999827686809,plot_matl,0.25,-4000.0,0.234339877963,0.00507861329243,-0.015660116449,-61.3793296814,0.349065840244,0.0809688791633,-0.00237558968365,0.234387949109,0.0173935797065,0.0173935797065,0.00772089371458,0.0041371062398,-76.7000732422,-76.7000732422,-0.969780743122,87.176109314,2031,2065,2111,2026,2026,2696,3314,3337,3139,3284,3001,2976,3057,3086,3164,2937,3383,3378,3218,3277,2929,3276,3303,3021,0.010055254,1.670012092,1.679227418,0.453785598278,4500.0,0.427335768938,-0.0174892731011,-0.0264498349279,119.024261475,0.0,6000.0,-0.00234346440993,0.00702148955315,0.0,0.0,0.349065840244,0.0240919683129,-0.00179968005978,0.314001202583,0.0043193702586,0.0043193702586,-0.00967956054956,0.0279443990439,111.209007263,111.209007263,0.388211876154,0.519118189812,2030,2032,2546,2041,2041,2930,3424,3421,3237,3356,3079,3056,3158,3148,3239,2860,3407,3413,3246,3362,3131,3352,3380,3182
1508400999838051189,168,1508400999837646717,plot_matl,0.25,-4000.0,0.234310373664,0.00555265042931,-0.0156896188855,-61.5137062073,0.349065840244,0.0809688791633,-0.00237558968365,0.234387949109,0.0173935797065,0.0173935797065,0.00772089371458,0.0041371062398,-76.7000732422,-76.7000732422,-0.969780743122,87.176109314,2014,2055,2111,2026,2026,2696,3314,3337,3141,3287,2999,2977,3054,3086,3164,2938,3385,3378,3218,3277,2929,3276,3303,3021,0.009958109,1.679971574,1.672962312,0.453785598278,4500.0,0.427335768938,-0.0172920804471,-0.0264498349279,119.024261475,0.0,6000.0,-0.00233924365602,0.00696240086108,0.0,0.0,0.349065840244,0.0240919683129,-0.00179968005978,0.314001202583,0.0043193702586,0.0043193702586,-0.00967956054956,0.0279443990439,111.209007263,111.209007263,0.388211876154,0.519118189812,2024,2026,2546,2041,2041,2930,3424,3421,3235,3356,3079,3054,3158,3150,3241,2859,3408,3415,3246,3362,3131,3352,3380,3182
1508400999848257345,169,1508400999847679590,plot_matl,0.25,-4000.0,0.23443031311,0.00318297022022,-0.015569685027,-61.5046539307,0.349065840244,0.0809688791633,-0.00237558968365,0.234387949109,0.0173935797065,0.0173935797065,0.00772089371458,0.0041371062398,-76.7000732422,-76.7000732422,-0.969780743122,87.176109314,2024,2061,2111,2027,2027,2696,3314,3337,3141,3287,2999,2977,3054,3086,3164,2938,3385,3378,3215,3276,2929,3274,3301,3021,0.010034141,1.690004934,1.695769829,0.453785598278,4500.0,0.427335768938,-0.0155392037705,-0.0264498349279,119.024261475,0.0,6000.0,-0.00232606078498,-0.0067121675238,0.0,0.0,0.349065840244,0.0240919683129,-0.00179968005978,0.314001202583,0.0043193702586,0.0043193702586,-0.00967956054956,0.0279443990439,111.209007263,111.209007263,0.388211876154,0.519118189812,2026,2028,2546,2039,2039,2931,3424,3421,3235,3356,3079,3054,3158,3150,3241,2859,3408,3415,3248,3360,3130,3350,3381,3182
1508400999858287367,170,1508400999857688264,plot_matl,0.25,-4000.0,0.234357535839,0.00464635249227,-0.0156424641609,-61.4448699951,0.349065840244,0.0796194002032,-0.00234898016788,0.234314545989,0.00366154313087,0.00366154313087,0.00716167828068,0.00560588156804,-76.5709457397,-76.5709457397,-0.863541901112,87.4050445557,2020,2052,2111,2027,2027,2696,3312,3336,3141,3286,3000,2975,3055,3086,3165,2936,3385,3378,3215,3276,2929,3274,3301,3021,0.010008077,1.700013347,1.70137309,0.453785598278,4500.0,0.428685247898,0.0111139649525,-0.0251003541052,112.951591492,0.0,6000.0,-0.00233854353428,0.00694055156782,0.0,0.0,0.349065840244,0.0240919683129,-0.00178574840538,0.313941568136,0.00445687910542,0.00445687910542,-0.00996810104698,-0.0326351560652,111.360443115,111.360443115,0.07345674932,0.148475393653,2021,2020,2546,2039,2039,2931,3421,3418,3237,3357,3080,3056,3157,3148,3238,2861,3408,3415,3248,3360,3130,3350,3381,3182
1508400999868193523,171,1508400999867681718,plot_matl,0.25,-4000.0,0.234537765384,0.0388777256012,-0.0154622327536,-52.0382957458,0.349065840244,0.0796194002032,-0.00234898016788,0.234314545989,0.00366154313087,0.00366154313087,0.00716167828068,0.00560588156804,-76.5709457397,-76.5709457397,-0.863541901112,87.4050445557,2004,2050,2112,2025,2025,2696,3312,3336,3141,3286,3000,2975,3055,3086,3165,2936,3387,3377,3215,3277,2928,3275,3303,3021,0.009993173,1.710007031,1.708832583,0.453785598278,4500.0,0.428685247898,0.011450542137,-0.0251003541052,112.951591492,0.0,6000.0,-0.00234651425853,0.00711892032996,0.0,0.0,0.349065840244,0.0240919683129,-0.00178574840538,0.313941568136,0.00445687910542,0.00445687910542,-0.00996810104698,-0.0326351560652,111.360443115,111.360443115,0.07345674932,0.148475393653,2019,2024,2546,2041,2041,2931,3421,3418,3237,3357,3080,3056,3157,3148,3238,2861,3408,3414,3248,3362,3130,3351,3380,3183
1508400999878160036,172,1508400999877649464,plot_matl,0.25,-4000.0,0.234507858753,0.00152502104174,-0.0154921365902,-61.5579147339,0.349065840244,0.0796194002032,-0.00234898016788,0.234314545989,0.00366154313087,0.00366154313087,0.00716167828068,0.00560588156804,-76.5709457397,-76.5709457397,-0.863541901112,87.4050445557,2021,2059,2112,2025,2025,2696,3313,3337,3142,3284,2999,2976,3055,3087,3165,2936,3387,3377,3215,3277,2928,3275,3303,3021,0.009967696,1.719974847,1.714443712,0.453785598278,4500.0,0.428685247898,0.0103077404201,-0.0251003541052,112.951591492,0.0,6000.0,-0.00233107921667,0.00682086776942,0.0,0.0,0.349065840244,0.0240919683129,-0.00178574840538,0.313941568136,0.00445687910542,0.00445687910542,-0.00996810104698,-0.0326351560652,111.360443115,111.360443115,0.07345674932,0.148475393653,2029,2028,2546,2041,2041,2931,3421,3421,3237,3356,3077,3056,3159,3150,3238,2861,3408,3414,3248,3362,3130,3351,3380,3183
1508400999887776163,173,1508400999887625840,plot_matl,0.25,-4000.0,0.234523624182,0.00126301124692,-0.0154763814062,-61.5994949341,0.349065840244,0.0796194002032,-0.00234898016788,0.234314545989,0.00366154313087,0.00366154313087,0.00716167828068,0.00560588156804,-76.5709457397,-76.5709457397,-0.863541901112,87.4050445557,2012,2051,2112,2025,2025,2696,3313,3337,3142,3284,2999,2976,3055,3087,3164,2937,3384,3376,3214,3277,2930,3277,3302,3022,0.009973241,1.729949963,1.725370693,0.453785598278,4500.0,0.427335768938,-0.0178112536669,-0.0264498349279,119.024261475,0.0,6000.0,-0.00233237608336,-0.00657650828362,0.0,0.0,0.349065840244,0.0240919683129,-0.00178574840538,0.313941568136,0.00445687910542,0.00445687910542,-0.00996810104698,-0.0326351560652,111.360443115,111.360443115,0.07345674932,0.148475393653,2023,2027,2546,2041,2041,2931,3421,3421,3237,3356,3077,3056,3159,3150,3238,2862,3409,3413,3248,3362,3130,3350,3381,3182
1508400999898236194,174,1508400999897695997,plot_matl,0.25,-4000.0,0.234437435865,0.00301229162142,-0.0155625576153,-61.567073822,0.349065840244,0.0796194002032,-0.00232703494839,0.234397545457,0.00562461698428,0.00562461698428,-0.00670945784077,-0.03408389166,-76.3367614746,-76.3367614746,-0.99029135704,87.6059951782,2009,2062,2111,2024,2024,2696,3313,3336,3141,3286,3001,2974,3055,3087,3164,2937,3384,3376,3214,3277,2930,3277,3302,3022,0.010072594,1.740021541,1.752631356,0.453785598278,4500.0,0.428685247898,0.0101654082537,-0.0251003541052,112.951591492,0.0,6000.0,-0.00235331081785,0.00728317862377,0.0,0.0,0.349065840244,0.0216827709228,-0.00179664010648,0.313971966505,-0.0179607700557,-0.0179607700557,-0.00973540265113,-0.0332711040974,111.317672729,111.317672729,-0.0445346534252,0.561277806759,2018,2029,2546,2039,2039,2931,3422,3420,3236,3357,3078,3056,3159,3150,3238,2862,3409,3413,3248,3362,3130,3350,3381,3182
1508400999908249169,175,1508400999907690749,plot_matl,0.25,-4000.0,0.234434202313,0.00308842398226,-0.0155657939613,-61.5150756836,0.349065840244,0.0796194002032,-0.00232703494839,0.234397545457,0.00562461698428,0.00562461698428,-0.00670945784077,-0.03408389166,-76.3367614746,-76.3367614746,-0.99029135704,87.6059951782,2032,2073,2111,2024,2024,2696,3313,3336,3141,3286,3001,2974,3055,3085,3163,2935,3385,3379,3216,3278,2930,3276,3302,3022,0.009994486,1.750015997,1.74903505,0.453785598278,4500.0,0.427335768938,-0.0174198355526,-0.0264498349279,119.024261475,0.0,6000.0,-0.00237214169465,0.00765929091722,0.0,0.0,0.349065840244,0.0216827709228,-0.00179664010648,0.313971966505,-0.0179607700557,-0.0179607700557,-0.00973540265113,-0.0332711040974,111.317672729,111.317672729,-0.0445346534252,0.561277806759,2032,2035,2546,2039,2039,2931,3422,3420,3236,3357,3078,3056,3158,3148,3238,2862,3411,3415,3246,3362,3129,3351,3381,3182
1508400999917875584,176,1508400999917644794,plot_matl,0.25,-4000.0,0.234367191792,0.00443373247981,-0.0156328119338,-61.489238739,0.349065840244,0.0796194002032,-0.00232703494839,0.234397545457,0.00562461698428,0.00562461698428,-0.00670945784077,-0.03408389166,-76.3367614746,-76.3367614746,-0.99029135704,87.6059951782,2023,2062,2111,2026,2026,2697,3314,3336,3141,3286,3001,2974,3055,3085,3163,2935,3385,3379,3216,3278,2930,3276,3304,3021,0.009952181,1.759969681,1.751583856,0.453785598278,4500.0,0.427335768938,-0.0167575012892,-0.0264498349279,119.024261475,0.0,6000.0,-0.00236372253858,0.00748639693484,0.0,0.0,0.349065840244,0.0216827709228,-0.00179664010648,0.313971966505,-0.0179607700557,-0.0179607700557,-0.00973540265113,-0.0332711040974,111.317672729,111.317672729,-0.0445346534252,0.561277806759,2023,2030,2546,2042,2042,2930,3422,3420,3236,3356,3078,3056,3158,3148,3238,2862,3411,3415,3246,3362,3129,3351,3382,3183
1508400999928002974,177,1508400999927636073,plot_matl,0.25,-4000.0,0.234303146601,0.00568953156471,-0.0156968515366,-61.3459663391,0.349065840244,0.0796194002032,-0.00232703494839,0.234397545457,0.00562461698428,0.00562461698428,-0.00670945784077,-0.03408389166,-76.3367614746,-76.3367614746,-0.99029135704,87.6059951782,2023,2054,2111,2026,2026,2697,3314,3336,3141,3286,2999,2977,3053,3085,3165,2937,3387,3378,3215,3278,2930,3276,3304,3021,0.009990522,1.769961081,1.768322394,0.453785598278,4500.0,0.430034726858,0.0368077754974,-0.0237508714199,106.878929138,0.0,6000.0,-0.00236840406433,0.00757986400276,0.0,0.0,0.349065840244,0.0216827709228,-0.00179664010648,0.313971966505,-0.0179607700557,-0.0179607700557,-0.00973540265113,-0.0332711040974,111.317672729,111.317672729,-0.0445346534252,0.561277806759,2029,2030,2546,2042,2042,2930,3422,3420,3236,3356,3079,3055,3156,3150,3238,2861,3408,3413,3248,3362,3129,3351,3382,3183
1508400999938185798,178,1508400999937651061,plot_matl,0.25,-4000.0,0.234356001019,0.042533159256,-0.0156440027058,-52.9125709534,0.349065840244,0.0796194002032,-0.00234527047724,0.234491124749,0.00480007380247,0.00480007380247,-0.00631597731262,0.00195617298596,-76.3484802246,-76.3484802246,-1.09689700603,87.5587463379,2036,2068,2110,2027,2027,2696,3313,3338,3141,3286,2999,2977,3053,3085,3165,2937,3387,3378,3215,3278,2929,3278,3301,3021,0.010016381,1.779976329,1.782915818,0.453785598278,4500.0,0.428685247898,0.0088697085157,-0.0251003541052,112.951591492,0.0,6000.0,-0.0024081391748,-0.00501216202974,0.0,0.0,0.349065840244,0.0216827709228,-0.00177895324305,0.314224094152,-0.0193177498877,-0.0193177498877,-0.0101011721417,0.0236221887171,111.391723633,111.391723633,-0.575065851212,0.447809606791,2028,2027,2545,2042,2042,2930,3420,3418,3236,3356,3079,3055,3156,3150,3238,2861,3408,3413,3248,3362,3130,3351,3381,3182
1508400999948271125,179,1508400999947684631,plot_matl,0.25,-4000.0,0.234365135431,0.00439487630501,-0.0156348645687,-61.3634223938,0.349065840244,0.0796194002032,-0.00234527047724,0.234491124749,0.00480007380247,0.00480007380247,-0.00631597731262,0.00195617298596,-76.3484802246,-76.3484802246,-1.09689700603,87.5587463379,2023,2066,2110,2027,2027,2696,3313,3338,3140,3287,3000,2976,3056,3084,3165,2935,3384,3378,3215,3278,2929,3278,3301,3021,0.010032999,1.790009699,1.795906821,0.453785598278,4500.0,0.427335768938,-0.0185758825392,-0.0264498349279,119.024261475,0.0,6000.0,-0.00241799047217,-0.00480358302593,0.0,0.0,0.349065840244,0.0216827709228,-0.00177895324305,0.314224094152,-0.0193177498877,-0.0193177498877,-0.0101011721417,0.0236221887171,111.391723633,111.391723633,-0.575065851212,0.447809606791,2023,2027,2545,2042,2042,2930,3420,3418,3236,3356,3079,3056,3158,3150,3240,2861,3408,3414,3248,3362,3130,3351,3381,3182
1508400999958209525,180,1508400999957690112,plot_matl,0.25,-4000.0,0.234366983175,0.00433874037117,-0.01563302055,-61.4610595703,0.349065840244,0.0796194002032,-0.00234527047724,0.234491124749,0.00480007380247,0.00480007380247,-0.00631597731262,0.00195617298596,-76.3484802246,-76.3484802246,-1.09689700603,87.5587463379,2023,2054,2111,2031,2031,2696,3313,3338,3140,3287,3000,2976,3056,3084,3165,2935,3384,3378,3217,3277,2928,3275,3299,3019,0.010005712,1.800015646,1.80102816,0.453785598278,4500.0,0.428685247898,0.00899054575711,-0.0251003541052,112.951591492,0.0,6000.0,-0.00237746303901,0.00777717819437,0.0,0.0,0.349065840244,0.0216827709228,-0.00177895324305,0.314224094152,-0.0193177498877,-0.0193177498877,-0.0101011721417,0.0236221887171,111.391723633,111.391723633,-0.575065851212,0.447809606791,2027,2026,2545,2038,2038,2930,3420,3418,3236,3356,3079,3056,3158,3150,3240,2861,3408,3414,3246,3364,3132,3349,3383,3181
1508400999967780402,181,1508400999967622935,plot_matl,0.25,-4000.0,0.234366983175,0.00433874037117,-0.01563302055,-61.4610595703,0.349065840244,0.0796194002032,-0.00234527047724,0.234491124749,0.00480007380247,0.00480007380247,-0.00631597731262,0.00195617298596,-76.3484802246,-76.3484802246,-1.09689700603,87.5587463379,2039,2067,2111,2031,2031,2696,3315,3333,3142,3284,3000,2976,3053,3083,3164,2936,3384,3378,3217,3277,2928,3275,3299,3019,0.009929285,1.809947381,1.797200585,0.453785598278,4500.0,0.428685247898,0.00980404112488,-0.0251003541052,112.951591492,0.0,6000.0,-0.00236812909134,0.0075603290461,0.0,0.0,0.349065840244,0.0216827709228,-0.00177895324305,0.314224094152,-0.0193177498877,-0.0193177498877,-0.0101011721417,0.0236221887171,111.391723633,111.391723633,-0.575065851212,0.447809606791,2033,2025,2545,2038,2038,2930,3423,3420,3238,3358,3079,3054,3159,3150,3237,2860,3408,3414,3246,3364,3132,3349,3383,3181
1508400999977935937,182,1508400999977637821,plot_matl,0.25,-4000.0,0.234442308545,0.00283102272078,-0.0155576979741,-61.5569458008,0.349065840244,0.0796194002032,-0.0023791026324,0.234313651919,0.00461143441498,0.00461143441498,-0.00561285251752,0.00547924498096,-76.5957717896,-76.5957717896,-1.05871629715,87.9915161133,2029,2065,2110,2030,2030,2696,3315,3333,3142,3284,3000,2976,3053,3083,3164,2936,3384,3378,3218,3276,2928,3274,3300,3019,0.0100172,1.81996322,1.8231304,0.453785598278,4500.0,0.428685247898,0.0100445393473,-0.0251003541052,112.951591492,0.0,6000.0,-0.00233642477542,-0.0064884442836,0.0,0.0,0.349065840244,0.0240919683129,-0.00179754302371,0.314242005348,0.00573014980182,0.00573014980182,0.00559085281566,-0.0387590490282,111.205093384,111.205093384,-0.761303901672,0.118666447699,2025,2026,2545,2039,2039,2930,3423,3420,3238,3358,3079,3054,3159,3150,3237,2860,3407,3413,3246,3361,3129,3350,3381,3181
1508400999988107440,183,1508400999987639128,plot_matl,0.25,-4000.0,0.234502524137,0.00165091454983,-0.0154974721372,-61.5902633667,0.349065840244,0.0796194002032,-0.0023791026324,0.234313651919,0.00461143441498,0.00461143441498,-0.00561285251752,0.00547924498096,-76.5957717896,-76.5957717896,-1.05871629715,87.9915161133,2014,2054,2110,2030,2030,2697,3314,3335,3142,3285,2999,2975,3054,3084,3164,2936,3384,3378,3218,3276,2928,3274,3300,3019,0.010009946,1.829974564,1.831820118,0.453785598278,4500.0,0.427335768938,-0.0150385247543,-0.0264498349279,119.024261475,0.0,6000.0,-0.00232257577591,0.00664631277323,0.0,0.0,0.349065840244,0.0240919683129,-0.00179754302371,0.314242005348,0.00573014980182,0.00573014980182,0.00559085281566,-0.0387590490282,111.205093384,111.205093384,-0.761303901672,0.118666447699,2025,2031,2545,2039,2039,2931,3422,3421,3236,3356,3079,3057,3157,3151,3237,2860,3407,3413,3246,3361,3129,3350,3381,3181
1508400999997761908,184,1508400999997615511,plot_matl,0.25,-4000.0,0.234555363655,0.000574707170017,-0.0154446316883,-61.6393318176,0.349065840244,0.0796194002032,-0.0023791026324,0.234313651919,0.00461143441498,0.00461143441498,-0.00561285251752,0.00547924498096,-76.5957717896,-76.5957717896,-1.05871629715,87.9915161133,2033,2070,2110,2030,2030,2697,3314,3335,3142,3285,2999,2975,3054,3084,3165,2937,3384,3377,3216,3278,2930,3274,3300,3020,0.009964258,1.839939463,1.833423472,0.453785598278,4500.0,0.428685247898,0.012001613155,-0.0251003541052,112.951591492,0.0,6000.0,-0.00231150980107,0.00639576697722,0.0,0.0,0.349065840244,0.0240919683129,-0.00179754302371,0.314242005348,0.00573014980182,0.00573014980182,0.00559085281566,-0.0387590490282,111.205093384,111.205093384,-0.761303901672,0.118666447699,2030,2034,2545,2039,2039,2931,3422,3421,3236,3356,3079,3057,3157,3151,3238,2861,3408,3413,3247,3361,3130,3350,3381,3185
1508401000007806558,185,1508401000007621765,plot_matl,0.25,-4000.0,0.234555363655,0.000574707170017,-0.0154446316883,-61.6393318176,0.349065840244,0.0796194002032,-0.0023791026324,0.234313651919,0.00461143441498,0.00461143441498,-0.00561285251752,0.00547924498096,-76.5957717896,-76.5957717896,-1.05871629715,87.9915161133,2024,2064,2110,2028,2028,2697,3315,3337,3139,3286,2999,2976,3054,3084,3165,2937,3384,3377,3216,3278,2930,3274,3300,3020,0.01000754,1.849946463,1.8513949,0.453785598278,4500.0,0.428685247898,0.012001613155,-0.0251003541052,112.951591492,0.0,6000.0,-0.00231150980107,0.00639576697722,0.0,0.0,0.349065840244,0.0240919683129,-0.00179754302371,0.314242005348,0.00573014980182,0.00573014980182,0.00559085281566,-0.0387590490282,111.205093384,111.205093384,-0.761303901672,0.118666447699,2029,2025,2546,2044,2044,2931,3421,3417,3236,3354,3078,3056,3157,3151,3238,2861,3408,3413,3247,3361,3130,3350,3381,3185
1508401000017919555,186,1508401000017625524,plot_matl,0.25,-4000.0,0.234480828047,0.00364326895215,-0.0155191645026,-61.5611877441,0.349065840244,0.0796194002032,-0.0023662999738,0.234412804246,0.00470989057794,0.00470989057794,-0.00589629961178,0.0412830263376,-76.7839050293,-76.7839050293,-1.46948695183,87.6238632202,2036,2065,2110,2028,2028,2697,3315,3337,3139,3286,2999,2976,3055,3101,3176,2945,3396,3386,3225,3284,2934,3281,3300,3020,0.010003648,1.859950467,1.860678528,0.453785598278,4500.0,0.428685247898,0.0093281455338,-0.0251003541052,112.951591492,0.0,6000.0,-0.00235092360526,0.00728211412206,0.0,0.0,0.349065840244,0.0240919683129,-0.00181999488268,0.314335614443,0.00590641284361,0.00590641284361,-0.0092928847298,0.0209306608886,111.112243652,111.112243652,-0.545195758343,-0.315827101469,2028,2028,2546,2044,2044,2931,3421,3417,3236,3354,3078,3056,3158,3163,3250,2870,3419,3421,3255,3368,3134,3357,3381,3185
1508401000028009876,187,1508401000027632494,plot_matl,0.25,-4000.0,0.23453360796,0.00233779102564,-0.0154663911089,-61.602558136,0.349065840244,0.0796194002032,-0.0023662999738,0.234412804246,0.00470989057794,0.00470989057794,-0.00589629961178,0.0412830263376,-76.7839050293,-76.7839050293,-1.46948695183,87.6238632202,2031,2072,2110,2032,2032,2699,3318,3340,3142,3288,2999,2976,3055,3101,3176,2945,3396,3386,3225,3284,2934,3281,3305,3026,0.010006544,1.869957251,1.871223728,0.453785598278,4500.0,0.428685247898,0.00856380723417,-0.0251003541052,112.951591492,0.0,6000.0,-0.00232252641581,0.00670263031498,0.0,0.0,0.349065840244,0.0240919683129,-0.00181999488268,0.314335614443,0.00590641284361,0.00590641284361,-0.0092928847298,0.0209306608886,111.112243652,111.112243652,-0.545195758343,-0.315827101469,2030,2024,2546,2037,2037,2934,3425,3424,3239,3358,3078,3056,3158,3163,3250,2870,3419,3421,3255,3368,3134,3357,3388,3188
1508401000038035516,188,1508401000037673084,plot_matl,0.25,-4000.0,0.234575599432,0.00125608651433,-0.0154244052246,-61.6420669556,0.349065840244,0.0796194002032,-0.0023662999738,0.234412804246,0.00470989057794,0.00470989057794,-0.00589629961178,0.0412830263376,-76.7839050293,-76.7839050293,-1.46948695183,87.6238632202,2015,2048,2110,2032,2032,2699,3318,3340,3142,3288,3003,2979,3056,3087,3166,2938,3387,3378,3217,3276,2934,3281,3305,3026,0.010040781,1.879998443,1.887666828,0.453785598278,4500.0,0.428685247898,0.00848516449332,-0.0251003541052,112.951591492,0.0,6000.0,-0.00234573986381,0.00715819140896,0.0,0.0,0.349065840244,0.0240919683129,-0.00181999488268,0.314335614443,0.00590641284361,0.00590641284361,-0.0092928847298,0.0209306608886,111.112243652,111.112243652,-0.545195758343,-0.315827101469,2030,2028,2546,2037,2037,2934,3425,3424,3239,3358,3083,3059,3160,3153,3240,2862,3411,3414,3250,3365,3134,3357,3388,3188
1508401000048047497,189,1508401000047646112,plot_matl,0.25,-4000.0,0.234615132213,0.000305084337015,-0.0153848743066,-61.6695251465,0.349065840244,0.0796194002032,-0.0023662999738,0.234412804246,0.00470989057794,0.00470989057794,-0.00589629961178,0.0412830263376,-76.7839050293,-76.7839050293,-1.46948695183,87.6238632202,2021,2061,2110,2028,2028,2697,3315,3336,3142,3288,3003,2979,3056,3087,3166,2938,3387,3378,3217,3276,2931,3276,3302,3021,0.009972787,1.889971521,1.884856743,0.453785598278,4500.0,0.427335768938,-0.0183713883162,-0.0264498349279,119.024261475,0.0,6000.0,-0.00231853872538,-0.00682411948219,0.0,0.0,0.349065840244,0.0240919683129,-0.00181999488268,0.314335614443,0.00590641284361,0.00590641284361,-0.0092928847298,0.0209306608886,111.112243652,111.112243652,-0.545195758343,-0.315827101469,2028,2030,2546,2039,2039,2931,3424,3419,3239,3358,3083,3059,3160,3153,3240,2862,3411,3414,3250,3365,3131,3351,3381,3182
1508401000058007891,190,1508401000057642473,plot_matl,0.25,-4000.0,0.234644338489,-0.000469307298772,-0.0153556568548,-61.7010726929,0.349065840244,0.0796194002032,-0.00236010272056,0.234474271536,0.00495170569047,0.00495170569047,0.00746104773134,-0.0340283364058,-76.3926391602,-76.3926391602,-1.9441832304,87.7204437256,2018,2059,2110,2028,2028,2697,3315,3336,3144,3286,3001,2977,3057,3086,3165,2936,3386,3377,3217,3276,2931,3276,3302,3021,0.009995388,1.899967421,1.89912372,0.453785598278,4500.0,0.427335768938,-0.0165268667042,-0.0264498349279,119.024261475,0.0,6000.0,-0.00225957902148,0.00539836892858,0.0,0.0,0.349065840244,0.0265011657029,-0.00184437166899,0.314298093319,0.0312494616956,0.0312494616956,0.00589846773073,-0.0373882502317,111.421142578,111.421142578,-0.433456748724,-0.2102175951,2027,2026,2546,2039,2039,2931,3424,3419,3239,3357,3081,3058,3159,3150,3239,2862,3409,3414,3250,3365,3131,3351,3381,3182
1508401000068230380,191,1508401000067701145,plot_matl,0.25,-4000.0,0.234637632966,-0.000413513625972,-0.0153623735532,-61.6958808899,0.349065840244,0.0796194002032,-0.00236010272056,0.234474271536,0.00495170569047,0.00495170569047,0.00746104773134,-0.0340283364058,-76.3926391602,-76.3926391602,-1.9441832304,87.7204437256,2010,2050,2110,2031,2031,2696,3315,3336,3144,3286,3001,2977,3057,3086,3165,2936,3386,3377,3218,3277,2930,3275,3302,3018,0.010059384,1.910026298,1.921342344,0.453785598278,4500.0,0.428685247898,0.0116923069581,-0.0251003541052,112.951591492,0.0,6000.0,-0.00227042310871,0.00561137823388,0.0,0.0,0.349065840244,0.0265011657029,-0.00184437166899,0.314298093319,0.0312494616956,0.0312494616956,0.00589846773073,-0.0373882502317,111.421142578,111.421142578,-0.433456748724,-0.2102175951,2030,2030,2546,2043,2043,2931,3424,3419,3239,3357,3081,3058,3159,3150,3239,2862,3409,3414,3249,3363,3129,3352,3380,3182
1508401000077828207,192,1508401000077626253,plot_matl,0.25,-4000.0,0.234766870737,0.0347807407379,-0.0152331357822,-53.5344429016,0.349065840244,0.0796194002032,-0.00236010272056,0.234474271536,0.00495170569047,0.00495170569047,0.00746104773134,-0.0340283364058,-76.3926391602,-76.3926391602,-1.9441832304,87.7204437256,2021,2055,2110,2031,2031,2696,3312,3335,3141,3287,3001,2977,3056,3085,3165,2936,3386,3377,3218,3277,2930,3275,3302,3018,0.009923054,1.919950777,1.905226368,0.453785598278,4500.0,0.428685247898,0.0115641960874,-0.0251003541052,112.951591492,0.0,6000.0,-0.00227986415848,0.00581230502576,0.0,0.0,0.349065840244,0.0265011657029,-0.00184437166899,0.314298093319,0.0312494616956,0.0312494616956,0.00589846773073,-0.0373882502317,111.421142578,111.421142578,-0.433456748724,-0.2102175951,2032,2036,2546,2043,2043,2931,3422,3419,3237,3356,3078,3055,3159,3152,3241,2861,3409,3414,3249,3363,3129,3352,3380,3182
1508401000087764088,193,1508401000087615525,plot_matl,0.25,-4000.0,0.234733998775,-0.00257165264338,-0.0152660058811,-61.787525177,0.349065840244,0.0796194002032,-0.00236010272056,0.234474271536,0.00495170569047,0.00495170569047,0.00746104773134,-0.0340283364058,-76.3926391602,-76.3926391602,-1.9441832304,87.7204437256,2027,2054,2110,2029,2029,2696,3312,3335,3141,3287,3001,2977,3056,3085,3165,2936,3385,3380,3217,3277,2928,3276,3303,3018,0.009988122,1.929939502,1.927707546,0.453785598278,4500.0,0.428685247898,0.0104013709351,-0.0251003541052,112.951591492,0.0,6000.0,-0.00228716526181,0.00592616666108,0.0,0.0,0.349065840244,0.0265011657029,-0.00184437166899,0.314298093319,0.0312494616956,0.0312494616956,0.00589846773073,-0.0373882502317,111.421142578,111.421142578,-0.433456748724,-0.2102175951,2032,2031,2546,2039,2039,2931,3422,3419,3237,3356,3078,3055,3159,3152,3241,2861,3409,3416,3249,3362,3132,3350,3381,3184
1508401000098221025,194,1508401000097696792,plot_matl,0.25,-4000.0,0.23474034667,-0.00276471162215,-0.0152596514672,-61.7523422241,0.349065840244,0.0782699212432,-0.00228776223958,0.23461151123,-0.00856356788427,-0.00856356788427,0.00596994720399,0.000283077126369,-76.2262573242,-76.2262573242,-1.49059522152,87.3092422485,2018,2042,2110,2029,2029,2696,3313,3336,3141,3285,3001,2974,3056,3086,3165,2936,3385,3380,3217,3277,2928,3276,3303,3018,0.010084559,1.940022331,1.956404446,0.453785598278,4500.0,0.428685247898,0.01048012916,-0.0251003541052,112.951591492,0.0,6000.0,-0.00229300791398,0.0060582398437,0.0,0.0,0.349065840244,0.0240919683129,-0.00185475626495,0.314490437508,0.00380412023515,0.00380412023515,0.00649939477444,0.0191549863666,111.141891479,111.141891479,-0.673912584782,-0.193873748183,2028,2021,2546,2039,2039,2932,3421,3421,3235,3354,3078,3054,3157,3150,3241,2861,3409,3416,3249,3362,3132,3350,3381,3184
1508401000108193777,195,1508401000107680469,plot_matl,0.25,-4000.0,0.234678432345,-0.00161694665439,-0.0153215723112,-61.7282409668,0.349065840244,0.0782699212432,-0.00228776223958,0.23461151123,-0.00856356788427,-0.00856356788427,0.00596994720399,0.000283077126369,-76.2262573242,-76.2262573242,-1.49059522152,87.3092422485,2018,2045,2110,2029,2029,2696,3313,3336,3141,3285,3001,2974,3056,3086,3164,2936,3385,3376,3216,3279,2929,3275,3300,3020,0.009982494,1.950005737,1.94658633,0.453785598278,4500.0,0.428685247898,0.00915759894997,-0.0251003541052,112.951591492,0.0,6000.0,-0.00228810193948,0.00595885235816,0.0,0.0,0.349065840244,0.0240919683129,-0.00185475626495,0.314490437508,0.00380412023515,0.00380412023515,0.00649939477444,0.0191549863666,111.141891479,111.141891479,-0.673912584782,-0.193873748183,2026,2022,2546,2039,2039,2932,3421,3421,3235,3354,3078,3054,3157,3150,3239,2861,3407,3414,3247,3363,3132,3352,3382,3181
1508401000118090331,196,1508401000117636648,plot_matl,0.25,-4000.0,0.234699800611,-0.00204694806598,-0.0153002049774,-61.747543335,0.349065840244,0.0782699212432,-0.00228776223958,0.23461151123,-0.00856356788427,-0.00856356788427,0.00596994720399,0.000283077126369,-76.2262573242,-76.2262573242,-1.49059522152,87.3092422485,2015,2053,2111,2029,2029,2696,3312,3337,3141,3287,3000,2976,3056,3086,3164,2936,3385,3376,3216,3279,2929,3275,3300,3020,0.009955478,1.959961986,1.951273688,0.453785598278,4500.0,0.427335768938,-0.0178204234689,-0.0264498349279,119.024261475,0.0,6000.0,-0.00230730255134,-0.00708385324106,0.0,0.0,0.349065840244,0.0240919683129,-0.00185475626495,0.314490437508,0.00380412023515,0.00380412023515,0.00649939477444,0.0191549863666,111.141891479,111.141891479,-0.673912584782,-0.193873748183,2021,2025,2545,2039,2039,2930,3421,3420,3239,3356,3077,3057,3157,3150,3239,2861,3407,3414,3247,3363,3132,3352,3382,3181
1508401000128100934,197,1508401000127676141,plot_matl,0.25,-4000.0,0.234717577696,-0.00238974345848,-0.0152824176475,-61.7570343018,0.349065840244,0.0782699212432,-0.00228776223958,0.23461151123,-0.00856356788427,-0.00856356788427,0.00596994720399,0.000283077126369,-76.2262573242,-76.2262573242,-1.49059522152,87.3092422485,2019,2045,2111,2029,2029,2696,3312,3337,3141,3287,3000,2976,3056,3086,3166,2935,3386,3377,3216,3277,2929,3275,3300,3020,0.010039163,1.970001555,1.977715111,0.453785598278,4500.0,0.427335768938,-0.0190192349255,-0.0264498349279,119.024261475,0.0,6000.0,-0.00229866686277,0.00615066336468,0.0,0.0,0.349065840244,0.0240919683129,-0.00185475626495,0.314490437508,0.00380412023515,0.00380412023515,0.00649939477444,0.0191549863666,111.141891479,111.141891479,-0.673912584782,-0.193873748183,2028,2019,2545,2039,2039,2930,3421,3420,3239,3356,3077,3057,3157,3151,3238,2862,3409,3414,3247,3361,3129,3350,3382,3181
1508401000137946483,198,1508401000137684033,plot_matl,0.25,-4000.0,0.234727054834,-0.00263505382463,-0.015272946097,-61.7729034424,0.349065840244,0.0796194002032,-0.00229595857672,0.234756290913,0.0052250851877,0.0052250851877,0.0061199972406,0.0348428674042,-76.3305892944,-76.3305892944,-1.69893801212,87.7505187988,2021,2047,2110,2031,2031,2695,3314,3338,3141,3286,3000,2976,3056,3086,3166,2935,3386,3377,3216,3277,2929,3275,3302,3020,0.010007521,1.980009297,1.981489158,0.453785598278,4500.0,0.427335768938,-0.0189981982112,-0.0264498349279,119.024261475,0.0,6000.0,-0.00231733964756,-0.00690974202007,0.0,0.0,0.349065840244,0.0265011657029,-0.00177320302464,0.314751982689,0.0253794323653,0.0253794323653,-0.0103624872863,0.0751538649201,111.374771118,111.374771118,-0.462892413139,-0.245695754886,2027,2022,2546,2038,2038,2930,3423,3421,3235,3356,3077,3057,3157,3151,3238,2862,3409,3414,3247,3361,3129,3350,3382,3182
1508401000148063432,199,1508401000147642844,plot_matl,0.25,-4000.0,0.234710246325,0.035623062402,-0.0152897490188,-52.5178031921,0.349065840244,0.0796194002032,-0.00229595857672,0.234756290913,0.0052250851877,0.0052250851877,0.0061199972406,0.0348428674042,-76.3305892944,-76.3305892944,-1.69893801212,87.7505187988,2027,2056,2110,2031,2031,2695,3314,3338,3141,3286,3001,2976,3054,3085,3163,2936,3384,3380,3218,3278,2929,3275,3302,3020,0.009957212,1.989967641,1.981485188,0.453785598278,4500.0,0.428685247898,0.00919720157981,-0.0251003541052,112.951591492,0.0,6000.0,-0.00229488755576,0.00605902867392,0.0,0.0,0.349065840244,0.0265011657029,-0.00177320302464,0.314751982689,0.0253794323653,0.0253794323653,-0.0103624872863,0.0751538649201,111.374771118,111.374771118,-0.462892413139,-0.245695754886,2030,2023,2546,2038,2038,2930,3423,3421,3235,3356,3080,3054,3157,3150,3240,2861,3408,3414,3249,3362,3129,3350,3382,3182
1508401000158046735,200,1508401000157662387,plot_matl,0.25,-4000.0,0.234693333507,0.0359329022467,-0.0153066664934,-52.6427116394,0.349065840244,0.0796194002032,-0.00229595857672,0.234756290913,0.0052250851877,0.0052250851877,0.0061199972406,0.0348428674042,-76.3305892944,-76.3305892944,-1.69893801212,87.7505187988,2028,2057,2111,2029,2029,2695,3314,3337,3141,3286,3001,2976,3054,3085,3163,2936,3384,3380,3218,3278,2929,3275,3302,3020,0.010020325,1.99998773,2.004065,0.453785598278,4500.0,0.428685247898,0.00894617941231,-0.0251003541052,112.951591492,0.0,6000.0,-0.00228968379088,-0.00748040154576,0.0,0.0,0.349065840244,0.0265011657029,-0.00177320302464,0.314751982689,0.0253794323653,0.0253794323653,-0.0103624872863,0.0751538649201,111.374771118,111.374771118,-0.462892413139,-0.245695754886,2025,2031,2546,2038,2038,2930,3420,3421,3235,3356,3080,3054,3157,3150,3240,2861,3408,3414,3249,3362,3131,3352,3381,3183
1508401000168131199,201,1508401000167646695,plot_matl,0.25,-4000.0,0.234708696604,-0.0022961399518,-0.0152912978083,-61.8015899658,0.349065840244,0.0796194002032,-0.00229595857672,0.234756290913,0.0052250851877,0.0052250851877,0.0061199972406,0.0348428674042,-76.3305892944,-76.3305892944,-1.69893801212,87.7505187988,2016,2054,2111,2029,2029,2695,3314,3337,3141,3285,2999,2977,3056,3087,3163,2937,3384,3379,3218,3278,2929,3275,3302,3020,0.009983972,2.009972044,2.006778372,0.453785598278,4500.0,0.428685247898,0.00872793421149,-0.0251003541052,112.951591492,0.0,6000.0,-0.00229765754193,-0.00733200693503,0.0,0.0,0.349065840244,0.0265011657029,-0.00177320302464,0.314751982689,0.0253794323653,0.0253794323653,-0.0103624872863,0.0751538649201,111.374771118,111.374771118,-0.462892413139,-0.245695754886,2030,2030,2546,2038,2038,2930,3420,3421,3235,3357,3078,3056,3158,3148,3239,2861,3409,3414,3249,3362,3131,3352,3381,3183
1508401000178094870,202,1508401000177635509,plot_matl,0.25,-4000.0,0.234753593802,-0.00325117399916,-0.0152464061975,-61.7758674622,0.349065840244,0.0796194002032,-0.00230849650688,0.234741687775,0.00398021936417,0.00398021936417,-0.00708360411227,-0.00291078933515,-76.6442108154,-76.6442108154,-1.63153886795,88.0300521851,2032,2069,2111,2028,2028,2694,3314,3337,3141,3285,2999,2977,3056,3087,3163,2937,3384,3379,3215,3277,2928,3277,3303,3019,0.009987135,2.019960166,2.01740127,0.453785598278,4500.0,0.427335768938,-0.0176542568952,-0.0264498349279,119.024261475,0.0,6000.0,-0.00231276708655,-0.00700818700716,0.0,0.0,0.349065840244,0.0240919683129,-0.00186206493527,0.314780503511,0.000837240484543,0.000837240484543,-0.00850441027433,-0.0494112558663,111.354759216,111.354759216,-0.293225288391,-0.177848130465,2031,2032,2546,2037,2037,2931,3420,3421,3235,3357,3078,3056,3158,3148,3239,2861,3409,3414,3247,3361,3131,3349,3380,3184
1508401000188084781,203,1508401000187660289,plot_matl,0.25,-4000.0,0.234753102064,-0.0032985561993,-0.0152468904853,-61.79737854,0.349065840244,0.0796194002032,-0.00230849650688,0.234741687775,0.00398021936417,0.00398021936417,-0.00708360411227,-0.00291078933515,-76.6442108154,-76.6442108154,-1.63153886795,88.0300521851,2014,2049,2111,2028,2028,2694,3313,3337,3141,3287,3000,2977,3055,3086,3167,2937,3384,3379,3215,3277,2928,3277,3303,3019,0.010024831,2.029985357,2.035040693,0.453785598278,4500.0,0.427335768938,-0.0173938963562,-0.0264498349279,119.024261475,0.0,6000.0,-0.00231409794651,0.00645903404802,0.0,0.0,0.349065840244,0.0240919683129,-0.00186206493527,0.314780503511,0.000837240484543,0.000837240484543,-0.00850441027433,-0.0494112558663,111.354759216,111.354759216,-0.293225288391,-0.177848130465,2026,2022,2546,2037,2037,2931,3420,3420,3235,3357,3079,3054,3159,3150,3239,2861,3409,3414,3247,3361,3131,3349,3380,3184
1508401000198248627,204,1508401000197707079,plot_matl,0.25,-4000.0,0.23475971818,-0.00341095193289,-0.0152402855456,-61.8098564148,0.349065840244,0.0796194002032,-0.00230849650688,0.234741687775,0.00398021936417,0.00398021936417,-0.00708360411227,-0.00291078933515,-76.6442108154,-76.6442108154,-1.63153886795,88.0300521851,2025,2054,2110,2029,2029,2694,3313,3337,3141,3287,3000,2977,3055,3086,3167,2937,3386,3377,3217,3275,2931,3274,3301,3020,0.010048058,2.040032327,2.049803832,0.453785598278,4500.0,0.427335768938,-0.0181902926415,-0.0264498349279,119.024261475,0.0,6000.0,-0.00230278074741,-0.00717379665002,0.0,0.0,0.349065840244,0.0240919683129,-0.00186206493527,0.314780503511,0.000837240484543,0.000837240484543,-0.00850441027433,-0.0494112558663,111.354759216,111.354759216,-0.293225288391,-0.177848130465,2027,2027,2546,2039,2039,2931,3420,3420,3235,3357,3079,3054,3159,3150,3239,2861,3408,3415,3246,3362,3129,3349,3380,3181
1508401000207790307,205,1508401000207625594,plot_matl,0.25,-4000.0,0.234791591763,-0.00407859450206,-0.0152084082365,-61.8623847961,0.349065840244,0.0796194002032,-0.00230849650688,0.234741687775,0.00398021936417,0.00398021936417,-0.00708360411227,-0.00291078933515,-76.6442108154,-76.6442108154,-1.63153886795,88.0300521851,2036,2070,2110,2029,2029,2694,3311,3337,3141,3285,2999,2976,3056,3086,3167,2937,3386,3377,3217,3275,2931,3274,3301,3020,0.009915193,2.04994984,2.032614565,0.453785598278,4500.0,0.427335768938,-0.0183139871806,-0.0264498349279,119.024261475,0.0,6000.0,-0.00228476896882,-0.00753445457667,0.0,0.0,0.349065840244,0.0240919683129,-0.00186206493527,0.314780503511,0.000837240484543,0.000837240484543,-0.00850441027433,-0.0494112558663,111.354759216,111.354759216,-0.293225288391,-0.177848130465,2037,2032,2546,2039,2039,2931,3421,3419,3238,3356,3078,3056,3158,3149,3239,2861,3408,3415,3246,3362,3129,3349,3380,3181
1508401000218132696,206,1508401000217720076,plot_matl,0.25,-4000.0,0.234786808491,-0.00403550639749,-0.0152131970972,-61.7607727051,0.349065840244,0.0796194002032,-0.00231815408915,0.234732031822,0.00444959010929,0.00444959010929,0.00651471549645,-0.00279784412123,-76.9496841431,-76.9496841431,-1.29570353031,87.6226425171,2025,2059,2110,2029,2029,2694,3311,3337,3141,3285,2999,2976,3056,3086,3165,2937,3385,3378,3216,3277,2928,3277,3303,3018,0.010096463,2.06004553,2.079871378,0.453785598278,4500.0,0.428685247898,0.00839081872255,-0.0251003541052,112.951591492,0.0,6000.0,-0.00225584045984,0.00528278527781,0.0,0.0,0.349065840244,0.0240919683129,-0.00182750250679,0.31486093998,-0.000432927248767,-0.000432927248767,0.00619635311887,0.0106610031798,111.106559753,111.106559753,-0.44449582696,0.0759237483144,2028,2026,2546,2039,2039,2931,3421,3419,3238,3356,3078,3056,3158,3149,3240,2861,3408,3414,3247,3362,3131,3351,3382,3184
1508401000228192992,207,1508401000227675504,plot_matl,0.25,-4000.0,0.234781891108,-0.00391969969496,-0.0152181042358,-61.8341636658,0.349065840244,0.0796194002032,-0.00231815408915,0.234732031822,0.00444959010929,0.00444959010929,0.00651471549645,-0.00279784412123,-76.9496841431,-76.9496841431,-1.29570353031,87.6226425171,1996,2033,2111,2029,2029,2696,3314,3334,3140,3286,2997,2976,3056,3086,3165,2937,3385,3378,3216,3277,2928,3277,3303,3018,0.009955598,2.070000958,2.060808786,0.453785598278,4500.0,0.427335768938,-0.0168390162289,-0.0264498349279,119.024261475,0.0,6000.0,-0.00228275824338,-0.0075991875492,0.0,0.0,0.349065840244,0.0240919683129,-0.00182750250679,0.31486093998,-0.000432927248767,-0.000432927248767,0.00619635311887,0.0106610031798,111.106559753,111.106559753,-0.44449582696,0.0759237483144,2021,2025,2545,2037,2037,2931,3422,3421,3235,3356,3079,3055,3158,3149,3240,2861,3408,3414,3247,3362,3131,3351,3382,3184
1508401000237991203,208,1508401000237636259,plot_matl,0.25,-4000.0,0.234749108553,-0.00328556052409,-0.015250894241,-61.8636398315,0.349065840244,0.0796194002032,-0.00231815408915,0.234732031822,0.00444959010929,0.00444959010929,0.00651471549645,-0.00279784412123,-76.9496841431,-76.9496841431,-1.29570353031,87.6226425171,2043,2080,2111,2029,2029,2696,3314,3334,3140,3286,2997,2976,3054,3083,3164,2937,3385,3376,3216,3276,2931,3274,3303,3018,0.009958816,2.079961016,2.071433728,0.453785598278,4500.0,0.428685247898,0.0114168599248,-0.0251003541052,112.951591492,0.0,6000.0,-0.00225386768579,0.00522797554731,0.0,0.0,0.349065840244,0.0240919683129,-0.00182750250679,0.31486093998,-0.000432927248767,-0.000432927248767,0.00619635311887,0.0106610031798,111.106559753,111.106559753,-0.44449582696,0.0759237483144,2026,2027,2545,2037,2037,2931,3422,3421,3235,3356,3079,3055,3158,3149,3238,2859,3408,3414,3248,3363,3132,3351,3382,3184
1508401000247828334,209,1508401000247626583,plot_matl,0.25,-4000.0,0.234758391976,-0.00343605689704,-0.0152416098863,-61.7483253479,0.349065840244,0.0796194002032,-0.00231815408915,0.234732031822,0.00444959010929,0.00444959010929,0.00651471549645,-0.00279784412123,-76.9496841431,-76.9496841431,-1.29570353031,87.6226425171,2013,2043,2110,2028,2028,2696,3312,3337,3138,3286,2997,2976,3054,3083,3164,2937,3385,3376,3216,3276,2931,3274,3302,3023,0.009989424,2.089950822,2.087789616,0.453785598278,4500.0,0.428685247898,0.0103226238862,-0.0251003541052,112.951591492,0.0,6000.0,-0.00229183677584,-0.00742736551911,0.0,0.0,0.349065840244,0.0240919683129,-0.00182750250679,0.31486093998,-0.000432927248767,-0.000432927248767,0.00619635311887,0.0106610031798,111.106559753,111.106559753,-0.44449582696,0.0759237483144,2019,2010,2546,2042,2042,2930,3422,3418,3236,3357,3079,3055,3158,3149,3238,2859,3408,3414,3248,3363,3132,3351,3381,3182
1508401000257992142,210,1508401000257657149,plot_matl,0.25,-4000.0,0.234719097614,-0.00274240924045,-0.0152809005231,-61.7136688232,0.349065840244,0.0782699212432,-0.0022829673253,0.23477204144,-0.0092829586938,-0.0092829586938,-0.00758539931849,-0.00368825742044,-76.7831573486,-76.7831573486,-1.51778662205,87.700378418,2013,2036,2110,2028,2028,2696,3312,3337,3138,3286,2998,2975,3056,3086,3164,2937,3386,3378,3217,3279,2931,3274,3302,3023,0.01003113,2.099981926,2.1065373,0.453785598278,4500.0,0.428685247898,0.00889561232179,-0.0251003541052,112.951591492,0.0,6000.0,-0.00227577774785,0.00563001958653,0.0,0.0,0.349065840244,0.0240919683129,-0.00178720767144,0.314871758223,0.00312569388188,0.00312569388188,0.00538980122656,0.0102870929986,111.005134583,111.005134583,-0.492070496082,-0.20064945519,2027,2024,2546,2042,2042,2930,3422,3418,3236,3357,3080,3056,3158,3150,3238,2861,3409,3415,3248,3362,3132,3351,3381,3182
1508401000268129960,211,1508401000267671861,plot_matl,0.25,-4000.0,0.234766930342,-0.00367086543702,-0.0152330677956,-61.79637146,0.349065840244,0.0782699212432,-0.0022829673253,0.23477204144,-0.0092829586938,-0.0092829586938,-0.00758539931849,-0.00368825742044,-76.7831573486,-76.7831573486,-1.51778662205,87.700378418,2049,2096,2110,2031,2031,2696,3313,3335,3138,3286,2998,2975,3056,3086,3164,2937,3386,3378,3217,3279,2928,3274,3303,3019,0.010014963,2.109997004,2.113157193,0.453785598278,4500.0,0.430034726858,0.0354739874601,-0.0237508714199,106.878929138,0.0,6000.0,-0.00228259898722,-0.00762493116781,0.0,0.0,0.349065840244,0.0240919683129,-0.00178720767144,0.314871758223,0.00312569388188,0.00312569388188,0.00538980122656,0.0102870929986,111.005134583,111.005134583,-0.492070496082,-0.20064945519,2031,2036,2546,2045,2045,2931,3422,3423,3236,3357,3080,3056,3158,3150,3238,2861,3409,3415,3248,3362,3131,3352,3380,3183
1508401000277853565,212,1508401000277670748,plot_matl,0.25,-4000.0,0.234771817923,-0.00373205612414,-0.0152281755581,-61.8065795898,0.349065840244,0.0782699212432,-0.0022829673253,0.23477204144,-0.0092829586938,-0.0092829586938,-0.00758539931849,-0.00368825742044,-76.7831573486,-76.7831573486,-1.51778662205,87.700378418,2009,2052,2110,2031,2031,2696,3313,3335,3142,3285,2999,2976,3053,3086,3165,2937,3385,3377,3217,3279,2928,3274,3303,3019,0.010007606,2.120005369,2.121612472,0.453785598278,4500.0,0.427335768938,-0.0175941046327,-0.0264498349279,119.024261475,0.0,6000.0,-0.00232987152413,-0.0066915252246,0.0,0.0,0.349065840244,0.0240919683129,-0.00178720767144,0.314871758223,0.00312569388188,0.00312569388188,0.00538980122656,0.0102870929986,111.005134583,111.005134583,-0.492070496082,-0.20064945519,2026,2031,2546,2045,2045,2931,3422,3423,3237,3354,3081,3056,3157,3147,3238,2861,3408,3412,3248,3362,3131,3352,3380,3183
1508401000288107912,213,1508401000287662833,plot_matl,0.25,-4000.0,0.234771862626,-0.00373452552594,-0.0152281420305,-61.8717384338,0.349065840244,0.0782699212432,-0.0022829673253,0.23477204144,-0.0092829586938,-0.0092829586938,-0.00758539931849,-0.00368825742044,-76.7831573486,-76.7831573486,-1.51778662205,87.700378418,1999,2050,2112,2029,2029,2695,3313,3335,3142,3285,2999,2976,3053,3086,3165,2937,3385,3377,3216,3276,2929,3274,3299,3020,0.009983386,2.129988037,2.126461218,0.453785598278,4500.0,0.428685247898,0.0103563172743,-0.0251003541052,112.951591492,0.0,6000.0,-0.00231669819914,0.0064739221707,0.0,0.0,0.349065840244,0.0240919683129,-0.00178720767144,0.314871758223,0.00312569388188,0.00312569388188,0.00538980122656,0.0102870929986,111.005134583,111.005134583,-0.492070496082,-0.20064945519,2033,2032,2546,2040,2040,2931,3422,3423,3237,3354,3081,3056,3157,3147,3238,2861,3408,3412,3248,3363,3130,3349,3382,3181
1508401000298146058,214,1508401000297649492,plot_matl,0.25,-4000.0,0.234804913402,0.0334846712649,-0.0151950865984,-52.4369850159,0.349065840244,0.0796194002032,-0.00229065353051,0.234776973724,0.00491834059358,0.00491834059358,-0.00747626414523,-0.00385221745819,-76.8334350586,-76.8334350586,-1.43503820896,87.9337081909,2045,2093,2112,2029,2029,2695,3313,3337,3141,3286,3001,2976,3056,3085,3165,2936,3385,3377,3216,3276,2929,3274,3299,3020,0.009986654,2.139974921,2.137143956,0.453785598278,4500.0,0.428685247898,0.00895091984421,-0.0251003541052,112.951591492,0.0,6000.0,-0.00230462779291,-0.00716619286686,0.0,0.0,0.349065840244,0.0216827709228,-0.00174072489608,0.314713507891,-0.0213264487684,-0.0213264487684,0.00449314387515,0.0134519999847,111.213134766,111.213134766,0.161730721593,-0.405966550112,2024,2034,2546,2040,2040,2931,3423,3420,3236,3355,3078,3054,3157,3151,3240,2860,3408,3412,3248,3363,3130,3349,3382,3181
1508401000308091719,215,1508401000307670439,plot_matl,0.25,-4000.0,0.234765738249,-0.00360314641148,-0.0152342617512,-61.8058204651,0.349065840244,0.0796194002032,-0.00229065353051,0.234776973724,0.00491834059358,0.00491834059358,-0.00747626414523,-0.00385221745819,-76.8334350586,-76.8334350586,-1.43503820896,87.9337081909,2006,2045,2111,2027,2027,2695,3313,3337,3141,3286,3001,2976,3056,3085,3165,2936,3386,3377,3216,3278,2929,3275,3301,3018,0.010019208,2.149995291,2.15412972,0.453785598278,4500.0,0.427335768938,-0.0189310144633,-0.0264498349279,119.024261475,0.0,6000.0,-0.00228522182442,0.00585773680359,0.0,0.0,0.349065840244,0.0216827709228,-0.00174072489608,0.314713507891,-0.0213264487684,-0.0213264487684,0.00449314387515,0.0134519999847,111.213134766,111.213134766,0.161730721593,-0.405966550112,2026,2026,2546,2042,2042,2931,3423,3420,3236,3355,3078,3054,3157,3151,3240,2860,3407,3413,3247,3362,3129,3350,3379,3183
1508401000318077400,216,1508401000317661031,plot_matl,0.25,-4000.0,0.234734684229,-0.00299509288743,-0.0152653167024,-61.7854118347,0.349065840244,0.0796194002032,-0.00229065353051,0.234776973724,0.00491834059358,0.00491834059358,-0.00747626414523,-0.00385221745819,-76.8334350586,-76.8334350586,-1.43503820896,87.9337081909,2011,2041,2111,2027,2027,2696,3313,3336,3139,3286,2999,2977,3055,3084,3165,2936,3386,3377,3216,3278,2929,3275,3301,3018,0.009990568,2.159986069,2.157962688,0.453785598278,4500.0,0.427335768938,-0.0170142650604,-0.0264498349279,119.024261475,0.0,6000.0,-0.00227992772125,0.00576063431799,0.0,0.0,0.349065840244,0.0216827709228,-0.00174072489608,0.314713507891,-0.0213264487684,-0.0213264487684,0.00449314387515,0.0134519999847,111.213134766,111.213134766,0.161730721593,-0.405966550112,2027,2024,2546,2042,2042,2931,3422,3419,3236,3356,3079,3056,3158,3151,3240,2860,3407,3413,3247,3362,3129,3350,3379,3183
1508401000327829616,217,1508401000327621842,plot_matl,0.25,-4000.0,0.234672963619,-0.00175140169449,-0.0153270401061,-61.726108551,0.349065840244,0.0796194002032,-0.00229065353051,0.234776973724,0.00491834059358,0.00491834059358,-0.00747626414523,-0.00385221745819,-76.8334350586,-76.8334350586,-1.43503820896,87.9337081909,2064,2096,2111,2027,2027,2696,3313,3336,3139,3286,2999,2977,3055,3084,3165,2937,3385,3378,3216,3276,2929,3275,3302,3019,0.009959305,2.169946206,2.161169185,0.453785598278,4500.0,0.427335768938,-0.0177826341242,-0.0264498349279,119.024261475,0.0,6000.0,-0.00226580817252,-0.00794809218496,0.0,0.0,0.349065840244,0.0216827709228,-0.00174072489608,0.314713507891,-0.0213264487684,-0.0213264487684,0.00449314387515,0.0134519999847,111.213134766,111.213134766,0.161730721593,-0.405966550112,2035,2033,2546,2042,2042,2931,3422,3419,3236,3356,3079,3056,3158,3151,3238,2861,3408,3413,3247,3362,3130,3349,3381,3182
1508401000337765900,218,1508401000337616010,plot_matl,0.25,-4000.0,0.23465745151,-0.00143435061909,-0.0153425531462,-61.7152862549,0.349065840244,0.0796194002032,-0.00230974610895,0.23478539288,0.00495362048969,0.00495362048969,0.00635776203126,-0.00405131420121,-76.7683105469,-76.7683105469,-1.57570803165,88.002494812,2001,2045,2110,2026,2026,2694,3313,3336,3140,3286,2999,2976,3055,3084,3165,2937,3385,3378,3216,3276,2929,3275,3302,3019,0.009993186,2.179940014,2.178514548,0.453785598278,4500.0,0.428685247898,0.00875440053642,-0.0251003541052,112.951591492,0.0,6000.0,-0.00226623099297,-0.00793915148824,0.0,0.0,0.349065840244,0.0240919683129,-0.0017342659412,0.314715981483,0.00440176483244,0.00440176483244,0.00433611962944,0.0753809511662,111.430107117,111.430107117,0.148140624166,-0.488789916039,2024,2026,2546,2041,2041,2930,3421,3418,3236,3358,3079,3056,3158,3151,3238,2861,3408,3413,3247,3362,3130,3349,3381,3182
1508401000348129299,219,1508401000347660727,plot_matl,0.25,-4000.0,0.234602302313,-0.000340335653163,-0.0153976920992,-61.6673164368,0.349065840244,0.0796194002032,-0.00230974610895,0.23478539288,0.00495362048969,0.00495362048969,0.00635776203126,-0.00405131420121,-76.7683105469,-76.7683105469,-1.57570803165,88.002494812,2009,2064,2110,2026,2026,2694,3313,3336,3140,3286,2999,2976,3054,3085,3163,2935,3385,3377,3216,3275,2929,3275,3302,3019,0.010047468,2.189986116,2.200395492,0.453785598278,4500.0,0.427335768938,-0.0184745211154,-0.0264498349279,119.024261475,0.0,6000.0,-0.00230150017887,0.00618625897914,0.0,0.0,0.349065840244,0.0240919683129,-0.0017342659412,0.314715981483,0.00440176483244,0.00440176483244,0.00433611962944,0.0753809511662,111.430107117,111.430107117,0.148140624166,-0.488789916039,2030,2032,2546,2041,2041,2930,3421,3418,3236,3358,3079,3056,3157,3150,3239,2862,3408,3413,3249,3363,3129,3351,3381,3182
1508401000358236496,220,1508401000357691947,plot_matl,0.25,-4000.0,0.234665483236,-0.039550434798,-0.0153345167637,-70.9227218628,0.349065840244,0.0796194002032,-0.00230974610895,0.23478539288,0.00495362048969,0.00495362048969,0.00635776203126,-0.00405131420121,-76.7683105469,-76.7683105469,-1.57570803165,88.002494812,2034,2089,2110,2026,2026,2695,3315,3337,3141,3285,2999,2976,3054,3085,3163,2935,3385,3377,3216,3275,2929,3275,3303,3020,0.010031546,2.200017025,2.20694012,0.453785598278,4500.0,0.427335768938,-0.0190766882151,-0.0264498349279,119.024261475,0.0,6000.0,-0.00227979733609,0.00576722854748,0.0,0.0,0.349065840244,0.0240919683129,-0.0017342659412,0.314715981483,0.00440176483244,0.00440176483244,0.00433611962944,0.0753809511662,111.430107117,111.430107117,0.148140624166,-0.488789916039,2025,2027,2546,2041,2041,2930,3421,3422,3237,3356,3079,3056,3157,3150,3239,2862,3408,3413,3249,3363,3129,3351,3380,3184
