%time,field.header.seq,field.header.stamp,field.header.frame_id,field.FFJ4_set_point,field.FFJ4_position_gain,field.FFJ4_process_value,field.FFJ4_process_value_dot,field.FFJ4_error,field.FFJ4_command,field.FFJ1,field.FFJ2,field.FFJ3,field.FFJ4,field.FFJ1_dot,field.FFJ2_dot,field.FFJ3_dot,field.FFJ4_dot,field.FFJ1_tao,field.FFJ2_tao,field.FFJ3_tao,field.FFJ4_tao,field.pac0,field.pac1,field.pdc0,field.tac0,field.tdc0,field.el0,field.el1,field.el2,field.el3,field.el4,field.el5,field.el6,field.el7,field.el8,field.el9,field.el10,field.el11,field.el12,field.el13,field.el14,field.el15,field.el16,field.el17,field.el18,field.dt,field.time,field.test_time2,field.FFJ0_set_point,field.FFJ0_position_gain,field.FFJ0_process_value,field.FFJ0_process_value_dot,field.FFJ0_error,field.FFJ0_command,field.FFJ3_set_point,field.FFJ3_position_gain,field.FFJ3_process_value,field.FFJ3_process_value_dot,field.FFJ3_error,field.FFJ3_command,field.MFJ1,field.MFJ2,field.MFJ3,field.MFJ4,field.MFJ1_dot,field.MFJ2_dot,field.MFJ3_dot,field.MFJ4_dot,field.MFJ1_tao,field.MFJ2_tao,field.MFJ3_tao,field.MFJ4_tao,field.Mpac0,field.Mpac1,field.Mpdc0,field.Mtac0,field.Mtdc0,field.Mel0,field.Mel1,field.Mel2,field.Mel3,field.Mel4,field.Mel5,field.Mel6,field.Mel7,field.Mel8,field.Mel9,field.Mel10,field.Mel11,field.Mel12,field.Mel13,field.Mel14,field.Mel15,field.Mel16,field.Mel17,field.Mel18
1508400836027965558,139,1508400836027474222,plot_matl,0.25,-2000.0,0.217297166586,0.00806297082454,-0.0327028371394,-63.4710998535,0.349065840244,0.0796194002032,-0.00219736876898,0.217385917902,-0.00850752461702,-0.00850752461702,0.00412545353174,0.00626254547387,-73.2024307251,-73.2024307251,0.454504191875,85.8137283325,2014,2052,2110,2019,2019,2706,3319,3341,3145,3291,3005,2978,3061,3087,3168,2930,3386,3382,3220,3281,2935,3280,3307,3027,0.010051261,1.39002587,1.397125279,0.453785598278,4500.0,0.428685247898,-0.0158452559263,-0.0251003541052,112.951591492,0.0,6000.0,-0.00223210104741,-0.00859384983778,0.0,0.0,0.349065840244,0.0240919683129,-0.00174991646782,0.314276456833,-0.00230685877614,-0.00230685877614,0.0046419436112,-0.0395478792489,111.365280151,111.365280151,0.209098875523,0.0348372384906,2031,2027,2549,2022,2022,2940,3429,3427,3244,3362,3088,3061,3162,3152,3244,2863,3413,3418,3253,3368,3136,3356,3385,3189
1508400836037784871,140,1508400836037436206,plot_matl,0.25,-2000.0,0.217369541526,0.00660338671878,-0.0326304584742,-63.6815223694,0.349065840244,0.0796194002032,-0.00219736876898,0.217385917902,-0.00850752461702,-0.00850752461702,0.00412545353174,0.00626254547387,-73.2024307251,-73.2024307251,0.454504191875,85.8137283325,2025,2047,2110,2020,2020,2705,3320,3341,3146,3291,3005,2978,3061,3087,3168,2930,3386,3382,3220,3281,2935,3278,3304,3026,0.009961175,1.399987748,1.3945645,0.453785598278,4500.0,0.430034726858,0.00987336132675,-0.0237508714199,106.878929138,0.0,6000.0,-0.00222628563643,-0.00870944932103,0.0,0.0,0.349065840244,0.0240919683129,-0.00174991646782,0.314276456833,-0.00230685877614,-0.00230685877614,0.0046419436112,-0.0395478792489,111.365280151,111.365280151,0.209098875523,0.0348372384906,2025,2022,2549,2020,2020,2940,3429,3426,3246,3362,3088,3061,3162,3152,3244,2863,3413,3418,3253,3368,3136,3357,3386,3190
1508400836047701060,141,1508400836047408466,plot_matl,0.25,-2000.0,0.217428982258,0.0054047727026,-0.0325710251927,-63.8268051147,0.349065840244,0.0809688791633,-0.0022171002347,0.217382460833,0.00474197091535,0.00474197091535,0.00452849222347,0.00634293956682,-73.1857070923,-73.1857070923,0.629642009735,85.8257141113,2011,2057,2110,2020,2020,2705,3320,3341,3146,3292,3005,2975,3059,3086,3167,2931,3387,3381,3218,3281,2935,3278,3304,3026,0.009971169,1.409959517,1.405934829,0.453785598278,4500.0,0.430034726858,0.00808119773865,-0.0237508714199,106.878929138,0.0,6000.0,-0.00221981899813,0.00458546774462,0.0,0.0,0.349065840244,0.0265011657029,-0.00183209683746,0.314417332411,0.0176907293499,0.0176907293499,0.00632418226451,0.0195439234376,111.379653931,111.379653931,0.160610303283,0.0137397181243,2021,2021,2549,2020,2020,2940,3429,3426,3246,3362,3089,3061,3162,3154,3245,2864,3412,3418,3252,3368,3136,3357,3386,3190
1508400836057888811,142,1508400836057420137,plot_matl,0.25,-2000.0,0.217446610332,0.00505879241973,-0.0325533896685,-63.9820823669,0.349065840244,0.0809688791633,-0.0022171002347,0.217382460833,0.00474197091535,0.00474197091535,0.00452849222347,0.00634293956682,-73.1857070923,-73.1857070923,0.629642009735,85.8257141113,2027,2052,2110,2018,2018,2705,3319,3341,3146,3292,3005,2975,3059,3086,3167,2931,3387,3381,3218,3281,2936,3281,3307,3027,0.010012643,1.419971774,1.421795306,0.453785598278,4500.0,0.430034726858,0.00797400996089,-0.0237508714199,106.878929138,0.0,6000.0,-0.00222530751489,0.00469760736451,0.0,0.0,0.349065840244,0.0265011657029,-0.00183209683746,0.314417332411,0.0176907293499,0.0176907293499,0.00632418226451,0.0195439234376,111.379653931,111.379653931,0.160610303283,0.0137397181243,2028,2016,2549,2021,2021,2941,3429,3426,3246,3362,3089,3061,3162,3154,3245,2864,3412,3418,3252,3369,3137,3354,3387,3190
1508400836067756309,143,1508400836067409428,plot_matl,0.25,-2000.0,0.217424839735,0.00550986314192,-0.0325751639903,-63.8468589783,0.349065840244,0.0809688791633,-0.0022171002347,0.217382460833,0.00474197091535,0.00474197091535,0.00452849222347,0.00634293956682,-73.1857070923,-73.1857070923,0.629642009735,85.8257141113,2022,2050,2110,2018,2018,2705,3319,3340,3147,3289,3003,2977,3058,3086,3168,2932,3386,3381,3218,3281,2936,3281,3307,3027,0.009987647,1.429960347,1.428233521,0.453785598278,4500.0,0.430034726858,0.00805870909244,-0.0237508714199,106.878929138,0.0,6000.0,-0.00220760330558,0.00432403897867,0.0,0.0,0.349065840244,0.0265011657029,-0.00183209683746,0.314417332411,0.0176907293499,0.0176907293499,0.00632418226451,0.0195439234376,111.379653931,111.379653931,0.160610303283,0.0137397181243,2026,2023,2549,2021,2021,2941,3429,3424,3242,3363,3088,3059,3162,3153,3243,2863,3413,3418,3252,3369,3137,3354,3387,3190
1508400836077669184,144,1508400836077405566,plot_matl,0.25,-2000.0,0.217372566462,-0.0313228294253,-0.0326274335384,-72.5375061035,0.349065840244,0.0809688791633,-0.0022171002347,0.217382460833,0.00474197091535,0.00474197091535,0.00452849222347,0.00634293956682,-73.1857070923,-73.1857070923,0.629642009735,85.8257141113,2008,2041,2110,2018,2018,2705,3319,3340,3147,3289,3003,2977,3058,3086,3168,2932,3386,3379,3218,3280,2935,3279,3306,3028,0.009996038,1.439956933,1.439429472,0.453785598278,4500.0,0.430034726858,0.00857316143811,-0.0237508714199,106.878929138,0.0,6000.0,-0.00221697473899,-0.00890825223178,0.0,0.0,0.349065840244,0.0265011657029,-0.00183209683746,0.314417332411,0.0176907293499,0.0176907293499,0.00632418226451,0.0195439234376,111.379653931,111.379653931,0.160610303283,0.0137397181243,2023,2022,2549,2019,2019,2941,3429,3424,3242,3363,3088,3059,3162,3153,3243,2863,3413,3416,3251,3367,3136,3356,3385,3190
1508400836087730312,145,1508400836087401897,plot_matl,0.25,-2000.0,0.217363253236,0.00671837991104,-0.0326367393136,-63.7257118225,0.349065840244,0.0809688791633,-0.00220844452269,0.217384949327,0.00438043288887,0.00438043288887,0.0043368623592,0.00632143672556,-73.0374755859,-73.0374755859,0.829885721207,85.7012786865,2020,2047,2110,2018,2018,2705,3318,3342,3146,3289,3006,2975,3058,3087,3168,2932,3386,3379,3218,3280,2935,3279,3306,3028,0.009995294,1.449952788,1.44931763,0.453785598278,4500.0,0.430034726858,0.00893168430775,-0.0237508714199,106.878929138,0.0,6000.0,-0.00221312395297,-0.00897987931967,0.0,0.0,0.349065840244,0.0265011657029,-0.0018781949766,0.314198285341,0.0184173788875,0.0184173788875,0.00723546836525,-0.0377825349569,111.349029541,111.349029541,0.159896448255,0.226184606552,2027,2021,2549,2019,2019,2939,3428,3426,3244,3364,3088,3060,3164,3154,3245,2863,3413,3416,3251,3367,3136,3356,3385,3190
1508400836097831425,146,1508400836097413693,plot_matl,0.25,-2000.0,0.217352330685,0.0069401441142,-0.0326476693153,-63.6582717896,0.349065840244,0.0809688791633,-0.00220844452269,0.217384949327,0.00438043288887,0.00438043288887,0.0043368623592,0.00632143672556,-73.0374755859,-73.0374755859,0.829885721207,85.7012786865,2021,2056,2111,2018,2018,2705,3318,3342,3146,3289,3006,2975,3058,3087,3168,2930,3386,3379,3219,3281,2937,3278,3305,3026,0.010012868,1.459965144,1.461878728,0.453785598278,4500.0,0.430034726858,0.0108005758375,-0.0237508714199,106.878929138,0.0,6000.0,-0.00221965741366,0.00459999963641,0.0,0.0,0.349065840244,0.0265011657029,-0.0018781949766,0.314198285341,0.0184173788875,0.0184173788875,0.00723546836525,-0.0377825349569,111.349029541,111.349029541,0.159896448255,0.226184606552,2023,2020,2548,2019,2019,2939,3428,3426,3244,3364,3088,3060,3164,3154,3245,2864,3411,3420,3251,3365,3136,3357,3388,3190
1508400836107706032,147,1508400836107429633,plot_matl,0.25,-2000.0,0.217382088304,0.00635368609801,-0.0326179116964,-63.7628860474,0.349065840244,0.0809688791633,-0.00220844452269,0.217384949327,0.00438043288887,0.00438043288887,0.0043368623592,0.00632143672556,-73.0374755859,-73.0374755859,0.829885721207,85.7012786865,2032,2059,2111,2019,2019,2706,3319,3339,3147,3290,3003,2978,3057,3087,3168,2930,3386,3379,3219,3281,2937,3278,3305,3026,0.010014683,1.469980636,1.472158401,0.453785598278,4500.0,0.430034726858,0.0113338800147,-0.0237508714199,106.878929138,0.0,6000.0,-0.00223866500892,0.00496297515929,0.0,0.0,0.349065840244,0.0265011657029,-0.0018781949766,0.314198285341,0.0184173788875,0.0184173788875,0.00723546836525,-0.0377825349569,111.349029541,111.349029541,0.159896448255,0.226184606552,2023,2023,2548,2022,2022,2940,3427,3426,3243,3363,3089,3060,3162,3154,3245,2864,3411,3420,3251,3365,3136,3357,3388,3190
1508400836117908733,148,1508400836117405131,plot_matl,0.25,-2000.0,0.217382088304,0.00635368609801,-0.0326179116964,-63.7628860474,0.349065840244,0.0809688791633,-0.00220844452269,0.217384949327,0.00438043288887,0.00438043288887,0.0043368623592,0.00632143672556,-73.0374755859,-73.0374755859,0.829885721207,85.7012786865,2028,2061,2111,2019,2019,2706,3319,3339,3147,3290,3003,2978,3057,3087,3167,2930,3385,3382,3220,3280,2936,3279,3304,3026,0.009976536,1.479956568,1.476527328,0.453785598278,4500.0,0.430034726858,0.00922770425677,-0.0237508714199,106.878929138,0.0,6000.0,-0.0022306391038,0.004795555491,0.0,0.0,0.349065840244,0.0265011657029,-0.0018781949766,0.314198285341,0.0184173788875,0.0184173788875,0.00723546836525,-0.0377825349569,111.349029541,111.349029541,0.159896448255,0.226184606552,2027,2027,2548,2022,2022,2940,3427,3426,3243,3363,3089,3060,3162,3153,3243,2864,3412,3419,3252,3368,3137,3356,3387,3190
1508400836127875722,149,1508400836127455023,plot_matl,0.25,-2000.0,0.217373356223,0.00654245400801,-0.0326266400516,-63.6843681335,0.349065840244,0.0809688791633,-0.00222136895172,0.217349305749,0.00469723064452,0.00469723064452,0.0046081696637,0.00702015357092,-73.1690750122,-73.1690750122,0.893753886223,85.5687332153,2028,2061,2111,2019,2019,2706,3319,3339,3147,3290,3003,2978,3057,3087,3167,2930,3385,3382,3220,3280,2936,3279,3304,3026,0.010048559,1.49000639,1.497235291,0.453785598278,4500.0,0.430034726858,0.00922770425677,-0.0237508714199,106.878929138,0.0,6000.0,-0.0022306391038,0.004795555491,0.0,0.0,0.349065840244,0.0240919683129,-0.00185792101547,0.31427821517,-0.001829669578,-0.001829669578,0.00680440571159,0.0224403869361,111.192398071,111.192398071,0.0381105989218,0.081773377955,2027,2027,2548,2022,2022,2940,3427,3426,3243,3363,3089,3060,3162,3153,3243,2864,3412,3419,3252,3368,3137,3356,3387,3190
1508400836137677460,150,1508400836137404855,plot_matl,0.25,-2000.0,0.217201039195,-0.0289654415101,-0.0327989682555,-72.2998199463,0.349065840244,0.0809688791633,-0.00222136895172,0.217349305749,0.00469723064452,0.00469723064452,0.0046081696637,0.00702015357092,-73.1690750122,-73.1690750122,0.893753886223,85.5687332153,2018,2072,2110,2019,2019,2717,3331,3350,3152,3299,3012,2983,3063,3092,3171,2934,3389,3383,3219,3284,2937,3279,3304,3026,0.009949533,1.49995629,1.49242995,0.453785598278,4500.0,0.428685247898,-0.0180371049792,-0.0251003541052,112.951591492,0.0,6000.0,-0.00218654004857,0.00385899166577,0.0,0.0,0.349065840244,0.0240919683129,-0.00185792101547,0.31427821517,-0.001829669578,-0.001829669578,0.00680440571159,0.0224403869361,111.192398071,111.192398071,0.0381105989218,0.081773377955,2026,2034,2549,2022,2022,2950,3438,3434,3250,3369,3093,3065,3169,3159,3248,2866,3415,3423,3254,3370,3138,3356,3387,3190
1508400836147555418,151,1508400836147391562,plot_matl,0.25,-2000.0,0.217254027724,-0.0298286117613,-0.0327459685504,-72.5699386597,0.349065840244,0.0809688791633,-0.00222136895172,0.217349305749,0.00469723064452,0.00469723064452,0.0046081696637,0.00702015357092,-73.1690750122,-73.1690750122,0.893753886223,85.5687332153,2014,2064,2110,2017,2017,2708,3320,3344,3145,3299,3012,2983,3063,3092,3171,2934,3389,3383,3219,3284,2937,3282,3307,3028,0.009985029,1.509942221,1.507739379,0.453785598278,4500.0,0.428685247898,-0.016712391749,-0.0251003541052,112.951591492,0.0,6000.0,-0.00221237936057,0.00439647398889,0.0,0.0,0.349065840244,0.0240919683129,-0.00185792101547,0.31427821517,-0.001829669578,-0.001829669578,0.00680440571159,0.0224403869361,111.192398071,111.192398071,0.0381105989218,0.081773377955,2025,2026,2549,2018,2018,2941,3430,3427,3246,3369,3093,3065,3169,3159,3248,2866,3415,3423,3254,3370,3138,3357,3388,3191
1508400836157565162,152,1508400836157393164,plot_matl,0.25,-2000.0,0.217254027724,-0.0298286117613,-0.0327459685504,-72.5699386597,0.349065840244,0.0809688791633,-0.00222136895172,0.217349305749,0.00469723064452,0.00469723064452,0.0046081696637,0.00702015357092,-73.1690750122,-73.1690750122,0.893753886223,85.5687332153,2014,2064,2110,2017,2017,2708,3320,3344,3145,3299,3012,2983,3063,3092,3171,2934,3389,3383,3219,3284,2937,3282,3307,3028,0.010001074,1.51994354,1.520163248,0.453785598278,4500.0,0.430034726858,0.0110678710043,-0.0237508714199,106.878929138,0.0,6000.0,-0.00221237936057,0.00439647398889,0.0,0.0,0.349065840244,0.0240919683129,-0.00185792101547,0.31427821517,-0.001829669578,-0.001829669578,0.00680440571159,0.0224403869361,111.192398071,111.192398071,0.0381105989218,0.081773377955,2025,2026,2549,2018,2018,2941,3430,3427,3246,3369,3093,3065,3169,3159,3248,2866,3415,3423,3254,3370,3138,3357,3388,3191
1508400836167575120,153,1508400836167391994,plot_matl,0.25,-2000.0,0.217206642032,0.00926102604717,-0.0327933579683,-63.26222229,0.349065840244,0.0809688791633,-0.00219581089914,0.217176556587,0.00559588707983,0.00559588707983,0.00407958589494,-0.028082812205,-73.3050613403,-73.3050613403,1.02440536022,85.719329834,2027,2060,2110,2017,2017,2708,3320,3344,3145,3292,3006,2979,3060,3086,3169,2932,3388,3381,3220,3284,2937,3282,3307,3028,0.00999935,1.529942582,1.52990055,0.453785598278,4500.0,0.430034726858,0.0110678710043,-0.0237508714199,106.878929138,0.0,6000.0,-0.00219699693844,0.00410132063553,0.0,0.0,0.349065840244,0.0265011657029,-0.00187086418737,0.314262598753,0.0218458324671,0.0218458324671,0.00679939286783,-0.0391549877822,111.074630737,111.074630737,0.388112425804,0.500541687012,2023,2030,2549,2018,2018,2941,3430,3427,3246,3363,3090,3062,3165,3155,3246,2863,3414,3420,3252,3370,3138,3357,3388,3191
1508400836177647087,154,1508400836177395450,plot_matl,0.25,-2000.0,0.217338621616,0.00677208090201,-0.0326613709331,-63.5377464294,0.349065840244,0.0809688791633,-0.00219581089914,0.217176556587,0.00559588707983,0.00559588707983,0.00407958589494,-0.028082812205,-73.3050613403,-73.3050613403,1.02440536022,85.719329834,2021,2051,2110,2022,2022,2712,3324,3344,3145,3292,3006,2979,3060,3086,3169,2932,3388,3381,3220,3281,2951,3296,3318,3041,0.010003748,1.539946206,1.540577192,0.453785598278,4500.0,0.428685247898,-0.0161016825587,-0.0251003541052,112.951591492,0.0,6000.0,-0.00225987075828,-0.00857190228999,0.0,0.0,0.349065840244,0.0265011657029,-0.00187086418737,0.314262598753,0.0218458324671,0.0218458324671,0.00679939286783,-0.0391549877822,111.074630737,111.074630737,0.388112425804,0.500541687012,2026,2026,2549,2018,2018,2946,3433,3427,3246,3363,3090,3062,3165,3155,3246,2863,3414,3420,3252,3369,3153,3369,3400,3203
1508400836187919895,155,1508400836187472837,plot_matl,0.25,-2000.0,0.217365771532,0.00628302944824,-0.0326342284679,-63.7698020935,0.349065840244,0.0809688791633,-0.00219581089914,0.217176556587,0.00559588707983,0.00559588707983,0.00407958589494,-0.028082812205,-73.3050613403,-73.3050613403,1.02440536022,85.719329834,2013,2051,2110,2022,2022,2712,3324,3346,3151,3298,3009,2982,3063,3090,3171,2933,3392,3381,3220,3281,2951,3296,3318,3041,0.010079755,1.550024775,1.562362025,0.453785598278,4500.0,0.430034726858,0.0110851256177,-0.0237508714199,106.878929138,0.0,6000.0,-0.00226057041436,0.00494182156399,0.0,0.0,0.349065840244,0.0265011657029,-0.00187086418737,0.314262598753,0.0218458324671,0.0218458324671,0.00679939286783,-0.0391549877822,111.074630737,111.074630737,0.388112425804,0.500541687012,2019,2024,2549,2018,2018,2946,3433,3431,3248,3369,3093,3064,3167,3157,3247,2865,3415,3420,3252,3369,3153,3369,3400,3203
1508400836197821150,156,1508400836197421138,plot_matl,0.25,-2000.0,0.217425882816,0.00514266360551,-0.0325741134584,-63.8896446228,0.349065840244,0.0809688791633,-0.00219581089914,0.217176556587,0.00559588707983,0.00559588707983,0.00407958589494,-0.028082812205,-73.3050613403,-73.3050613403,1.02440536022,85.719329834,2018,2065,2111,2018,2018,2712,3324,3346,3151,3298,3009,2982,3063,3090,3171,2933,3392,3384,3220,3284,2937,3282,3308,3029,0.00994727,1.559972826,1.55177412,0.453785598278,4500.0,0.428685247898,-0.0166922099888,-0.0251003541052,112.951591492,0.0,6000.0,-0.00224924040958,-0.00862662959844,0.0,0.0,0.349065840244,0.0265011657029,-0.00187086418737,0.314262598753,0.0218458324671,0.0218458324671,0.00679939286783,-0.0391549877822,111.074630737,111.074630737,0.388112425804,0.500541687012,2028,2028,2549,2021,2021,2946,3433,3431,3248,3369,3093,3064,3167,3157,3247,2865,3415,3420,3254,3371,3138,3357,3388,3192
1508400836207856971,157,1508400836207412894,plot_matl,0.25,-2000.0,0.217329695821,-0.0308537632227,-0.0326703079045,-73.0654907227,0.349065840244,0.0796194002032,-0.00224782363512,0.217280715704,-0.00860510766506,-0.00860510766506,0.00450300704688,0.00786195788532,-72.756690979,-72.756690979,0.949878156185,85.9762268066,2027,2069,2111,2018,2018,2706,3321,3342,3146,3291,3006,2978,3061,3088,3169,2933,3392,3384,3220,3284,2937,3282,3308,3029,0.009990242,1.56996405,1.568467994,0.453785598278,4500.0,0.427335768938,-0.0427968390286,-0.0264498349279,119.024261475,0.0,6000.0,-0.00221509370022,0.00417555728927,0.0,0.0,0.349065840244,0.0240919683129,-0.00190601241775,0.314487069845,4.69162041554e-05,4.69162041554e-05,0.00685383751988,0.018157845363,111.157615662,111.157615662,0.258205324411,0.637241542339,2029,2036,2549,2021,2021,2941,3429,3428,3247,3365,3090,3060,3165,3156,3246,2865,3415,3420,3254,3371,3138,3357,3388,3192
1508400836218034301,158,1508400836217430573,plot_matl,0.25,-2000.0,0.217329695821,-0.0308537632227,-0.0326703079045,-73.0654907227,0.349065840244,0.0796194002032,-0.00224782363512,0.217280715704,-0.00860510766506,-0.00860510766506,0.00450300704688,0.00786195788532,-72.756690979,-72.756690979,0.949878156185,85.9762268066,2027,2069,2111,2018,2018,2706,3321,3342,3146,3291,3006,2978,3061,3088,3169,2933,3392,3384,3220,3284,2937,3282,3308,3029,0.010018867,1.579982476,1.582980986,0.453785598278,4500.0,0.427335768938,-0.0427968390286,-0.0264498349279,119.024261475,0.0,6000.0,-0.00221509370022,0.00417555728927,0.0,0.0,0.349065840244,0.0240919683129,-0.00190601241775,0.314487069845,4.69162041554e-05,4.69162041554e-05,0.00685383751988,0.018157845363,111.157615662,111.157615662,0.258205324411,0.637241542339,2029,2036,2549,2021,2021,2941,3429,3428,3247,3365,3090,3060,3165,3156,3246,2865,3415,3420,3254,3371,3138,3357,3388,3192
1508400836227569267,159,1508400836227408171,plot_matl,0.25,-2000.0,0.217406243086,0.0055760643445,-0.0325937643647,-63.7094039917,0.349065840244,0.0796194002032,-0.00224782363512,0.217280715704,-0.00860510766506,-0.00860510766506,0.00450300704688,0.00786195788532,-72.756690979,-72.756690979,0.949878156185,85.9762268066,2011,2045,2110,2018,2018,2706,3321,3342,3146,3291,3006,2978,3061,3088,3169,2930,3388,3382,3237,3299,2951,3294,3317,3040,0.009974362,1.589958822,1.585923558,0.453785598278,4500.0,0.430034726858,0.0114993788302,-0.0237508714199,106.878929138,0.0,6000.0,-0.00216807401739,0.00333983171731,0.0,0.0,0.349065840244,0.0240919683129,-0.00190601241775,0.314487069845,4.69162041554e-05,4.69162041554e-05,0.00685383751988,0.018157845363,111.157615662,111.157615662,0.258205324411,0.637241542339,2029,2032,2549,2021,2021,2941,3429,3428,3247,3365,3090,3060,3165,3156,3246,2864,3412,3418,3268,3383,3150,3370,3399,3202
1508400836237933209,160,1508400836237498940,plot_matl,0.25,-2000.0,0.217413038015,-0.0322317630053,-0.0325869619846,-73.0443344116,0.349065840244,0.0796194002032,-0.00224423455074,0.21743118763,-0.00818280410022,-0.00818280410022,0.00470103044063,0.00504204118624,-72.7085418701,-72.7085418701,0.532291412354,85.9369506836,2057,2078,2110,2017,2017,2716,3328,3351,3155,3301,3011,2985,3064,3088,3169,2930,3388,3382,3237,3299,2951,3294,3317,3040,0.010093342,1.600050573,1.61493472,0.453785598278,4500.0,0.428685247898,-0.0157733056694,-0.0251003541052,112.951591492,0.0,6000.0,-0.0021888599731,0.00361424428411,0.0,0.0,0.349065840244,0.0240919683129,-0.00184800603893,0.31452268362,-0.00058592640562,-0.00058592640562,-0.0092184683308,0.0173702780157,111.020683289,111.020683289,0.287572354078,0.206543937325,2032,2029,2549,2019,2019,2950,3441,3438,3253,3371,3097,3068,3169,3156,3246,2864,3412,3418,3268,3383,3150,3370,3399,3202
1508400836247984751,161,1508400836247469798,plot_matl,0.25,-2000.0,0.217464417219,0.00464932760224,-0.0325355753303,-63.943447113,0.349065840244,0.0796194002032,-0.00224423455074,0.21743118763,-0.00818280410022,-0.00818280410022,0.00470103044063,0.00504204118624,-72.7085418701,-72.7085418701,0.532291412354,85.9369506836,2012,2028,2110,2017,2017,2716,3328,3351,3155,3301,3011,2985,3064,3092,3175,2935,3391,3387,3223,3287,2940,3284,3308,3040,0.009970256,1.6100213,1.605211216,0.453785598278,4500.0,0.430034726858,0.0123365670443,-0.0237508714199,106.878929138,0.0,6000.0,-0.00217872089706,0.00346750672907,0.0,0.0,0.349065840244,0.0240919683129,-0.00184800603893,0.31452268362,-0.00058592640562,-0.00058592640562,-0.0092184683308,0.0173702780157,111.020683289,111.020683289,0.287572354078,0.206543937325,2037,2024,2549,2019,2019,2950,3441,3438,3253,3371,3097,3068,3169,3161,3249,2867,3417,3422,3253,3371,3141,3360,3389,3202
1508400836257726418,162,1508400836257403539,plot_matl,0.25,-2000.0,0.217511281371,0.0416347943246,-0.0324887186289,-55.0175209045,0.349065840244,0.0796194002032,-0.00224423455074,0.21743118763,-0.00818280410022,-0.00818280410022,0.00470103044063,0.00504204118624,-72.7085418701,-72.7085418701,0.532291412354,85.9369506836,2046,2057,2111,2020,2020,2708,3323,3343,3146,3294,3007,2985,3064,3092,3175,2935,3391,3387,3223,3287,2940,3284,3308,3028,0.009931017,1.619954262,1.608824754,0.453785598278,4500.0,0.428685247898,-0.0131869018078,-0.0251003541052,112.951591492,0.0,6000.0,-0.00219184136949,-0.00963478628546,0.0,0.0,0.349065840244,0.0240919683129,-0.00184800603893,0.31452268362,-0.00058592640562,-0.00058592640562,-0.0092184683308,0.0173702780157,111.020683289,111.020683289,0.287572354078,0.206543937325,2036,2024,2549,2024,2024,2943,3431,3428,3249,3366,3091,3068,3169,3161,3249,2867,3417,3422,3253,3371,3141,3360,3389,3192
1508400836267843014,163,1508400836267458004,plot_matl,0.25,-2000.0,0.217449069023,0.00498889293522,-0.0325509272516,-63.9665298462,0.349065840244,0.0796194002032,-0.00224423455074,0.21743118763,-0.00818280410022,-0.00818280410022,0.00470103044063,0.00504204118624,-72.7085418701,-72.7085418701,0.532291412354,85.9369506836,2059,2071,2111,2020,2020,2708,3323,3343,3146,3294,3007,2978,3062,3086,3170,2932,3386,3381,3220,3284,2938,3284,3308,3028,0.010055618,1.630009566,1.639065734,0.453785598278,4500.0,0.430034726858,0.0145019609481,-0.0237508714199,106.878929138,0.0,6000.0,-0.00219129049219,0.00381451379508,0.0,0.0,0.349065840244,0.0240919683129,-0.00184800603893,0.31452268362,-0.00058592640562,-0.00058592640562,-0.0092184683308,0.0173702780157,111.020683289,111.020683289,0.287572354078,0.206543937325,2039,2028,2549,2024,2024,2943,3431,3428,3249,3366,3091,3063,3165,3157,3245,2863,3415,3421,3253,3369,3137,3360,3389,3192
1508400836277881343,164,1508400836277443039,plot_matl,0.25,-2000.0,0.217491447926,0.00412756064907,-0.0325085557997,-63.9844207764,0.349065840244,0.0796194002032,-0.0021888599731,0.217413038015,-0.00788665283471,-0.00788665283471,0.00361424428411,-0.0322317630053,-73.5982818604,-73.5982818604,0.676816821098,85.208770752,1982,2021,2110,2017,2017,2708,3320,3344,3146,3294,3007,2978,3062,3086,3170,2932,3386,3381,3220,3284,2938,3279,3307,3026,0.00998519,1.639994892,1.63757116,0.453785598278,4500.0,0.430034726858,0.0148715563118,-0.0237508714199,106.878929138,0.0,6000.0,-0.00222747051157,0.00457133585587,0.0,0.0,0.349065840244,0.0240919683129,-0.00174557196442,0.314607292414,0.000700877862982,0.000700877862982,0.00426236353815,0.0155659690499,111.253318787,111.253318787,0.670681118965,0.546591520309,2023,2026,2549,2022,2022,2941,3429,3426,3246,3366,3091,3063,3165,3157,3245,2863,3415,3421,3253,3369,3137,3358,3389,3190
1508400836288050300,165,1508400836287472254,plot_matl,0.25,-2000.0,0.217420443892,-0.0323680713773,-0.0325795486569,-73.0194244385,0.349065840244,0.0796194002032,-0.0021888599731,0.217413038015,-0.00788665283471,-0.00788665283471,0.00361424428411,-0.0322317630053,-73.5982818604,-73.5982818604,0.676816821098,85.208770752,2042,2074,2110,2017,2017,2708,3320,3344,3146,3292,3006,2977,3060,3088,3170,2932,3387,3380,3219,3284,2938,3279,3307,3026,0.010029741,1.650024007,1.654907265,0.453785598278,4500.0,0.428685247898,-0.0135081680492,-0.0251003541052,112.951591492,0.0,6000.0,-0.00227084360085,-0.00794260483235,0.0,0.0,0.349065840244,0.0240919683129,-0.00174557196442,0.314607292414,0.000700877862982,0.000700877862982,0.00426236353815,0.0155659690499,111.253318787,111.253318787,0.670681118965,0.546591520309,2025,2027,2549,2022,2022,2941,3429,3426,3246,3363,3090,3061,3163,3156,3244,2863,3412,3420,3251,3369,3137,3358,3389,3190
1508400836297761990,166,1508400836297411556,plot_matl,0.25,-2000.0,0.217436984181,0.00521072093397,-0.032563008368,-63.8097114563,0.349065840244,0.0796194002032,-0.0021888599731,0.217413038015,-0.00788665283471,-0.00788665283471,0.00361424428411,-0.0322317630053,-73.5982818604,-73.5982818604,0.676816821098,85.208770752,2035,2064,2110,2018,2018,2707,3322,3344,3146,3292,3006,2977,3060,3088,3170,2932,3387,3380,3219,3282,2937,3278,3305,3026,0.009936746,1.659962632,1.649499836,0.453785598278,4500.0,0.428685247898,-0.0135072171688,-0.0251003541052,112.951591492,0.0,6000.0,-0.002280050423,0.00568588031456,0.0,0.0,0.349065840244,0.0240919683129,-0.00174557196442,0.314607292414,0.000700877862982,0.000700877862982,0.00426236353815,0.0155659690499,111.253318787,111.253318787,0.670681118965,0.546591520309,2027,2020,2549,2022,2022,2941,3429,3426,3246,3363,3090,3061,3163,3156,3244,2863,3412,3420,3251,3369,3136,3356,3386,3190
1508400836307901004,167,1508400836307433820,plot_matl,0.25,-2000.0,0.217384696007,0.00628110952675,-0.0326153077185,-63.7166404724,0.349065840244,0.0796194002032,-0.0021888599731,0.217413038015,-0.00788665283471,-0.00788665283471,0.00361424428411,-0.0322317630053,-73.5982818604,-73.5982818604,0.676816821098,85.208770752,2010,2033,2110,2018,2018,2707,3322,3341,3146,3290,3005,2976,3059,3086,3168,2931,3385,3380,3219,3282,2937,3278,3305,3026,0.010024344,1.669985573,1.674065448,0.453785598278,4500.0,0.430034726858,0.0132461879402,-0.0237508714199,106.878929138,0.0,6000.0,-0.0022657760419,-0.00800630450249,0.0,0.0,0.349065840244,0.0240919683129,-0.00174557196442,0.314607292414,0.000700877862982,0.000700877862982,0.00426236353815,0.0155659690499,111.253318787,111.253318787,0.670681118965,0.546591520309,2028,2027,2549,2022,2022,2941,3429,3427,3246,3364,3088,3059,3162,3155,3244,2863,3413,3420,3251,3369,3136,3356,3386,3190
1508400836317853681,168,1508400836317437873,plot_matl,0.25,-2000.0,0.217384696007,0.00628110952675,-0.0326153077185,-63.7166404724,0.349065840244,0.0809688791633,-0.00222747051157,0.217491447926,0.00743577815592,0.00743577815592,0.00457133585587,0.00412756064907,-73.412651062,-73.412651062,0.772831916809,85.5541763306,2010,2033,2110,2018,2018,2707,3322,3341,3146,3290,3005,2976,3059,3086,3168,2931,3385,3380,3219,3282,2937,3278,3305,3026,0.010001818,1.67998919,1.680305424,0.453785598278,4500.0,0.430034726858,0.0132461879402,-0.0237508714199,106.878929138,0.0,6000.0,-0.0022657760419,-0.00800630450249,0.0,0.0,0.349065840244,0.0240919683129,-0.0017403413076,0.314789146185,0.00300339958631,0.00300339958631,0.0043139597401,0.0119430506602,111.390045166,111.390045166,0.924542665482,0.846522986889,2028,2027,2549,2022,2022,2941,3429,3427,3246,3364,3088,3059,3162,3155,3244,2863,3413,3420,3251,3369,3136,3356,3386,3190
1508400836327842798,169,1508400836327414649,plot_matl,0.25,-2000.0,0.217602849007,0.0416636839509,-0.0323971584439,-0.398245066404,0.349065840244,0.0809688791633,-0.00222747051157,0.217491447926,0.00743577815592,0.00743577815592,0.00457133585587,0.00412756064907,-73.412651062,-73.412651062,0.772831916809,85.5541763306,2052,2092,2111,2017,2017,2707,3322,3341,3146,3290,3005,2976,3059,3086,3168,2931,3385,3381,3221,3282,2935,3278,3304,3028,0.009975995,1.689965991,1.685943155,0.453785598278,4500.0,0.430034726858,0.0119654880837,-0.0237508714199,106.878929138,0.0,6000.0,-0.00222584605217,0.00462822569534,0.0,0.0,0.349065840244,0.0240919683129,-0.0017403413076,0.314789146185,0.00300339958631,0.00300339958631,0.0043139597401,0.0119430506602,111.390045166,111.390045166,0.924542665482,0.846522986889,2030,2031,2549,2020,2020,2941,3429,3427,3246,3364,3088,3059,3162,3155,3244,2863,3413,3418,3253,3367,3138,3356,3388,3191
1508400836338073462,170,1508400836337499160,plot_matl,0.25,-2000.0,0.217553928494,0.00419873744249,-0.0324460715055,-64.1824188232,0.349065840244,0.0809688791633,-0.00222747051157,0.217491447926,0.00743577815592,0.00743577815592,0.00457133585587,0.00412756064907,-73.412651062,-73.412651062,0.772831916809,85.5541763306,1991,2038,2111,2017,2017,2717,3329,3350,3156,3299,3011,2984,3064,3092,3174,2931,3385,3381,3221,3282,2935,3278,3304,3028,0.010085874,1.700050952,1.71459858,0.453785598278,4500.0,0.430034726858,0.0111778136343,-0.0237508714199,106.878929138,0.0,6000.0,-0.00219422159716,0.00399751868099,0.0,0.0,0.349065840244,0.0240919683129,-0.0017403413076,0.314789146185,0.00300339958631,0.00300339958631,0.0043139597401,0.0119430506602,111.390045166,111.390045166,0.924542665482,0.846522986889,2017,2025,2549,2020,2020,2952,3438,3435,3253,3369,3095,3066,3168,3160,3250,2863,3413,3418,3253,3367,3138,3356,3388,3191
1508400836347820507,171,1508400836347425572,plot_matl,0.25,-2000.0,0.217580258846,0.00341854221188,-0.0324197337031,-64.2707672119,0.349065840244,0.0809688791633,-0.00222747051157,0.217491447926,0.00743577815592,0.00743577815592,0.00457133585587,0.00412756064907,-73.412651062,-73.412651062,0.772831916809,85.5541763306,2013,2075,2110,2017,2017,2717,3329,3350,3156,3299,3011,2984,3064,3092,3174,2936,3392,3383,3224,3285,2939,3284,3308,3029,0.009926007,1.709977435,1.697347197,0.453785598278,4500.0,0.430034726858,0.0111625231802,-0.0237508714199,106.878929138,0.0,6000.0,-0.00224284804426,-0.00842864438891,0.0,0.0,0.349065840244,0.0240919683129,-0.0017403413076,0.314789146185,0.00300339958631,0.00300339958631,0.0043139597401,0.0119430506602,111.390045166,111.390045166,0.924542665482,0.846522986889,2017,2028,2549,2020,2020,2952,3438,3435,3253,3369,3095,3066,3168,3160,3250,2866,3416,3422,3255,3370,3140,3359,3390,3189
1508400836357835406,172,1508400836357443211,plot_matl,0.25,-2000.0,0.217565014958,0.00354574294761,-0.0324349813163,-64.2089385986,0.349065840244,0.0809688791633,-0.00222584605217,0.217602849007,0.00598274404183,0.00598274404183,0.00462822569534,0.0416636839509,-73.516166687,-73.516166687,0.626554310322,84.9554748535,2024,2076,2110,2016,2016,2708,3321,3344,3146,3294,3004,2976,3058,3092,3174,2936,3392,3383,3224,3285,2939,3284,3308,3029,0.010017008,1.719995129,1.722925376,0.453785598278,4500.0,0.428685247898,-0.0161213502288,-0.0251003541052,112.951591492,0.0,6000.0,-0.00223276298493,0.00480008497834,0.0,0.0,0.349065840244,0.0240919683129,-0.00168684462551,0.31477022171,0.00169675122015,0.00169675122015,0.00332418060862,0.0123803187162,110.989906311,110.989906311,0.551589608192,1.11862802505,2024,2035,2549,2022,2022,2942,3428,3430,3247,3365,3091,3062,3164,3160,3250,2866,3416,3422,3255,3370,3140,3359,3390,3189
1508400836367815451,173,1508400836367453754,plot_matl,0.25,-2000.0,0.217588499188,0.00285137025639,-0.0324115082622,-64.3007354736,0.349065840244,0.0809688791633,-0.00222584605217,0.217602849007,0.00598274404183,0.00598274404183,0.00462822569534,0.0416636839509,-73.516166687,-73.516166687,0.626554310322,84.9554748535,2013,2048,2110,2016,2016,2708,3321,3344,3146,3294,3004,2976,3058,3089,3168,2932,3387,3382,3219,3283,2938,3282,3308,3029,0.01000937,1.730005366,1.73162101,0.453785598278,4500.0,0.430034726858,0.0105589386076,-0.0237508714199,106.878929138,0.0,6000.0,-0.00221348437481,-0.00899520236999,0.0,0.0,0.349065840244,0.0240919683129,-0.00168684462551,0.31477022171,0.00169675122015,0.00169675122015,0.00332418060862,0.0123803187162,110.989906311,110.989906311,0.551589608192,1.11862802505,2022,2020,2549,2022,2022,2942,3428,3430,3247,3365,3091,3062,3164,3156,3244,2862,3413,3419,3253,3368,3137,3357,3387,3189
1508400836377661819,174,1508400836377419876,plot_matl,0.25,-2000.0,0.217608228326,0.00233264663257,-0.0323917716742,-64.3550338745,0.349065840244,0.0809688791633,-0.00222584605217,0.217602849007,0.00598274404183,0.00598274404183,0.00462822569534,0.0416636839509,-73.516166687,-73.516166687,0.626554310322,84.9554748535,2019,2049,2111,2021,2021,2707,3322,3341,3145,3292,3005,2976,3058,3089,3168,2932,3387,3382,3219,3283,2938,3282,3308,3024,0.009965139,1.739971187,1.733934186,0.453785598278,4500.0,0.430034726858,0.0111047783867,-0.0237508714199,106.878929138,0.0,6000.0,-0.00223488244228,-0.00855568516999,0.0,0.0,0.349065840244,0.0240919683129,-0.00168684462551,0.31477022171,0.00169675122015,0.00169675122015,0.00332418060862,0.0123803187162,110.989906311,110.989906311,0.551589608192,1.11862802505,2033,2025,2549,2026,2026,2940,3428,3429,3244,3366,3088,3062,3164,3156,3244,2862,3413,3419,3253,3368,3137,3357,3387,3190
1508400836387829368,175,1508400836387420566,plot_matl,0.25,-2000.0,0.217629775405,0.0397592000663,-0.0323702245951,-55.1439437866,0.349065840244,0.0809688791633,-0.00222584605217,0.217602849007,0.00598274404183,0.00598274404183,0.00462822569534,0.0416636839509,-73.516166687,-73.516166687,0.626554310322,84.9554748535,2056,2089,2111,2021,2021,2707,3322,3341,3145,3292,3005,2976,3060,3088,3166,2931,3388,3379,3220,3283,2935,3282,3308,3024,0.010001929,1.74997297,1.750337575,0.453785598278,4500.0,0.430034726858,0.0115300798789,-0.0237508714199,106.878929138,0.0,6000.0,-0.00222716922872,0.00469624716789,0.0,0.0,0.349065840244,0.0240919683129,-0.00168684462551,0.31477022171,0.00169675122015,0.00169675122015,0.00332418060862,0.0123803187162,110.989906311,110.989906311,0.551589608192,1.11862802505,2032,2026,2549,2026,2026,2940,3428,3429,3244,3366,3088,3059,3164,3155,3244,2863,3410,3416,3253,3367,3136,3357,3387,3190
1508400836397726539,176,1508400836397412623,plot_matl,0.25,-2000.0,0.217638149858,0.00158667389769,-0.0323618501425,-64.4366989136,0.349065840244,0.0809688791633,-0.00222666375339,0.217573985457,0.00539905857295,0.00539905857295,0.00469078775495,0.0032464878168,-73.3766784668,-73.3766784668,0.742211639881,85.6210632324,1993,2033,2110,2022,2022,2706,3318,3342,3146,3292,3005,2976,3060,3088,3166,2931,3388,3379,3220,3283,2935,3280,3308,3026,0.009990225,1.759963979,1.7582796,0.453785598278,4500.0,0.428685247898,-0.0153211448342,-0.0251003541052,112.951591492,0.0,6000.0,-0.00223515927792,0.00485698599368,0.0,0.0,0.349065840244,0.0240919683129,-0.00168538454454,0.314906209707,-0.000978293712251,-0.000978293712251,0.00332136475481,0.00962000526488,110.958045959,110.958045959,-0.123935803771,0.77126455307,2025,2025,2549,2021,2021,2940,3430,3427,3246,3366,3088,3059,3164,3155,3244,2863,3410,3416,3253,3367,3136,3356,3386,3189
1508400836407781061,177,1508400836407408419,plot_matl,0.25,-2000.0,0.217648789287,0.0012998644961,-0.0323512144387,-64.4814834595,0.349065840244,0.0809688791633,-0.00222666375339,0.217573985457,0.00539905857295,0.00539905857295,0.00469078775495,0.0032464878168,-73.3766784668,-73.3766784668,0.742211639881,85.6210632324,2036,2075,2110,2022,2022,2706,3318,3342,3146,3290,3006,2977,3057,3088,3166,2931,3387,3380,3216,3283,2935,3280,3308,3026,0.009994757,1.76995963,1.769071989,0.453785598278,4500.0,0.430034726858,0.0121805360541,-0.0237508714199,106.878929138,0.0,6000.0,-0.00224259006791,0.00497110094875,0.0,0.0,0.349065840244,0.0240919683129,-0.00168538454454,0.314906209707,-0.000978293712251,-0.000978293712251,0.00332136475481,0.00962000526488,110.958045959,110.958045959,-0.123935803771,0.77126455307,2033,2036,2549,2021,2021,2940,3430,3427,3246,3362,3088,3060,3163,3154,3243,2863,3411,3418,3253,3367,3136,3356,3386,3189
1508400836418026833,178,1508400836417482498,plot_matl,0.25,-2000.0,0.217588484287,0.00246320897713,-0.0324115082622,-64.2837524414,0.349065840244,0.0809688791633,-0.00222666375339,0.217573985457,0.00539905857295,0.00539905857295,0.00469078775495,0.0032464878168,-73.3766784668,-73.3766784668,0.742211639881,85.6210632324,2040,2074,2110,2021,2021,2706,3317,3342,3146,3290,3006,2977,3057,3088,3166,2931,3387,3380,3216,3281,2937,3281,3305,3026,0.010075789,1.780034261,1.793490442,0.453785598278,4500.0,0.430034726858,0.011923879385,-0.0237508714199,106.878929138,0.0,6000.0,-0.00225755386055,0.00528429914266,0.0,0.0,0.349065840244,0.0240919683129,-0.00168538454454,0.314906209707,-0.000978293712251,-0.000978293712251,0.00332136475481,0.00962000526488,110.958045959,110.958045959,-0.123935803771,0.77126455307,2032,2030,2549,2021,2021,2940,3427,3427,3246,3362,3088,3060,3163,3154,3243,2863,3411,3418,3253,3370,3136,3358,3387,3189
1508400836427845771,179,1508400836427429166,plot_matl,0.25,-2000.0,0.217544168234,0.00335876690224,-0.0324558243155,-64.1556777954,0.349065840244,0.0809688791633,-0.00222666375339,0.217573985457,0.00539905857295,0.00539905857295,0.00469078775495,0.0032464878168,-73.3766784668,-73.3766784668,0.742211639881,85.6210632324,1999,2030,2110,2021,2021,2706,3317,3342,3145,3292,3006,2978,3059,3088,3165,2931,3387,3380,3216,3281,2937,3281,3305,3026,0.009947335,1.789981731,1.780572965,0.453785598278,4500.0,0.428685247898,-0.0155229605734,-0.0251003541052,112.951591492,0.0,6000.0,-0.00225609680638,0.00526150688529,0.0,0.0,0.349065840244,0.0240919683129,-0.00168538454454,0.314906209707,-0.000978293712251,-0.000978293712251,0.00332136475481,0.00962000526488,110.958045959,110.958045959,-0.123935803771,0.77126455307,2026,2019,2549,2021,2021,2940,3427,3427,3246,3361,3088,3061,3163,3155,3244,2863,3412,3418,3253,3370,3136,3358,3387,3189
1508400836437929093,180,1508400836437432478,plot_matl,0.25,-2000.0,0.217544212937,0.0412123426795,-0.0324557833374,-54.87134552,0.349065840244,0.0796194002032,-0.0022301345598,0.217642664909,-0.00760816689581,-0.00760816689581,0.00474974280223,0.00146500742994,-73.6475601196,-73.6475601196,0.734220683575,86.3468475342,2033,2070,2110,2021,2021,2706,3317,3342,3145,3292,3006,2978,3059,3088,3165,2931,3387,3382,3218,3283,2935,3278,3307,3026,0.010001207,1.79998426,1.80021726,0.453785598278,4500.0,0.430034726858,0.0110285859555,-0.0237508714199,106.878929138,0.0,6000.0,-0.00224307365716,0.00500316312537,0.0,0.0,0.349065840244,0.0240919683129,-0.00175667239819,0.314928770065,-0.00033227878157,-0.00033227878157,-0.0105908857659,0.00928952451795,111.087730408,111.087730408,-0.676411151886,0.574530243874,2028,2025,2549,2023,2023,2940,3427,3427,3246,3361,3088,3061,3163,3155,3244,2863,3412,3418,3254,3367,3137,3355,3387,3189
1508400836447926667,181,1508400836447419507,plot_matl,0.25,-2000.0,0.217441350222,0.0053470809944,-0.0325586497784,-63.8765106201,0.349065840244,0.0796194002032,-0.0022301345598,0.217642664909,-0.00760816689581,-0.00760816689581,0.00474974280223,0.00146500742994,-73.6475601196,-73.6475601196,0.734220683575,86.3468475342,2033,2062,2110,2021,2021,2705,3320,3341,3145,3294,3005,2978,3057,3088,3170,2931,3387,3382,3218,3283,2935,3278,3307,3026,0.009987265,1.809971831,1.807694965,0.453785598278,4500.0,0.430034726858,0.0115147745237,-0.0237508714199,106.878929138,0.0,6000.0,-0.00223322049715,-0.00860733631998,0.0,0.0,0.349065840244,0.0240919683129,-0.00175667239819,0.314928770065,-0.00033227878157,-0.00033227878157,-0.0105908857659,0.00928952451795,111.087730408,111.087730408,-0.676411151886,0.574530243874,2022,2025,2549,2023,2023,2939,3428,3425,3246,3364,3089,3060,3163,3154,3243,2863,3412,3418,3254,3367,3137,3355,3387,3189
1508400836457956513,182,1508400836457451604,plot_matl,0.25,-2000.0,0.217455491424,0.00505253998563,-0.0325445085764,-63.889793396,0.349065840244,0.0796194002032,-0.0022301345598,0.217642664909,-0.00760816689581,-0.00760816689581,0.00474974280223,0.00146500742994,-73.6475601196,-73.6475601196,0.734220683575,86.3468475342,1986,2036,2111,2021,2021,2705,3320,3341,3145,3294,3005,2978,3057,3088,3170,2930,3386,3380,3218,3284,2936,3281,3307,3025,0.01003155,1.820003427,1.8257421,0.453785598278,4500.0,0.430034726858,0.0128043070436,-0.0237508714199,106.878929138,0.0,6000.0,-0.00228580995463,-0.0075377705507,0.0,0.0,0.349065840244,0.0240919683129,-0.00175667239819,0.314928770065,-0.00033227878157,-0.00033227878157,-0.0105908857659,0.00928952451795,111.087730408,111.087730408,-0.676411151886,0.574530243874,2020,2024,2549,2023,2023,2939,3428,3425,3246,3364,3089,3060,3163,3154,3243,2864,3412,3417,3250,3366,3137,3356,3386,3190
1508400836467810176,183,1508400836467416152,plot_matl,0.25,-2000.0,0.217499211431,0.00413767667487,-0.0325007811189,-64.0652008057,0.349065840244,0.0796194002032,-0.0022301345598,0.217642664909,-0.00760816689581,-0.00760816689581,0.00474974280223,0.00146500742994,-73.6475601196,-73.6475601196,0.734220683575,86.3468475342,2023,2082,2111,2021,2021,2705,3317,3340,3143,3290,3005,2976,3059,3088,3170,2930,3386,3380,3218,3284,2936,3281,3307,3025,0.009964424,1.82996789,1.823489592,0.453785598278,4500.0,0.428685247898,-0.0142787741497,-0.0251003541052,112.951591492,0.0,6000.0,-0.00228184671141,-0.00761521002278,0.0,0.0,0.349065840244,0.0240919683129,-0.00175667239819,0.314928770065,-0.00033227878157,-0.00033227878157,-0.0105908857659,0.00928952451795,111.087730408,111.087730408,-0.676411151886,0.574530243874,2016,2030,2549,2025,2025,2940,3427,3424,3242,3364,3088,3059,3164,3154,3243,2864,3412,3417,3250,3366,3137,3356,3386,3190
1508400836477904055,184,1508400836477445573,plot_matl,0.25,-2000.0,0.217535227537,0.00338425324298,-0.0324647724628,-64.1111679077,0.349065840244,0.0796194002032,-0.00224890606478,0.217446342111,-0.00800163019449,-0.00800163019449,0.00512909842655,-0.0326444804668,-73.5105819702,-73.5105819702,1.04738426208,86.1416931152,2028,2065,2111,2021,2021,2705,3317,3340,3143,3290,3005,2976,3059,3085,3167,2931,3383,3381,3216,3284,2937,3281,3308,3025,0.010028739,1.839997496,1.845287976,0.453785598278,4500.0,0.430034726858,0.0125480685383,-0.0237508714199,106.878929138,0.0,6000.0,-0.00226481282152,0.00545522151515,0.0,0.0,0.349065840244,0.0240919683129,-0.00174788839649,0.314634770155,0.000273411424132,0.000273411424132,0.00458753248677,0.0151370214298,111.109725952,111.109725952,-0.826141119003,0.663983225822,2027,2030,2549,2025,2025,2940,3427,3424,3242,3364,3088,3059,3164,3153,3244,2862,3411,3418,3249,3370,3135,3355,3387,3190
1508400836487910035,185,1508400836487466665,plot_matl,0.25,-2000.0,0.217564553022,0.00277073984034,-0.0324354469776,-64.208770752,0.349065840244,0.0796194002032,-0.00224890606478,0.217446342111,-0.00800163019449,-0.00800163019449,0.00512909842655,-0.0326444804668,-73.5105819702,-73.5105819702,1.04738426208,86.1416931152,2017,2043,2110,2020,2020,2704,3319,3341,3146,3291,3004,2976,3059,3085,3167,2931,3383,3381,3216,3284,2937,3281,3308,3026,0.010019724,1.850018302,1.85364894,0.453785598278,4500.0,0.430034726858,0.0118552744389,-0.0237508714199,106.878929138,0.0,6000.0,-0.00222776364535,0.00471744686365,0.0,0.0,0.349065840244,0.0240919683129,-0.00174788839649,0.314634770155,0.000273411424132,0.000273411424132,0.00458753248677,0.0151370214298,111.109725952,111.109725952,-0.826141119003,0.663983225822,2028,2028,2549,2022,2022,2938,3428,3427,3244,3363,3088,3059,3164,3153,3244,2862,3411,3418,3249,3370,3135,3355,3387,3189
1508400836497610562,186,1508400836497400386,plot_matl,0.25,-2000.0,0.21752640605,0.00358232832514,-0.032473590225,-64.0760192871,0.349065840244,0.0796194002032,-0.00224890606478,0.217446342111,-0.00800163019449,-0.00800163019449,0.00512909842655,-0.0326444804668,-73.5105819702,-73.5105819702,1.04738426208,86.1416931152,2044,2075,2110,2020,2020,2704,3319,3341,3146,3291,3004,2976,3060,3085,3170,2930,3386,3379,3218,3279,2936,3281,3308,3026,0.009931767,1.859951174,1.847308662,0.453785598278,4500.0,0.428685247898,-0.0146599356085,-0.0251003541052,112.951591492,0.0,6000.0,-0.00220979936421,0.00435258075595,0.0,0.0,0.349065840244,0.0240919683129,-0.00174788839649,0.314634770155,0.000273411424132,0.000273411424132,0.00458753248677,0.0151370214298,111.109725952,111.109725952,-0.826141119003,0.663983225822,2030,2032,2549,2022,2022,2938,3428,3427,3244,3363,3088,3059,3163,3154,3244,2863,3413,3417,3251,3366,3137,3355,3387,3189
1508400836507513384,187,1508400836507391554,plot_matl,0.25,-2000.0,0.217490330338,0.00426742620766,-0.0325096659362,-63.9861297607,0.349065840244,0.0796194002032,-0.00224890606478,0.217446342111,-0.00800163019449,-0.00800163019449,0.00512909842655,-0.0326444804668,-73.5105819702,-73.5105819702,1.04738426208,86.1416931152,2018,2055,2111,2020,2020,2707,3317,3340,3147,3291,3004,2976,3060,3085,3170,2930,3386,3379,3218,3279,2936,3281,3306,3024,0.009991306,1.869942536,1.868374222,0.453785598278,4500.0,0.430034726858,0.0123460311443,-0.0237508714199,106.878929138,0.0,6000.0,-0.00220666942187,-0.00912184640765,0.0,0.0,0.349065840244,0.0240919683129,-0.00174788839649,0.314634770155,0.000273411424132,0.000273411424132,0.00458753248677,0.0151370214298,111.109725952,111.109725952,-0.826141119003,0.663983225822,2028,2031,2548,2021,2021,2939,3427,3426,3244,3363,3088,3059,3163,3154,3244,2863,3413,3417,3251,3366,3137,3357,3385,3191
1508400836517539313,188,1508400836517390906,plot_matl,0.25,-2000.0,0.217600435019,0.00201808102429,-0.0323995687068,-64.107383728,0.349065840244,0.0809688791633,-0.00224369484931,0.217547819018,0.0057858726941,0.0057858726941,0.00503076892346,0.00312093598768,-73.4376373291,-73.4376373291,0.999277472496,86.0259780884,2028,2066,2111,2020,2020,2707,3317,3340,3147,3290,3003,2978,3059,3087,3168,2929,3387,3380,3230,3279,2936,3281,3306,3024,0.0099986,1.879941617,1.8797368,0.453785598278,4500.0,0.430034726858,0.0109490612522,-0.0237508714199,106.878929138,0.0,6000.0,-0.00222533009946,-0.008305195719,0.0,0.0,0.349065840244,0.0240919683129,-0.00173876306508,0.314560741186,-0.00160719268024,-0.00160719268024,-0.0109315402806,0.0167850553989,111.159683228,111.159683228,-0.023245729506,0.762181222439,2032,2025,2548,2021,2021,2939,3427,3426,3244,3362,3088,3060,3165,3153,3245,2862,3412,3416,3266,3366,3137,3357,3385,3191
1508400836527556806,189,1508400836527390204,plot_matl,0.25,-2000.0,0.217503666878,0.00401265546679,-0.032496329397,-64.0554885864,0.349065840244,0.0809688791633,-0.00224369484931,0.217547819018,0.0057858726941,0.0057858726941,0.00503076892346,0.00312093598768,-73.4376373291,-73.4376373291,0.999277472496,86.0259780884,2011,2053,2110,2019,2019,2711,3325,3340,3147,3290,3003,2978,3059,3087,3168,2929,3387,3380,3230,3293,2945,3287,3315,3035,0.009999238,1.889940867,1.889855982,0.453785598278,4500.0,0.428685247898,-0.0158237926662,-0.0251003541052,112.951591492,0.0,6000.0,-0.0022339716088,-0.00829370506108,0.0,0.0,0.349065840244,0.0240919683129,-0.00173876306508,0.314560741186,-0.00160719268024,-0.00160719268024,-0.0109315402806,0.0167850553989,111.159683228,111.159683228,-0.023245729506,0.762181222439,2019,2033,2548,2019,2019,2944,3434,3426,3244,3362,3088,3060,3165,3153,3245,2862,3412,3416,3266,3379,3144,3363,3395,3200
1508400836537519839,190,1508400836537388188,plot_matl,0.25,-2000.0,0.217535927892,0.00333264563233,-0.0324640758336,-64.1473464966,0.349065840244,0.0809688791633,-0.00224369484931,0.217547819018,0.0057858726941,0.0057858726941,0.00503076892346,0.00312093598768,-73.4376373291,-73.4376373291,0.999277472496,86.0259780884,2012,2055,2110,2019,2019,2711,3325,3348,3150,3294,3006,2980,3061,3090,3171,2933,3389,3380,3230,3293,2945,3287,3315,3035,0.009997728,1.899938683,1.89956832,0.453785598278,4500.0,0.428685247898,-0.0159031506628,-0.0251003541052,112.951591492,0.0,6000.0,-0.00219024834223,0.00420013396069,0.0,0.0,0.349065840244,0.0240919683129,-0.00173876306508,0.314560741186,-0.00160719268024,-0.00160719268024,-0.0109315402806,0.0167850553989,111.159683228,111.159683228,-0.023245729506,0.762181222439,2020,2029,2548,2019,2019,2944,3434,3431,3248,3368,3091,3062,3167,3156,3248,2866,3413,3416,3266,3379,3144,3363,3395,3200
1508400836547505945,191,1508400836547391327,plot_matl,0.25,-2000.0,0.217568546534,0.00265229376964,-0.0324314534664,-64.2395095825,0.349065840244,0.0809688791633,-0.00224369484931,0.217547819018,0.0057858726941,0.0057858726941,0.00503076892346,0.00312093598768,-73.4376373291,-73.4376373291,0.999277472496,86.0259780884,2026,2073,2110,2019,2019,2711,3325,3348,3150,3294,3006,2980,3061,3090,3171,2933,3389,3384,3223,3283,2937,3283,3307,3026,0.010002989,1.909941833,1.910570899,0.453785598278,4500.0,0.430034726858,0.0127795832232,-0.0237508714199,106.878929138,0.0,6000.0,-0.0021787462756,0.00392445130274,0.0,0.0,0.349065840244,0.0240919683129,-0.00173876306508,0.314560741186,-0.00160719268024,-0.00160719268024,-0.0109315402806,0.0167850553989,111.159683228,111.159683228,-0.023245729506,0.762181222439,2026,2035,2549,2020,2020,2944,3434,3431,3248,3368,3091,3062,3167,3156,3248,2866,3413,3420,3253,3370,3138,3357,3389,3190
1508400836557828292,192,1508400836557411572,plot_matl,0.25,-2000.0,0.217588603497,-0.0356866233051,-0.0324113965034,-73.1726303101,0.349065840244,0.0809688791633,-0.00222533009946,0.217600435019,0.00547453062609,0.00547453062609,-0.008305195719,0.00201808102429,-73.3863677979,-73.3863677979,0.988527715206,85.9700393677,2020,2061,2110,2019,2019,2707,3321,3344,3148,3292,3007,2979,3060,3088,3171,2933,3389,3384,3223,3283,2937,3283,3307,3026,0.010022331,1.919963194,1.924287552,0.453785598278,4500.0,0.430034726858,0.0118495486677,-0.0237508714199,106.878929138,0.0,6000.0,-0.00218239729293,-0.00946669932455,0.0,0.0,0.349065840244,0.0240919683129,-0.00173920276575,0.314840644598,-0.00056585931452,-0.00056585931452,-0.0109665691853,-0.0511416830122,111.354782104,111.354782104,0.317718178034,0.989962637424,2029,2029,2549,2020,2020,2940,3428,3428,3246,3363,3089,3062,3164,3156,3244,2866,3413,3420,3253,3370,3138,3357,3389,3190
1508400836568077616,193,1508400836567487393,plot_matl,0.25,-2000.0,0.21754206717,-0.0347327701747,-0.0324579253793,-72.6383132935,0.349065840244,0.0809688791633,-0.00222533009946,0.217600435019,0.00547453062609,0.00547453062609,-0.008305195719,0.00201808102429,-73.3863677979,-73.3863677979,0.988527715206,85.9700393677,2032,2064,2110,2019,2019,2707,3321,3344,3148,3292,3007,2979,3060,3088,3171,2932,3384,3383,3220,3279,2937,3278,3306,3028,0.010076302,1.93003895,1.944726286,0.453785598278,4500.0,0.430034726858,0.0126598393545,-0.0237508714199,106.878929138,0.0,6000.0,-0.00217127124779,-0.00969301909208,0.0,0.0,0.349065840244,0.0240919683129,-0.00173920276575,0.314840644598,-0.00056585931452,-0.00056585931452,-0.0109665691853,-0.0511416830122,111.354782104,111.354782104,0.317718178034,0.989962637424,2038,2032,2549,2020,2020,2940,3428,3428,3246,3363,3089,3062,3164,3156,3244,2864,3411,3418,3251,3369,3139,3356,3386,3190
1508400836577930506,194,1508400836577434051,plot_matl,0.25,-2000.0,0.217505857348,0.00390185811557,-0.0324941463768,-64.0213088989,0.349065840244,0.0809688791633,-0.00222533009946,0.217600435019,0.00547453062609,0.00547453062609,-0.008305195719,0.00201808102429,-73.3863677979,-73.3863677979,0.988527715206,85.9700393677,2033,2059,2110,2019,2019,2706,3319,3341,3146,3290,3005,2975,3060,3088,3171,2932,3384,3383,3220,3279,2937,3278,3306,3028,0.009946173,1.939986039,1.929557562,0.453785598278,4500.0,0.428685247898,-0.0138868745416,-0.0251003541052,112.951591492,0.0,6000.0,-0.00216331682168,0.00353289372288,0.0,0.0,0.349065840244,0.0240919683129,-0.00173920276575,0.314840644598,-0.00056585931452,-0.00056585931452,-0.0109665691853,-0.0511416830122,111.354782104,111.354782104,0.317718178034,0.989962637424,2032,2034,2549,2017,2017,2940,3429,3426,3246,3364,3088,3060,3164,3156,3244,2864,3411,3418,3251,3369,3139,3356,3386,3190
1508400836587850213,195,1508400836587419826,plot_matl,0.25,-2000.0,0.217535987496,0.00326476199552,-0.0324640199542,-64.143371582,0.349065840244,0.0809688791633,-0.00222533009946,0.217600435019,0.00547453062609,0.00547453062609,-0.008305195719,0.00201808102429,-73.3863677979,-73.3863677979,0.988527715206,85.9700393677,2015,2064,2110,2019,2019,2706,3319,3341,3146,3290,3005,2975,3060,3087,3168,2931,3386,3382,3218,3282,2936,3281,3306,3028,0.009983041,1.949970643,1.946692995,0.453785598278,4500.0,0.430034726858,0.0138277951628,-0.0237508714199,106.878929138,0.0,6000.0,-0.00219313730486,-0.00930263288319,0.0,0.0,0.349065840244,0.0240919683129,-0.00173920276575,0.314840644598,-0.00056585931452,-0.00056585931452,-0.0109665691853,-0.0511416830122,111.354782104,111.354782104,0.317718178034,0.989962637424,2022,2032,2549,2017,2017,2940,3429,3426,3246,3364,3088,3060,3164,3155,3244,2864,3412,3416,3250,3368,3136,3357,3386,3190
1508400836597792616,196,1508400836597416459,plot_matl,0.25,-2000.0,0.217524796724,-0.0344575792551,-0.032475207001,-73.9826965332,0.349065840244,0.0809688791633,-0.00217304262333,0.217623397708,0.0060413419269,0.0060413419269,0.00376666244119,0.00151325354818,-73.3357391357,-73.3357391357,0.933205604553,85.7842254639,2027,2074,2110,2019,2019,2706,3318,3342,3146,3289,3004,2975,3060,3087,3168,2931,3386,3382,3218,3282,2936,3281,3306,3025,0.009998063,1.959968176,1.959620348,0.453785598278,4500.0,0.428685247898,-0.0139592932537,-0.0251003541052,112.951591492,0.0,6000.0,-0.00220471993089,0.00433393847197,0.0,0.0,0.349065840244,0.0240919683129,-0.00172370555811,0.314602464437,-0.000780521659181,-0.000780521659181,0.00405185716227,0.0156406667084,111.397003174,111.397003174,0.650794446468,0.416479229927,2030,2035,2549,2018,2018,2940,3429,3428,3247,3364,3091,3060,3164,3155,3244,2864,3412,3416,3250,3368,3136,3357,3386,3189
1508400836607839747,197,1508400836607471902,plot_matl,0.25,-2000.0,0.217523440719,-0.0344040766358,-0.0324765555561,-72.0959320068,0.349065840244,0.0809688791633,-0.00217304262333,0.217623397708,0.0060413419269,0.0060413419269,0.00376666244119,0.00151325354818,-73.3357391357,-73.3357391357,0.933205604553,85.7842254639,2017,2071,2110,2019,2019,2706,3318,3342,3146,3289,3004,2976,3059,3085,3168,2930,3388,3380,3219,3281,2935,3281,3306,3025,0.010054533,1.970023474,1.980743001,0.453785598278,4500.0,0.430034726858,0.0118841882795,-0.0237508714199,106.878929138,0.0,6000.0,-0.00218859920278,0.00400938699022,0.0,0.0,0.349065840244,0.0240919683129,-0.00172370555811,0.314602464437,-0.000780521659181,-0.000780521659181,0.00405185716227,0.0156406667084,111.397003174,111.397003174,0.650794446468,0.416479229927,2031,2035,2549,2018,2018,2940,3429,3428,3247,3364,3091,3060,3162,3155,3243,2862,3413,3418,3250,3366,3136,3357,3386,3189
1508400836617735675,198,1508400836617454101,plot_matl,0.25,-2000.0,0.217486798763,0.00426216982305,-0.0325132086873,-64.0351486206,0.349065840244,0.0809688791633,-0.00217304262333,0.217623397708,0.0060413419269,0.0060413419269,0.00376666244119,0.00151325354818,-73.3357391357,-73.3357391357,0.933205604553,85.7842254639,2033,2063,2109,2016,2016,2706,3318,3341,3144,3289,3004,2976,3059,3085,3168,2930,3388,3380,3219,3281,2935,3280,3305,3026,0.009981393,1.980005328,1.976315814,0.453785598278,4500.0,0.430034726858,0.0107357455418,-0.0237508714199,106.878929138,0.0,6000.0,-0.00217642262578,0.00375632499345,0.0,0.0,0.349065840244,0.0240919683129,-0.00172370555811,0.314602464437,-0.000780521659181,-0.000780521659181,0.00405185716227,0.0156406667084,111.397003174,111.397003174,0.650794446468,0.416479229927,2027,2024,2550,2018,2018,2940,3428,3426,3245,3364,3091,3060,3162,3155,3243,2862,3413,3418,3250,3366,3136,3354,3386,3190
1508400836627795496,199,1508400836627411940,plot_matl,0.25,-2000.0,0.217493355274,0.00413335533813,-0.0325066447258,-64.0258789062,0.349065840244,0.0809688791633,-0.00217304262333,0.217623397708,0.0060413419269,0.0060413419269,0.00376666244119,0.00151325354818,-73.3357391357,-73.3357391357,0.933205604553,85.7842254639,2026,2061,2109,2016,2016,2706,3318,3341,3144,3290,3004,2977,3059,3086,3167,2930,3386,3381,3219,3281,2935,3280,3305,3026,0.009957655,1.989963201,1.981573345,0.453785598278,4500.0,0.430034726858,0.0107949348167,-0.0237508714199,106.878929138,0.0,6000.0,-0.00219099246897,-0.00938525702804,0.0,0.0,0.349065840244,0.0240919683129,-0.00172370555811,0.314602464437,-0.000780521659181,-0.000780521659181,0.00405185716227,0.0156406667084,111.397003174,111.397003174,0.650794446468,0.416479229927,2031,2030,2550,2018,2018,2940,3428,3426,3245,3364,3086,3060,3162,3155,3244,2861,3411,3418,3253,3366,3136,3354,3386,3190
1508400836637861572,200,1508400836637420588,plot_matl,0.25,-2000.0,0.217528745532,0.00340047874488,-0.0324712581933,-64.1153030396,0.349065840244,0.0796194002032,-0.00220938585699,0.217562422156,-0.00713375303894,-0.00713375303894,0.00442962907255,0.00272843777202,-72.9525146484,-72.9525146484,0.80599886179,85.4605178833,2034,2070,2110,2018,2018,2704,3317,3341,3144,3290,3004,2977,3059,3086,3167,2930,3386,3381,3219,3281,2935,3280,3307,3028,0.010009085,1.999972461,2.001817,0.453785598278,4500.0,0.430034726858,0.00977416709065,-0.0237508714199,106.878929138,0.0,6000.0,-0.00219093123451,-0.009392590262,0.0,0.0,0.349065840244,0.0240919683129,-0.00175648718141,0.314684659243,0.000331413088134,0.000331413088134,0.00472519453615,0.0140650542453,111.282524109,111.282524109,0.224158912897,0.185617491603,2032,2026,2549,2022,2022,2939,3428,3426,3245,3364,3086,3060,3162,3155,3244,2861,3411,3418,3253,3368,3137,3357,3386,3190
1508400836647659589,201,1508400836647414990,plot_matl,0.25,-2000.0,0.217559203506,0.00278491363861,-0.0324408039451,-64.2142715454,0.349065840244,0.0796194002032,-0.00220938585699,0.217562422156,-0.00713375303894,-0.00713375303894,0.00442962907255,0.00272843777202,-72.9525146484,-72.9525146484,0.80599886179,85.4605178833,2026,2064,2110,2018,2018,2704,3317,3340,3145,3291,3004,2977,3059,3086,3168,2929,3385,3381,3219,3281,2935,3280,3307,3028,0.009993698,2.009966351,2.008733298,0.453785598278,4500.0,0.428685247898,-0.0152649600059,-0.0251003541052,112.951591492,0.0,6000.0,-0.00220256787725,0.00425325334072,0.0,0.0,0.349065840244,0.0240919683129,-0.00175648718141,0.314684659243,0.000331413088134,0.000331413088134,0.00472519453615,0.0140650542453,111.282524109,111.282524109,0.224158912897,0.185617491603,2030,2029,2549,2022,2022,2939,3428,3425,3244,3362,3088,3060,3164,3155,3245,2860,3413,3418,3253,3368,3137,3357,3386,3190
