%time,field.header.seq,field.header.stamp,field.header.frame_id,field.FFJ4_set_point,field.FFJ4_position_gain,field.FFJ4_process_value,field.FFJ4_process_value_dot,field.FFJ4_error,field.FFJ4_command,field.FFJ1,field.FFJ2,field.FFJ3,field.FFJ4,field.FFJ1_dot,field.FFJ2_dot,field.FFJ3_dot,field.FFJ4_dot,field.FFJ1_tao,field.FFJ2_tao,field.FFJ3_tao,field.FFJ4_tao,field.pac0,field.pac1,field.pdc0,field.tac0,field.tdc0,field.el0,field.el1,field.el2,field.el3,field.el4,field.el5,field.el6,field.el7,field.el8,field.el9,field.el10,field.el11,field.el12,field.el13,field.el14,field.el15,field.el16,field.el17,field.el18,field.dt,field.time,field.test_time2,field.FFJ0_set_point,field.FFJ0_position_gain,field.FFJ0_process_value,field.FFJ0_process_value_dot,field.FFJ0_error,field.FFJ0_command,field.FFJ3_set_point,field.FFJ3_position_gain,field.FFJ3_process_value,field.FFJ3_process_value_dot,field.FFJ3_error,field.FFJ3_command,field.MFJ1,field.MFJ2,field.MFJ3,field.MFJ4,field.MFJ1_dot,field.MFJ2_dot,field.MFJ3_dot,field.MFJ4_dot,field.MFJ1_tao,field.MFJ2_tao,field.MFJ3_tao,field.MFJ4_tao,field.Mpac0,field.Mpac1,field.Mpdc0,field.Mtac0,field.Mtdc0,field.Mel0,field.Mel1,field.Mel2,field.Mel3,field.Mel4,field.Mel5,field.Mel6,field.Mel7,field.Mel8,field.Mel9,field.Mel10,field.Mel11,field.Mel12,field.Mel13,field.Mel14,field.Mel15,field.Mel16,field.Mel17,field.Mel18
1508401059268797129,84,1508401059268117444,plot_matl,-0.300000011921,-7000.0,-0.313954442739,0.0019818325527,0.0,0.0,0.349065840244,0.126851245761,-0.0125236865133,-0.31394636631,-0.00154733762611,-0.00154733762611,0.0114136002958,0.0018050755607,43.4997711182,43.4997711182,-12.640745163,-100.843536377,2023,2065,2096,2033,2033,2755,3334,3351,3160,3298,3015,2981,3066,3091,3173,2890,3378,3374,3202,3273,2920,3282,3309,3028,0.010032452,0.840024242,0.842725968,0.453785598278,4500.0,0.475917100906,-0.0030128355138,0.0221314951777,-99.5917282104,0.0,6000.0,-0.0125225679949,0.0113786784932,-0.0125225679949,71.4904632568,0.349065840244,0.0265011657029,-0.00613408815116,0.30840998888,-0.0121568981558,-0.0121568981558,0.0011665787315,0.0189158320427,111.784606934,111.784606934,1.42054903507,17.9596271515,2030,2032,2548,2037,2037,2941,3429,3428,3247,3367,3093,3061,3165,3159,3249,2869,3418,3425,3259,3373,3144,3358,3391,3195
1508401059278426083,85,1508401059278079253,plot_matl,-0.300000011921,-7000.0,-0.313943177462,0.00173613114748,0.0,0.0,0.349065840244,0.126851245761,-0.0125236865133,-0.31394636631,-0.00154733762611,-0.00154733762611,0.0114136002958,0.0018050755607,43.4997711182,43.4997711182,-12.640745163,-100.843536377,2015,2050,2096,2033,2033,2755,3334,3351,3160,3298,3015,2981,3066,3083,3171,2885,3375,3371,3200,3275,2917,3281,3307,3028,0.009959602,0.849985208,0.84656617,0.453785598278,4500.0,0.474567621946,-0.0296955388039,0.0207820124924,-93.5190582275,0.0,6000.0,-0.0125275505707,-0.00192470417824,-0.0125275505707,75.7604293823,0.349065840244,0.0265011657029,-0.00613408815116,0.30840998888,-0.0121568981558,-0.0121568981558,0.0011665787315,0.0189158320427,111.784606934,111.784606934,1.42054903507,17.9596271515,2026,2028,2548,2037,2037,2941,3429,3428,3247,3367,3093,3061,3165,3155,3245,2866,3413,3419,3254,3370,3142,3356,3389,3195
1508401059288501998,86,1508401059288132595,plot_matl,-0.300000011921,-7000.0,-0.313945114613,0.00174510735087,0.0,0.0,0.349065840244,0.125501766801,-0.0125323524699,-0.313944071531,-0.0144101604819,-0.0144101604819,-0.00183907698374,0.00171000626869,43.5238952637,43.5238952637,-12.8847894669,-100.475418091,2013,2058,2095,2031,2031,2753,3332,3350,3158,3297,3014,2981,3066,3083,3171,2885,3375,3371,3200,3275,2917,3281,3307,3025,0.010053121,0.860038702,0.864568406,0.453785598278,4500.0,0.474567621946,-0.0296879317611,0.0207820124924,-93.5190582275,0.0,6000.0,-0.0125452149659,-0.00157525134273,-0.0125452149659,75.7538375854,0.349065840244,0.0265011657029,-0.00612695282325,0.308404922485,-0.0102929100394,-0.0102929100394,0.00100791431032,0.0182921662927,111.942955017,111.942955017,1.57112395763,18.0083389282,2028,2029,2547,2033,2033,2940,3429,3430,3246,3365,3091,3061,3165,3155,3245,2866,3413,3419,3254,3370,3142,3356,3389,3191
1508401059298459617,87,1508401059298091601,plot_matl,-0.300000011921,-7000.0,-0.313940912485,0.00164285884239,0.0,0.0,0.349065840244,0.126851245761,-0.0125242369249,-0.313935101032,-0.00037589695421,-0.00037589695421,0.0114206615835,0.00151378079318,43.5710220337,43.5710220337,-12.6878786087,-100.462371826,2026,2055,2095,2031,2031,2753,3332,3350,3158,3297,3014,2980,3065,3084,3171,2883,3374,3370,3196,3273,2919,3281,3307,3025,0.009958966,0.869997797,0.866430042,0.453785598278,4500.0,0.475917100906,-0.00149146118201,0.0221314951777,-99.5917282104,0.0,6000.0,-0.0125359846279,-0.0017668614164,-0.0125359846279,75.742980957,0.349065840244,0.0265011657029,-0.00617250334471,0.308390468359,-0.00925772823393,-0.00925772823393,0.00192723982036,-0.0434314571321,112.073425293,112.073425293,1.39921748638,17.8188552856,2029,2025,2547,2033,2033,2940,3429,3430,3246,3365,3091,3057,3164,3153,3244,2864,3412,3420,3254,3368,3140,3356,3389,3191
1508401059308455232,88,1508401059308120435,plot_matl,-0.300000011921,-7000.0,-0.313932269812,0.00145445659291,0.0,0.0,0.349065840244,0.128200724721,-0.0125424684957,-0.313927322626,0.0125502720475,0.0125502720475,-0.00163975625765,0.00134229299147,43.5722427368,43.5722427368,-12.6774101257,-100.493255615,2027,2052,2096,2031,2031,2754,3332,3348,3157,3297,3014,2980,3065,3084,3171,2883,3374,3370,3196,3273,2919,3278,3303,3024,0.010027467,0.880026186,0.882417096,0.453785598278,4500.0,0.477266579866,0.0265288166702,0.0234809760004,-105.664390564,0.0,6000.0,-0.0125281792134,-0.00192419451196,-0.0125281792134,75.7531661987,0.349065840244,0.0289103612304,-0.00616934057325,0.308321267366,0.0136659415439,0.0136659415439,0.00186845101416,0.0196649059653,112.157142639,112.157142639,1.21423089504,17.4585762024,2028,2026,2547,2037,2037,2940,3430,3428,3248,3365,3091,3057,3164,3153,3244,2864,3412,3420,3254,3368,3140,3355,3388,3191
1508401059318409253,89,1508401059318095064,plot_matl,-0.300000011921,-7000.0,-0.313924700022,0.0012872624211,0.0,0.0,0.349065840244,0.126851245761,-0.0125354155898,-0.313925474882,-0.00184543605428,-0.00184543605428,-0.00180333910976,0.00130697584245,43.5751075745,43.5751075745,-12.6457109451,-100.60823822,2034,2047,2096,2031,2031,2754,3332,3348,3157,3296,3014,2980,3065,3081,3167,2885,3373,3371,3198,3273,2919,3278,3303,3024,0.009975371,0.89000134,0.887808019,0.453785598278,4500.0,0.477266579866,0.0246247537434,0.0234809760004,-105.664390564,0.0,6000.0,-0.0125458454713,-0.00157253048383,-0.0125458454713,75.7717895508,0.349065840244,0.0265011657029,-0.00617996789515,0.308329343796,-0.0100258775055,-0.0100258775055,0.00208844151348,-0.0424111932516,112.08972168,112.08972168,1.275172472,17.3032169342,2026,2022,2547,2037,2037,2940,3430,3428,3248,3364,3093,3059,3161,3154,3242,2865,3412,3420,3254,3368,3140,3355,3388,3191
1508401059328373611,90,1508401059328099436,plot_matl,-0.300000011921,-7000.0,-0.31392917037,-0.00459937890992,0.0,0.0,0.349065840244,0.126851245761,-0.0125515945256,-0.313936024904,-0.00152873934712,-0.00152873934712,-0.00147709739394,-0.00446454109624,43.6152648926,43.6152648926,-12.6178350449,-100.788978577,2023,2050,2095,2030,2030,2752,3332,3348,3157,3296,3014,2980,3065,3081,3167,2885,3373,3371,3198,3273,2917,3280,3303,3024,0.0100048,0.900006224,0.900432,0.453785598278,4500.0,0.475917100906,-0.0035444367677,0.0221314951777,-99.5917282104,0.0,6000.0,-0.0125389639288,-0.00173179176636,-0.0125389639288,75.7821731567,0.349065840244,0.0289103612304,-0.00616140291095,0.30827781558,0.0156586878002,0.0156586878002,0.00170534953941,-0.0414560250938,112.00491333,112.00491333,1.07242560387,17.4284095764,2024,2024,2548,2036,2036,2940,3428,3428,3248,3364,3093,3059,3161,3154,3242,2865,3412,3420,3254,3370,3138,3356,3388,3192
1508401059338386153,91,1508401059338112124,plot_matl,-0.300000011921,-7000.0,-0.313933223486,0.00145172537304,0.0,0.0,0.349065840244,0.126851245761,-0.0125428596511,-0.313933998346,-0.00150649785064,-0.00150649785064,-0.00165478361305,0.001458163606,43.4628944397,43.4628944397,-12.3486995697,-100.731689453,2023,2059,2095,2030,2030,2752,3332,3349,3160,3296,3013,2979,3065,3080,3170,2884,3374,3371,3198,3273,2917,3280,3303,3024,0.010011064,0.910018175,0.911006824,0.453785598278,4500.0,0.475917100906,-0.00293854041956,0.0221314951777,-99.5917282104,0.0,6000.0,-0.0125285955146,0.0114793330431,-0.0125285955146,71.7315139771,0.349065840244,0.0289103612304,-0.00614602165297,0.308296769857,0.0166748538613,0.0166748538613,0.0013961091172,0.0199164189398,111.856513977,111.856513977,1.20383608341,17.6617832184,2030,2027,2548,2036,2036,2940,3428,3426,3246,3365,3090,3059,3162,3153,3243,2866,3412,3420,3254,3370,3138,3356,3388,3192
1508401059348288024,92,1508401059348076584,plot_matl,-0.300000011921,-7000.0,-0.313936799765,-0.00445929775015,0.0,0.0,0.349065840244,0.126851245761,-0.0125472424552,-0.313947230577,-0.00172060425393,-0.00172060425393,-0.00157655787189,0.00172551244032,43.5277137756,43.5277137756,-12.2693357468,-100.796630859,2026,2066,2096,2031,2031,2752,3332,3349,3160,3296,3013,2979,3065,3080,3170,2884,3374,3370,3197,3272,2917,3280,3304,3024,0.009962877,0.919981894,0.916584684,0.453785598278,4500.0,0.475917100906,-0.0028965335805,0.0221314951777,-99.5917282104,0.0,6000.0,-0.0125336516649,0.0115743363276,-0.0125336516649,71.9377670288,0.349065840244,0.0289103612304,-0.00616097263992,0.30831220746,0.0166821982712,0.0166821982712,0.00167564454023,0.0195325408131,111.924186707,111.924186707,1.09207856655,17.6610336304,2029,2033,2548,2032,2032,2940,3428,3426,3246,3365,3090,3059,3162,3153,3243,2866,3412,3420,3253,3368,3139,3356,3389,3191
1508401059358215370,93,1508401059358069154,plot_matl,-0.300000011921,-7000.0,-0.313949555159,0.00177248171531,0.0,0.0,0.349065840244,0.126851245761,-0.0125503148884,-0.313947588205,-0.000916018034332,-0.000916018034332,-0.00151389918756,0.001720028813,43.3598861694,43.3598861694,-12.0211267471,-100.972106934,2018,2055,2096,2031,2031,2752,3332,3350,3159,3294,3014,2978,3065,3082,3168,2884,3374,3370,3197,3272,2917,3280,3304,3024,0.009992629,0.929974832,0.929314497,0.453785598278,4500.0,0.475917100906,-0.00331005640328,0.0221314951777,-99.5917282104,0.0,6000.0,-0.0125372922048,0.0116433370858,-0.0125372922048,71.7950210571,0.349065840244,0.0240919683129,-0.00615776423365,0.308423429728,-0.0302159059793,-0.0302159059793,0.00161844620015,0.017193717882,111.935203552,111.935203552,1.24509644508,17.8218097687,2034,2031,2548,2032,2032,2940,3430,3428,3248,3367,3092,3060,3162,3151,3244,2866,3412,3420,3253,3368,3139,3356,3389,3191
1508401059368237529,94,1508401059368071959,plot_matl,-0.300000011921,-7000.0,-0.313956201077,-0.00408362690359,0.0,0.0,0.349065840244,0.128200724721,-0.0125392461196,-0.31394264102,0.0126054286957,0.0126054286957,-0.00174277834594,0.00160811038222,43.4365730286,43.4365730286,-11.881644249,-100.79196167,2025,2064,2096,2031,2031,2752,3332,3350,3159,3294,3014,2978,3065,3082,3168,2885,3374,3367,3196,3270,2917,3283,3304,3023,0.010002906,0.939977781,0.940273164,0.453785598278,4500.0,0.475917100906,-0.00175753049552,0.0221314951777,-99.5917282104,0.0,6000.0,-0.0125533463433,-0.00145233178046,-0.0125533463433,75.7804946899,0.349065840244,0.0289103612304,-0.00614306284115,0.308427810669,0.0173603463918,0.0173603463918,0.0013253625948,0.0173509791493,111.978775024,111.978775024,1.52366030216,17.8465251923,2041,2028,2547,2032,2032,2940,3430,3428,3248,3367,3092,3060,3162,3151,3244,2864,3412,3421,3254,3369,3141,3358,3388,3190
1508401059378483828,95,1508401059378094524,plot_matl,-0.300000011921,-7000.0,-0.313945382833,0.00166038714815,0.0,0.0,0.349065840244,0.125501766801,-0.0125430198386,-0.313944041729,-0.0142186647281,-0.0142186647281,-0.00165864068549,-0.00433879857883,43.538520813,43.538520813,-11.8004837036,-100.875343323,2033,2065,2096,2031,2031,2751,3333,3348,3156,3296,3013,2979,3064,3082,3168,2885,3374,3367,3196,3270,2917,3283,3304,3023,0.010022766,0.950000456,0.95216277,0.453785598278,4500.0,0.474567621946,-0.0287075005472,0.0207820124924,-93.5190582275,0.0,6000.0,-0.012542558834,-0.0016753183445,-0.012542558834,75.7333450317,0.349065840244,0.0265011657029,-0.00613103387877,0.308300316334,-0.00668063340709,-0.00668063340709,0.00108555005863,-0.0420631989837,111.83631134,111.83631134,1.42530190945,17.8837490082,2032,2030,2547,2030,2030,2940,3427,3425,3246,3364,3091,3059,3162,3151,3244,2864,3412,3421,3254,3369,3141,3358,3388,3190
1508401059388500569,96,1508401059388102717,plot_matl,-0.300000011921,-7000.0,-0.313940912485,0.00157306855544,0.0,0.0,0.349065840244,0.125501766801,-0.0125458277762,-0.313929498196,-0.0141013106331,-0.0141013106331,-0.00160213117488,0.00134101405274,43.6219062805,43.6219062805,-11.9338283539,-101.04901123,2018,2052,2096,2031,2031,2751,3333,3348,3156,3296,3013,2979,3064,3083,3168,2882,3374,3371,3196,3270,2918,3280,3303,3023,0.010008864,0.960009134,0.960850944,0.453785598278,4500.0,0.475917100906,-0.00113181420602,0.0221314951777,-99.5917282104,0.0,6000.0,-0.0125462040305,-0.00159408780746,-0.0125462040305,75.7494125366,0.349065840244,0.0265011657029,-0.00613628001884,0.308134138584,-0.0077282465063,-0.0077282465063,-0.0141506968066,-0.0387785807252,111.790870667,111.790870667,1.4977902174,17.7829837799,2025,2025,2547,2030,2030,2940,3427,3425,3246,3364,3091,3059,3162,3154,3242,2864,3414,3420,3253,3369,3139,3357,3389,3190
1508401059398645086,97,1508401059398093490,plot_matl,-0.300000011921,-7000.0,-0.313926905394,0.00128853414208,0.0,0.0,0.349065840244,0.126851245761,-0.0125375241041,-0.313923478127,0.000104342696432,0.000104342696432,-0.00177893089131,-0.00475976057351,43.6977539062,43.6977539062,-12.0514535904,-100.960708618,2019,2063,2096,2033,2033,2751,3332,3349,3158,3296,3014,2979,3064,3083,3168,2882,3374,3371,3196,3270,2918,3280,3303,3024,0.009990127,0.969999927,0.969042319,0.453785598278,4500.0,0.474567621946,-0.0276271030307,0.0207820124924,-93.5190582275,0.0,6000.0,-0.0125360861421,0.0116211259738,-0.0125360861421,71.8151092529,0.349065840244,0.0265011657029,-0.00615170551464,0.308221995831,-0.00585500057787,-0.00585500057787,0.00150949205272,0.0212543234229,111.835792542,111.835792542,1.40287327766,17.8723220825,2028,2030,2548,2031,2031,2940,3426,3430,3247,3364,3090,3059,3162,3154,3242,2864,3414,3420,3253,3369,3139,3357,3389,3191
1508401059408355792,98,1508401059408112331,plot_matl,-0.300000011921,-7000.0,-0.313921123743,0.00116157426964,0.0,0.0,0.349065840244,0.126851245761,-0.0125418780372,-0.313939988613,-0.000616716453806,-0.000616716453806,-0.00170422811061,-0.00443688128144,43.7857284546,43.7857284546,-11.978726387,-100.97845459,2026,2067,2096,2033,2033,2751,3332,3349,3158,3296,3014,2978,3066,3082,3170,2884,3376,3371,3197,3270,2918,3280,3303,3024,0.010018506,0.980018714,0.981813588,0.453785598278,4500.0,0.474567621946,-0.0270188301802,0.0207820124924,-93.5190582275,0.0,6000.0,-0.0125409644097,-0.00170883256942,-0.0125409644097,75.8189315796,0.349065840244,0.0240919683129,-0.00613820226863,0.308194637299,-0.0281318835914,-0.0281318835914,0.00123816833366,0.0217796638608,111.76663208,111.76663208,1.33124172688,17.8237266541,2023,2030,2548,2031,2031,2940,3426,3430,3247,3364,3090,3058,3161,3153,3246,2865,3412,3421,3254,3371,3141,3357,3389,3191
1508401059418156465,99,1508401059418061299,plot_matl,-0.300000011921,-7000.0,-0.313937008381,0.00147940777242,0.0,0.0,0.349065840244,0.126851245761,-0.01254555583,-0.313936978579,-0.000272467237664,-0.000272467237664,-0.00164039956871,0.00147673860192,43.7540283203,43.7540283203,-12.4345054626,-101.136871338,2020,2042,2095,2034,2034,2752,3329,3351,3160,3296,3014,2978,3066,3082,3170,2884,3376,3371,3197,3270,2918,3279,3303,3024,0.009945664,0.989966156,0.984620736,0.453785598278,4500.0,0.475917100906,-0.00118563801516,0.0221314951777,-99.5917282104,0.0,6000.0,-0.0125450929627,-0.00163819012232,-0.0125450929627,75.7422103882,0.349065840244,0.0265011657029,-0.00612698681653,0.308053016663,-0.00396385230124,-0.00396385230124,0.00101281341631,0.0246154069901,111.77091217,111.77091217,1.34648907185,17.8063735962,2016,2021,2547,2031,2031,2939,3429,3428,3247,3364,3090,3058,3161,3153,3246,2865,3412,3421,3254,3371,3141,3355,3390,3195
1508401059428331362,100,1508401059428139420,plot_matl,-0.300000011921,-7000.0,-0.313928306103,0.00727736297995,0.0,0.0,0.349065840244,0.125501766801,-0.0125220548362,-0.313928872347,-0.0130687057972,-0.0130687057972,0.0113054951653,0.00132260937244,43.7642402649,43.7642402649,-12.674911499,-101.001197815,2026,2044,2095,2034,2034,2752,3329,3351,3160,3298,3015,2979,3065,3083,3169,2884,3373,3369,3199,3270,2918,3279,3303,3024,0.01007857,1.000044655,1.007857,0.453785598278,4500.0,0.475917100906,-0.000523631228134,0.0221314951777,-99.5917282104,0.0,6000.0,-0.0125486552715,-0.00157627102453,-0.0125486552715,75.7476272583,0.349065840244,0.0265011657029,-0.00610283156857,0.308000832796,-0.00366009795107,-0.00366009795107,0.015870379284,-0.036155577749,111.819953918,111.819953918,1.35020983219,17.4082965851,2030,2026,2547,2031,2031,2939,3429,3428,3247,3365,3092,3057,3162,3154,3246,2865,3412,3418,3253,3371,3141,3355,3390,3195
1508401059438241423,101,1508401059438067116,plot_matl,-0.300000011921,-7000.0,-0.313932090998,0.00138608145062,0.0,0.0,0.349065840244,0.126851245761,-0.012515977025,-0.313932865858,-6.58002390992e-05,-6.58002390992e-05,0.0111886458471,0.00141005055048,43.6215667725,43.6215667725,-12.6462192535,-101.044639587,2033,2054,2095,2032,2032,2751,3331,3351,3160,3298,3015,2979,3065,3083,3169,2884,3373,3369,3199,3271,2917,3279,3307,3022,0.009928791,1.009972813,1.002807891,0.453785598278,4500.0,0.475917100906,0.0010802882025,0.0221314951777,-99.5917282104,0.0,6000.0,-0.0125260427594,-0.00203541549854,-0.0125260427594,75.7423019409,0.349065840244,0.0265011657029,-0.00611219834536,0.308000057936,-0.00299520674162,-0.00299520674162,0.000719938834663,-0.0362002067268,111.852531433,111.852531433,1.39983105659,17.524892807,2034,2025,2547,2038,2038,2940,3427,3428,3247,3365,3092,3057,3162,3154,3246,2865,3412,3418,3253,3371,3138,3357,3391,3190
1508401059448380735,102,1508401059448078510,plot_matl,-0.300000011921,-7000.0,-0.313936233521,-0.00450114393607,0.0,0.0,0.349065840244,0.125501766801,-0.0125237451866,-0.31394225359,-0.0129479756579,-0.0129479756579,-0.00207665888593,-0.00438076909631,43.6527290344,43.6527290344,-12.8741827011,-101.060272217,2015,2036,2095,2032,2032,2751,3331,3349,3158,3296,3013,2980,3066,3082,3170,2882,3376,3369,3199,3271,2917,3279,3307,3022,0.010012443,1.019985058,1.021269186,0.453785598278,4500.0,0.474567621946,-0.0262953806669,0.0207820124924,-93.5190582275,0.0,6000.0,-0.0125203318894,-0.00214416510426,-0.0125203318894,75.7861557007,0.349065840244,0.0265011657029,-0.0061057144776,0.308065354824,-0.00201974483207,-0.00201974483207,0.000588879920542,0.0243604630232,111.952049255,111.952049255,1.34594213963,17.7712516785,2025,2020,2547,2038,2038,2940,3427,3425,3246,3365,3091,3059,3162,3153,3244,2865,3413,3418,3253,3371,3138,3357,3391,3190
1508401059458325645,103,1508401059458095794,plot_matl,-0.300000011921,-7000.0,-0.313939213753,0.00153393403161,0.0,0.0,0.349065840244,0.128200724721,-0.0125085180625,-0.313933640718,0.0137028563768,0.0137028563768,-0.00238015758805,0.0014143276494,43.7199859619,43.7199859619,-12.7823791504,-101.030731201,2009,2048,2095,2028,2028,2751,3331,3349,3158,3296,3013,2980,3066,3082,3170,2882,3376,3368,3199,3268,2916,3278,3305,3024,0.010016146,1.03000191,1.031663038,0.453785598278,4500.0,0.477266579866,0.0280458200723,0.0234809760004,-105.664390564,0.0,6000.0,-0.0125019820407,0.0109090032056,-0.0125019820407,71.8522644043,0.349065840244,0.0289103612304,-0.00611299043521,0.308117866516,0.02131886594,0.02131886594,0.000740601390135,0.0850486829877,111.826896667,111.826896667,1.0693141222,17.8409099579,2022,2025,2548,2034,2034,2940,3427,3425,3246,3365,3091,3059,3162,3153,3244,2865,3413,3419,3254,3368,3140,3355,3388,3192
1508401059468477369,104,1508401059468122668,plot_matl,-0.300000011921,-7000.0,-0.3139308393,0.00135794875678,0.0,0.0,0.349065840244,0.126851245761,-0.0124563463032,-0.313914954662,0.000597509788349,0.000597509788349,0.00998575892299,0.00103915913496,43.8098220825,43.8098220825,-12.927649498,-100.975906372,2027,2076,2095,2028,2028,2752,3330,3347,3157,3296,3014,2980,3067,3084,3169,2882,3376,3368,3199,3268,2916,3278,3305,3024,0.010026864,1.040028735,1.042793856,0.453785598278,4500.0,0.477266579866,0.0268511082977,0.0234809760004,-105.664390564,0.0,6000.0,-0.0125002646819,-0.00255011301488,-0.0125002646819,75.7823562622,0.349065840244,0.0265011657029,-0.00611851690337,0.308053702116,-0.00378559762612,-0.00378559762612,0.000864213274326,0.0245356615633,111.678825378,111.678825378,1.19846367836,17.6850814819,2032,2038,2548,2034,2034,2941,3426,3428,3247,3365,3092,3059,3162,3153,3244,2865,3413,3419,3254,3368,3140,3355,3388,3192
1508401059478394174,105,1508401059478122777,plot_matl,-0.300000011921,-7000.0,-0.313912987709,0.000999392475933,0.0,0.0,0.349065840244,0.126851245761,-0.0124563463032,-0.313914954662,0.000597509788349,0.000597509788349,0.00998575892299,0.00103915913496,43.8098220825,43.8098220825,-12.927649498,-100.975906372,2024,2068,2095,2028,2028,2752,3330,3347,3157,3296,3014,2980,3067,3084,3169,2883,3375,3371,3199,3271,2917,3278,3305,3023,0.00999935,1.050028789,1.04993175,0.453785598278,4500.0,0.475917100906,0.00114928837866,0.0221314951777,-99.5917282104,0.0,6000.0,-0.0124627947807,-0.0033056603279,-0.0124627947807,75.711265564,0.349065840244,0.0265011657029,-0.00611851690337,0.308053702116,-0.00378559762612,-0.00378559762612,0.000864213274326,0.0245356615633,111.678825378,111.678825378,1.19846367836,17.6850814819,2031,2026,2548,2034,2034,2941,3426,3428,3247,3365,3092,3059,3162,3153,3244,2864,3411,3420,3255,3370,3141,3356,3390,3191
1508401059488531593,106,1508401059488113541,plot_matl,-0.300000011921,-7000.0,-0.313911706209,0.000940728816204,0.0,0.0,0.349065840244,0.126851245761,-0.0124675957486,-0.313910603523,0.000822016387247,0.000822016387247,-0.00319788651541,0.000923543353565,43.7598800659,43.7598800659,-12.6678314209,-101.022720337,2014,2046,2095,2031,2031,2751,3332,3355,3161,3298,3015,2982,3068,3084,3169,2883,3375,3371,3199,3271,2917,3278,3305,3023,0.00999084,1.060019862,1.05902904,0.453785598278,4500.0,0.475917100906,0.00130604056176,0.0221314951777,-99.5917282104,0.0,6000.0,-0.0124579174444,0.0100274924189,-0.0124579174444,71.7077484131,0.349065840244,0.0289103612304,-0.00611789571121,0.308035433292,0.0173151660711,0.0173151660711,0.000844469119329,0.024570627138,111.485534668,111.485534668,1.08989071846,17.8377628326,2031,2026,2548,2032,2032,2941,3429,3431,3249,3367,3094,3061,3164,3153,3244,2864,3411,3420,3255,3370,3141,3356,3390,3191
1508401059498365321,107,1508401059498089572,plot_matl,-0.300000011921,-7000.0,-0.313913613558,0.000983148347586,0.0,0.0,0.349065840244,0.128200724721,-0.0124602681026,-0.313912838697,0.0145170418546,0.0145170418546,-0.00334194791503,0.000971848145127,43.7683029175,43.7683029175,-12.3957633972,-100.951416016,2027,2060,2095,2031,2031,2751,3332,3355,3161,3298,3015,2982,3068,3084,3170,2883,3374,3371,3198,3271,2918,3281,3305,3023,0.009974704,1.069995155,1.067293328,0.453785598278,4500.0,0.475917100906,0.00154742761515,0.0221314951777,-99.5917282104,0.0,6000.0,-0.0124642383307,-0.00327059999108,-0.0124642383307,75.782371521,0.349065840244,0.0289103612304,-0.00609697774053,0.308151334524,0.0158822126687,0.0158822126687,0.000423091463745,0.0222674794495,111.420219421,111.420219421,0.814440667629,17.9864845276,2027,2023,2548,2032,2032,2941,3429,3431,3249,3367,3094,3061,3164,3155,3245,2866,3414,3420,3256,3368,3141,3358,3389,3191
1508401059508349013,108,1508401059508089743,plot_matl,-0.300000011921,-7000.0,-0.313910007477,0.000916151155252,0.0,0.0,0.349065840244,0.128200724721,-0.0124898925424,-0.313915073872,0.0135661987588,0.0135661987588,-0.00274037336931,0.00102096027695,43.7385368347,43.7385368347,-12.6361732483,-100.553909302,2017,2048,2095,2030,2030,2751,3334,3351,3159,3295,3015,2982,3068,3084,3170,2883,3374,3371,3198,3271,2918,3281,3305,3024,0.009999795,1.079995382,1.07997786,0.453785598278,4500.0,0.474567621946,-0.0250576827675,0.0207820124924,-93.5190582275,0.0,6000.0,-0.0124696996063,-0.00315041979775,-0.0124696996063,75.717628479,0.349065840244,0.0289103612304,-0.00610736990348,0.30817976594,0.0146609945223,0.0146609945223,-0.0147186787799,-0.0402050539851,111.490013123,111.490013123,0.795042455196,17.740442276,2016,2021,2548,2036,2036,2939,3429,3427,3249,3366,3092,3061,3164,3155,3245,2866,3414,3420,3256,3368,3141,3358,3389,3194
1508401059518408769,109,1508401059518081604,plot_matl,-0.300000011921,-7000.0,-0.313912034035,0.000960871286225,0.0,0.0,0.349065840244,0.126851245761,-0.0125019391999,-0.313916951418,-0.000292105745757,-0.000292105745757,0.0109216487035,0.00105480919592,43.6780662537,43.6780662537,-12.3691530228,-100.634941101,2005,2038,2095,2030,2030,2751,3334,3351,3159,3295,3015,2978,3066,3084,3169,2884,3375,3370,3196,3272,2918,3281,3305,3024,0.009992257,1.089987699,1.089156013,0.453785598278,4500.0,0.475917100906,-0.000640637532342,0.0221314951777,-99.5917282104,0.0,6000.0,-0.0124978348613,-0.00257908785716,-0.0124978348613,75.7878265381,0.349065840244,0.0289103612304,-0.00611493224278,0.308157145977,0.0137593466789,0.0137593466789,0.000778162502684,0.0220398828387,111.596008301,111.596008301,0.812555015087,17.5912857056,2020,2017,2548,2036,2036,2939,3429,3427,3249,3366,3092,3057,3163,3153,3242,2865,3413,3419,3255,3370,3139,3358,3389,3194
1508401059528299349,110,1508401059528077022,plot_matl,-0.300000011921,-7000.0,-0.313919693232,0.00110965757631,0.0,0.0,0.349065840244,0.126851245761,-0.0125242881477,-0.313923597336,-0.000490808277391,-0.000490808277391,-0.00205087591894,0.00119018857367,43.5534553528,43.5534553528,-12.3799142838,-100.708221436,2022,2057,2096,2030,2030,2752,3330,3350,3157,3295,3015,2978,3066,3084,3169,2884,3375,3370,3196,3272,2918,3279,3305,3026,0.009995005,1.099982946,1.09945055,0.453785598278,4500.0,0.477266579866,0.0267134364694,0.0234809760004,-105.664390564,0.0,6000.0,-0.0125091010705,-0.00236062030308,-0.0125091010705,75.7256088257,0.349065840244,0.0265011657029,-0.00610795849934,0.307906270027,-0.0100049385801,-0.0100049385801,0.000636659271549,-0.0347095541656,111.540458679,111.540458679,0.672480821609,17.8028926849,2022,2028,2547,2030,2030,2941,3428,3427,3248,3366,3092,3057,3163,3153,3242,2865,3413,3419,3255,3370,3139,3355,3388,3191
1508401059538435550,111,1508401059538076641,plot_matl,-0.300000011921,-7000.0,-0.313920021057,0.00111966428813,0.0,0.0,0.349065840244,0.128200724721,-0.0124923111871,-0.313923746347,0.0129624838009,0.0129624838009,-0.00266247894615,0.00119503540918,43.6341362,43.6341362,-12.5939502716,-100.501037598,2013,2051,2096,2030,2030,2752,3330,3350,3157,3293,3015,2980,3066,3082,3167,2881,3374,3369,3198,3272,2918,3279,3305,3026,0.009999147,1.109982427,1.109905317,0.453785598278,4500.0,0.475917100906,-0.00092345115263,0.0221314951777,-99.5917282104,0.0,6000.0,-0.0125159705058,0.0112166749313,-0.0125159705058,71.4359893799,0.349065840244,0.0265011657029,-0.00611662259325,0.307980179787,-0.00911033060402,-0.00911033060402,0.000804981158581,0.0255728065968,111.605300903,111.605300903,1.09137892723,17.7695598602,2025,2025,2547,2030,2030,2941,3428,3427,3248,3365,3091,3060,3163,3153,3242,2865,3412,3418,3253,3370,3139,3355,3388,3191
1508401059548219776,112,1508401059548068022,plot_matl,-0.300000011921,-7000.0,-0.313920259476,0.00112595688552,0.0,0.0,0.349065840244,0.126851245761,-0.0124794319272,-0.313923507929,-0.000302080035908,-0.000302080035908,-0.00289330095984,-0.00477564148605,43.6242523193,43.6242523193,-12.3834943771,-100.631271362,2009,2036,2095,2029,2029,2753,3331,3350,3157,3293,3015,2980,3066,3082,3167,2881,3374,3369,3198,3270,2917,3278,3304,3022,0.009990076,1.119973411,1.118888512,0.453785598278,4500.0,0.475917100906,-0.00126038887538,0.0221314951777,-99.5917282104,0.0,6000.0,-0.0124864941463,-0.00276565598324,-0.0124864941463,75.6966247559,0.349065840244,0.0240919683129,-0.00610938062891,0.308158814907,-0.0340488180518,-0.0340488180518,0.000659393030219,0.0219193808734,111.69254303,111.69254303,1.30594861507,17.8790683746,2026,2015,2547,2036,2036,2939,3429,3427,3248,3365,3091,3060,3163,3153,3242,2865,3412,3418,3253,3368,3139,3357,3389,3191
1508401059558414279,113,1508401059558088606,plot_matl,-0.300000011921,-7000.0,-0.313931971788,-0.00460829166695,0.0,0.0,0.349065840244,0.128200724721,-0.012484209612,-0.313923060894,0.0118598891422,0.0118598891422,-0.00282484781928,0.00118446268607,43.6253738403,43.6253738403,-12.7144508362,-100.668830872,2030,2047,2095,2029,2029,2753,3331,3350,3159,3298,3014,2978,3066,3084,3168,2884,3372,3369,3198,3270,2917,3278,3304,3022,0.010021693,1.129994622,1.132451309,0.453785598278,4500.0,0.477266579866,0.0261331070215,0.0234809760004,-105.664390564,0.0,6000.0,-0.0124751962721,-0.00299039972015,-0.0124751962721,75.8295059204,0.349065840244,0.0289103612304,-0.00610339827836,0.30835968256,0.0132905878127,0.0132905878127,0.000539119413588,0.0179212763906,111.713485718,111.713485718,1.3996655941,17.7527065277,2030,2032,2547,2036,2036,2939,3429,3427,3247,3364,3090,3058,3162,3153,3243,2864,3414,3418,3253,3368,3139,3357,3389,3191
1508401059568512416,114,1508401059568117415,plot_matl,-0.300000011921,-7000.0,-0.313925951719,0.00123606366105,0.0,0.0,0.349065840244,0.128200724721,-0.0124510042369,-0.313917726278,0.0119052221999,0.0119052221999,-0.00352935353294,0.00107307732105,43.5665855408,43.5665855408,-12.873749733,-100.461593628,2033,2049,2096,2025,2025,2753,3331,3350,3159,3298,3014,2978,3066,3084,3168,2884,3372,3369,3199,3270,2915,3281,3303,3024,0.010029035,1.140023652,1.14330999,0.453785598278,4500.0,0.475917100906,-0.00278659607284,0.0221314951777,-99.5917282104,0.0,6000.0,-0.0124678723514,0.0102404765785,-0.0124678723514,71.8125457764,0.349065840244,0.0265011657029,-0.00611298158765,0.30836558342,-0.0116377472878,-0.0116377472878,0.00072083726991,0.0179890319705,111.62412262,111.62412262,1.38622760773,17.4845199585,2026,2022,2547,2033,2033,2939,3429,3427,3247,3364,3090,3058,3162,3153,3243,2864,3414,3419,3253,3370,3140,3357,3389,3192
1508401059578386233,115,1508401059578094547,plot_matl,-0.300000011921,-7000.0,-0.313925266266,-0.00473638344556,0.0,0.0,0.349065840244,0.128200724721,-0.0124510042369,-0.313917726278,0.0119052221999,0.0119052221999,-0.00352935353294,0.00107307732105,43.5665855408,43.5665855408,-12.873749733,-100.461593628,2025,2044,2096,2025,2025,2752,3332,3348,3159,3297,3016,2978,3065,3083,3168,2884,3372,3369,3199,3270,2915,3281,3303,3024,0.009976621,1.1500009,1.147311415,0.453785598278,4500.0,0.475917100906,-0.00376309547573,0.0221314951777,-99.5917282104,0.0,6000.0,-0.0124608529732,-0.00332940230146,-0.0124608529732,75.756980896,0.349065840244,0.0265011657029,-0.00611298158765,0.30836558342,-0.0116377472878,-0.0116377472878,0.00072083726991,0.0179890319705,111.62412262,111.62412262,1.38622760773,17.4845199585,2029,2028,2547,2033,2033,2940,3427,3429,3246,3365,3093,3058,3162,3153,3245,2864,3414,3419,3253,3370,3140,3357,3389,3192
1508401059588420435,116,1508401059588077899,plot_matl,-0.300000011921,-7000.0,-0.313924312592,-0.00476014893502,0.0,0.0,0.349065840244,0.126851245761,-0.0124278431758,-0.313922077417,-0.0022186585702,-0.0022186585702,-0.00401133904234,0.00117215933278,43.6008071899,43.6008071899,-12.6506757736,-100.625968933,2030,2063,2096,2025,2025,2752,3332,3348,3159,3297,3016,2978,3065,3083,3168,2884,3374,3367,3196,3270,2916,3280,3304,3023,0.009982319,1.159983754,1.157949004,0.453785598278,4500.0,0.477266579866,0.0221645571291,0.0234809760004,-105.664390564,0.0,6000.0,-0.012455502525,0.00997294578701,-0.012455502525,71.9535293579,0.349065840244,0.0265011657029,-0.00612835166976,0.308561980724,-0.0114089893177,-0.0114089893177,0.00104083376937,0.0139248231426,111.512916565,111.512916565,1.69791424274,17.5297374725,2030,2032,2548,2033,2033,2940,3427,3429,3246,3365,3093,3058,3162,3153,3245,2863,3413,3420,3255,3368,3138,3357,3388,3192
1508401059598389048,117,1508401059598092666,plot_matl,-0.300000011921,-7000.0,-0.313924461603,-0.00475453678519,0.0,0.0,0.349065840244,0.126851245761,-0.0124273272231,-0.313928037882,-0.00181452778634,-0.00181452778634,-0.00401822570711,0.00129176001064,43.6331214905,43.6331214905,-12.8339042664,-100.589118958,2017,2040,2096,2033,2033,2750,3330,3349,3157,3295,3015,2978,3067,3083,3168,2884,3374,3367,3196,3270,2916,3280,3304,3023,0.010015579,1.169998938,1.171822743,0.453785598278,4500.0,0.475917100906,-0.00417665485293,0.0221314951777,-99.5917282104,0.0,6000.0,-0.0124264638871,-0.00403625145555,-0.0124264638871,75.7560348511,0.349065840244,0.0265011657029,-0.00613341061398,0.308359831572,-0.0102242203429,-0.0102242203429,-0.0141948536038,0.0180755313486,111.576858521,111.576858521,1.88964664936,17.3288211823,2025,2030,2548,2032,2032,2941,3429,3427,3247,3366,3092,3058,3164,3153,3245,2863,3413,3420,3255,3368,3138,3357,3388,3192
1508401059608316148,118,1508401059608069174,plot_matl,-0.300000011921,-7000.0,-0.31392994523,-0.00464211916551,0.0,0.0,0.349065840244,0.126851245761,-0.0124153662473,-0.313926547766,-0.00197499268688,-0.00197499268688,-0.00424053659663,0.001273161266,43.6002082825,43.6002082825,-12.7154016495,-100.849189758,2008,2037,2096,2033,2033,2750,3330,3349,3157,3295,3015,2978,3067,3083,3169,2883,3374,3369,3198,3271,2916,3281,3305,3023,0.009974808,1.179974987,1.177027344,0.453785598278,4500.0,0.475917100906,-0.00393645884469,0.0221314951777,-99.5917282104,0.0,6000.0,-0.012413257733,-0.00430201226845,-0.012413257733,75.7061920166,0.349065840244,0.0265011657029,-0.00613676337525,0.308306217194,-0.00922870170325,-0.00922870170325,0.00122691947035,0.0192637685686,111.528144836,111.528144836,2.00780940056,17.9220809937,2023,2020,2548,2032,2032,2941,3429,3427,3247,3366,3092,3058,3164,3154,3242,2865,3411,3418,3253,3368,3138,3353,3388,3192
1508401059618239436,119,1508401059618067025,plot_matl,-0.300000011921,-7000.0,-0.313922762871,0.00119710387662,0.0,0.0,0.349065840244,0.128200724721,-0.0124287568033,-0.313915044069,0.0107421344146,0.0107421344146,-0.00394138367847,0.00104133819696,43.4966049194,43.4966049194,-12.7728443146,-100.832550049,2019,2060,2096,2032,2032,2753,3330,3350,3157,3295,3012,2978,3067,3083,3169,2883,3374,3369,3198,3271,2916,3281,3305,3025,0.009997355,1.18997271,1.189685245,0.453785598278,4500.0,0.474567621946,-0.0314655900002,0.0207820124924,-93.5190582275,0.0,6000.0,-0.0124144302681,-0.00424242252484,-0.0124144302681,75.8634033203,0.349065840244,0.0265011657029,-0.00612580543384,0.308315336704,-0.00934336148202,-0.00934336148202,0.00100351625588,-0.0426421687007,111.490379333,111.490379333,1.73243308067,17.9136009216,2026,2023,2547,2037,2037,2940,3428,3428,3248,3364,3092,3058,3164,3154,3242,2865,3411,3418,3253,3368,3138,3353,3388,3192
1508401059628239208,120,1508401059628066295,plot_matl,-0.300000011921,-7000.0,-0.313917636871,-0.00487941736355,0.0,0.0,0.349065840244,0.128200724721,-0.0124411452562,-0.31392160058,0.00981737021357,0.00981737021357,-0.00369322649203,0.00117103627417,43.3915214539,43.3915214539,-12.7834844589,-100.72631073,2012,2048,2096,2032,2032,2753,3330,3350,3157,3295,3012,2979,3067,3080,3169,2884,3377,3370,3199,3270,2915,3281,3305,3025,0.009998552,1.199971538,1.19982624,0.453785598278,4500.0,0.477266579866,0.0202379394323,0.0234809760004,-105.664390564,0.0,6000.0,-0.0124265970662,-0.00397360976785,-0.0124265970662,75.7039794922,0.349065840244,0.0289103612304,-0.00612939568236,0.308380395174,0.0144515968859,0.0144515968859,0.00107549014501,0.0179728940129,111.613243103,111.613243103,1.9677336216,18.0462970734,2018,2013,2547,2037,2037,2940,3428,3428,3248,3364,3092,3058,3163,3155,3244,2865,3412,3420,3253,3368,3140,3353,3388,3192
1508401059638261124,121,1508401059638086446,plot_matl,-0.300000011921,-7000.0,-0.313918232918,0.00110330281314,0.0,0.0,0.349065840244,0.128200724721,-0.0124411452562,-0.31392160058,0.00981737021357,0.00981737021357,-0.00369322649203,0.00117103627417,43.3915214539,43.3915214539,-12.7834844589,-100.72631073,2009,2051,2097,2031,2031,2752,3333,3350,3156,3295,3012,2979,3067,3080,3169,2884,3377,3370,3199,3270,2915,3280,3305,3023,0.010020095,1.209991812,1.212431495,0.453785598278,4500.0,0.474567621946,-0.0339092053473,0.0207820124924,-93.5190582275,0.0,6000.0,-0.0124517707154,-0.00347960810177,-0.0124517707154,75.7435302734,0.349065840244,0.0289103612304,-0.00612939568236,0.308380395174,0.0144515968859,0.0144515968859,0.00107549014501,0.0179728940129,111.613243103,111.613243103,1.9677336216,18.0462970734,2021,2028,2547,2034,2034,2940,3428,3429,3247,3364,3092,3058,3163,3155,3244,2865,3412,3420,3253,3368,3140,3355,3389,3193
1508401059648531480,122,1508401059648116645,plot_matl,-0.300000011921,-7000.0,-0.313924401999,0.00123078364413,0.0,0.0,0.349065840244,0.128200724721,-0.0124411452562,-0.31392160058,0.00981737021357,0.00981737021357,-0.00369322649203,0.00117103627417,43.3915214539,43.3915214539,-12.7834844589,-100.72631073,2019,2064,2097,2031,2031,2752,3333,3350,3156,3293,3015,2980,3067,3082,3168,2883,3373,3369,3196,3270,2915,3280,3305,3023,0.010032666,1.220023017,1.223985252,0.453785598278,4500.0,0.475917100906,-0.00596227776259,0.0221314951777,-99.5917282104,0.0,6000.0,-0.0124108549207,-0.00433378526941,-0.0124108549207,75.7921905518,0.349065840244,0.0289103612304,-0.00612939568236,0.308380395174,0.0144515968859,0.0144515968859,0.00107549014501,0.0179728940129,111.613243103,111.613243103,1.9677336216,18.0462970734,2025,2032,2547,2034,2034,2940,3428,3429,3247,3364,3092,3059,3162,3154,3244,2864,3411,3421,3255,3368,3140,3355,3389,3193
1508401059658386711,123,1508401059658121710,plot_matl,-0.300000011921,-7000.0,-0.313924103975,0.001231876784,0.0,0.0,0.349065840244,0.128200724721,-0.0124411452562,-0.31392160058,0.00981737021357,0.00981737021357,-0.00369322649203,0.00117103627417,43.3915214539,43.3915214539,-12.7834844589,-100.72631073,2015,2053,2096,2030,2030,2753,3331,3350,3156,3293,3015,2980,3067,3082,3168,2883,3373,3369,3196,3273,2917,3279,3305,3024,0.010004254,1.230028112,1.230523242,0.453785598278,4500.0,0.474567621946,-0.0325339436531,0.0207820124924,-93.5190582275,0.0,6000.0,-0.0124260922894,-0.00402173027396,-0.0124260922894,75.7038650513,0.349065840244,0.0289103612304,-0.00612939568236,0.308380395174,0.0144515968859,0.0144515968859,0.00107549014501,0.0179728940129,111.613243103,111.613243103,1.9677336216,18.0462970734,2023,2027,2547,2039,2039,2940,3429,3429,3247,3364,3092,3059,3162,3154,3244,2864,3411,3421,3255,3370,3138,3356,3388,3190
1508401059668440466,124,1508401059668088484,plot_matl,-0.300000011921,-7000.0,-0.313917934895,0.00110609002877,0.0,0.0,0.349065840244,0.126851245761,-0.012440437451,-0.313921272755,-0.00305162719451,-0.00305162719451,-0.00372886960395,0.00117383222096,43.4460334778,43.4460334778,-12.5384206772,-100.55670166,2024,2041,2096,2030,2030,2753,3331,3349,3156,3296,3014,2979,3066,3085,3169,2883,3375,3369,3196,3273,2917,3279,3305,3024,0.009965425,1.239994605,1.2357127,0.453785598278,4500.0,0.475917100906,-0.00628682831302,0.0221314951777,-99.5917282104,0.0,6000.0,-0.0124510796741,-0.00351367541589,-0.0124510796741,75.7255096436,0.349065840244,0.0265011657029,-0.00612390460446,0.308260262012,-0.00872805062681,-0.00872805062681,0.000958782853559,0.020491970703,111.496955872,111.496955872,2.21917653084,17.8447132111,2035,2025,2547,2039,2039,2940,3429,3426,3247,3364,3091,3059,3161,3154,3242,2865,3413,3421,3255,3370,3138,3356,3388,3190
1508401059678239042,125,1508401059678076576,plot_matl,-0.300000011921,-7000.0,-0.313923835754,0.00122715590987,0.0,0.0,0.349065840244,0.126851245761,-0.012440437451,-0.313921272755,-0.00305162719451,-0.00305162719451,-0.00372886960395,0.00117383222096,43.4460334778,43.4460334778,-12.5384206772,-100.55670166,2036,2060,2096,2034,2034,2753,3331,3349,3156,3296,3014,2979,3066,3085,3169,2883,3375,3370,3196,3271,2917,3281,3307,3023,0.009987309,1.249982323,1.248413625,0.453785598278,4500.0,0.475917100906,-0.00665286928415,0.0221314951777,-99.5917282104,0.0,6000.0,-0.0124564031139,0.0100178420544,-0.0124564031139,71.7506256104,0.349065840244,0.0265011657029,-0.00612390460446,0.308260262012,-0.00872805062681,-0.00872805062681,0.000958782853559,0.020491970703,111.496955872,111.496955872,2.21917653084,17.8447132111,2028,2022,2548,2036,2036,2940,3429,3426,3247,3364,3091,3059,3161,3154,3242,2865,3413,3418,3255,3368,3141,3356,3390,3192
1508401059688444418,126,1508401059688107730,plot_matl,-0.300000011921,-7000.0,-0.31392338872,0.00121586024761,0.0,0.0,0.349065840244,0.126851245761,-0.012440437451,-0.313921272755,-0.00305162719451,-0.00305162719451,-0.00372886960395,0.00117383222096,43.4460334778,43.4460334778,-12.5384206772,-100.55670166,2018,2041,2096,2034,2034,2752,3331,3349,3159,3295,3014,2979,3066,3082,3168,2883,3375,3370,3196,3271,2917,3281,3307,3023,0.010032151,1.260014172,1.264051026,0.453785598278,4500.0,0.475917100906,-0.00606823479757,0.0221314951777,-99.5917282104,0.0,6000.0,-0.0124260056764,0.00940125994384,-0.0124260056764,71.4690856934,0.349065840244,0.0265011657029,-0.00612390460446,0.308260262012,-0.00872805062681,-0.00872805062681,0.000958782853559,0.020491970703,111.496955872,111.496955872,2.21917653084,17.8447132111,2028,2025,2548,2036,2036,2941,3428,3427,3247,3365,3092,3058,3164,3152,3243,2865,3413,3418,3255,3368,3141,3356,3390,3192
1508401059698588223,127,1508401059698141624,plot_matl,-0.300000011921,-7000.0,-0.313924133778,-0.00474638165906,0.0,0.0,0.349065840244,0.126851245761,-0.012440437451,-0.313921272755,-0.00305162719451,-0.00305162719451,-0.00372886960395,0.00117383222096,43.4460334778,43.4460334778,-12.5384206772,-100.55670166,2020,2056,2095,2034,2034,2752,3331,3349,3159,3295,3014,2979,3066,3082,3168,2885,3371,3370,3195,3270,2917,3280,3305,3024,0.010033022,1.270047896,1.274193794,0.453785598278,4500.0,0.475917100906,-0.00646477239206,0.0221314951777,-99.5917282104,0.0,6000.0,-0.0124275162816,-0.00399287370965,-0.0124275162816,75.7718353271,0.349065840244,0.0265011657029,-0.00612390460446,0.308260262012,-0.00872805062681,-0.00872805062681,0.000958782853559,0.020491970703,111.496955872,111.496955872,2.21917653084,17.8447132111,2027,2030,2548,2036,2036,2941,3428,3427,3247,3365,3092,3058,3164,3152,3243,2865,3413,3418,3254,3369,3140,3356,3388,3192
1508401059708673019,128,1508401059708098737,plot_matl,-0.300000011921,-7000.0,-0.313923060894,-0.00476073985919,0.0,0.0,0.349065840244,0.128200724721,-0.0124413780868,-0.313921302557,0.0100305462256,0.0100305462256,-0.00371484085917,0.00117183744442,43.4996147156,43.4996147156,-12.4276094437,-100.954452515,2014,2057,2095,2033,2033,2753,3333,3349,3158,3298,3013,2977,3065,3082,3168,2885,3371,3370,3195,3270,2917,3280,3305,3024,0.009957747,1.28000518,1.274591616,0.453785598278,4500.0,0.475917100906,-0.00628705369309,0.0221314951777,-99.5917282104,0.0,6000.0,-0.0124518554658,-0.00350269349292,-0.0124518554658,75.6137161255,0.349065840244,0.0265011657029,-0.00610806234181,0.308391481638,-0.0116403568536,-0.0116403568536,0.000638578901999,0.0175680629909,111.713264465,111.713264465,1.69931268692,18.2538433075,2021,2025,2548,2034,2034,2940,3430,3428,3247,3366,3092,3059,3162,3152,3243,2865,3413,3418,3254,3369,3140,3356,3388,3192
1508401059718351419,129,1508401059718087904,plot_matl,-0.300000011921,-7000.0,-0.313923329115,-0.00475803529844,0.0,0.0,0.349065840244,0.128200724721,-0.0124413780868,-0.313921302557,0.0100305462256,0.0100305462256,-0.00371484085917,0.00117183744442,43.4996147156,43.4996147156,-12.4276094437,-100.954452515,2013,2052,2095,2033,2033,2753,3333,3349,3158,3298,3013,2977,3065,3084,3168,2884,3373,3368,3198,3270,2917,3280,3304,3024,0.009989384,1.289994445,1.288630536,0.453785598278,4500.0,0.475917100906,-0.00509599922225,0.0221314951777,-99.5917282104,0.0,6000.0,-0.0124232023954,0.00934910960495,-0.0124232023954,71.5439147949,0.349065840244,0.0265011657029,-0.00610806234181,0.308391481638,-0.0116403568536,-0.0116403568536,0.000638578901999,0.0175680629909,111.713264465,111.713264465,1.69931268692,18.2538433075,2028,2028,2548,2034,2034,2940,3430,3428,3247,3366,3092,3059,3162,3153,3244,2864,3412,3420,3253,3369,3140,3356,3389,3192
1508401059728517755,130,1508401059728081927,plot_matl,-0.300000011921,-7000.0,-0.313934475183,-0.00453438889235,0.0,0.0,0.349065840244,0.128200724721,-0.0124413780868,-0.313921302557,0.0100305462256,0.0100305462256,-0.00371484085917,0.00117183744442,43.4996147156,43.4996147156,-12.4276094437,-100.954452515,2011,2050,2096,2032,2032,2752,3331,3350,3159,3294,3015,2977,3065,3084,3168,2884,3373,3368,3198,3270,2917,3280,3304,3023,0.009992787,1.299988214,1.29906231,0.453785598278,4500.0,0.475917100906,-0.00271980697289,0.0221314951777,-99.5917282104,0.0,6000.0,-0.012446702458,0.00982857774943,-0.012446702458,71.7806549072,0.349065840244,0.0265011657029,-0.00610806234181,0.308391481638,-0.0116403568536,-0.0116403568536,0.000638578901999,0.0175680629909,111.713264465,111.713264465,1.69931268692,18.2538433075,2020,2020,2548,2034,2034,2940,3429,3426,3246,3365,3091,3059,3162,3153,3244,2864,3412,3420,3253,3369,3140,3356,3389,3193
1508401059738693497,131,1508401059738128101,plot_matl,-0.300000011921,-7000.0,-0.313937544823,-0.00445986166596,0.0,0.0,0.349065840244,0.128200724721,-0.0124413780868,-0.313921302557,0.0100305462256,0.0100305462256,-0.00371484085917,0.00117183744442,43.4996147156,43.4996147156,-12.4276094437,-100.954452515,2004,2053,2096,2032,2032,2752,3331,3350,3159,3294,3015,2980,3064,3083,3169,2882,3377,3368,3198,3271,2917,3280,3304,3023,0.010046745,1.310034583,1.316123595,0.453785598278,4500.0,0.474567621946,-0.0294729880989,0.0207820124924,-93.5190582275,0.0,6000.0,-0.0124411992729,-0.0036799761001,-0.0124411992729,75.8027038574,0.349065840244,0.0265011657029,-0.00610806234181,0.308391481638,-0.0116403568536,-0.0116403568536,0.000638578901999,0.0175680629909,111.713264465,111.713264465,1.69931268692,18.2538433075,2018,2022,2548,2034,2034,2940,3429,3426,3246,3365,3091,3058,3162,3154,3242,2864,3412,3419,3254,3369,3139,3356,3389,3193
1508401059748629662,132,1508401059748116840,plot_matl,-0.300000011921,-7000.0,-0.313945412636,0.00166586961132,0.0,0.0,0.349065840244,0.126851245761,-0.0124282417819,-0.313938140869,-0.000949461653363,-0.000949461653363,-0.00392892677337,0.00153124460485,43.4982147217,43.4982147217,-12.3211355209,-100.849746704,2003,2052,2096,2032,2032,2751,3332,3350,3158,3294,3015,2980,3064,3083,3169,2882,3377,3368,3198,3271,2917,3279,3303,3025,0.009987757,1.320023012,1.318383924,0.453785598278,4500.0,0.474567621946,-0.028528727591,0.0207820124924,-93.5190582275,0.0,6000.0,-0.0124395880848,-0.00370218721218,-0.0124395880848,75.6842498779,0.349065840244,0.0265011657029,-0.00610474823043,0.308477550745,-0.0114249978215,-0.0114249978215,0.000562013592571,-0.0458924174309,111.635215759,111.635215759,1.10100924969,18.9047145844,2022,2031,2547,2036,2036,2941,3429,3427,3244,3365,3091,3058,3162,3154,3242,2864,3412,3419,3254,3369,3139,3356,3387,3193
1508401059758560058,133,1508401059758083926,plot_matl,-0.300000011921,-7000.0,-0.313946127892,0.00167471857276,0.0,0.0,0.349065840244,0.126851245761,-0.0124282417819,-0.313938140869,-0.000949461653363,-0.000949461653363,-0.00392892677337,0.00153124460485,43.4982147217,43.4982147217,-12.3211355209,-100.849746704,2004,2064,2096,2032,2032,2751,3332,3350,3158,3297,3014,2978,3064,3080,3168,2882,3374,3368,3198,3271,2917,3279,3303,3025,0.009967034,1.329989978,1.325615522,0.453785598278,4500.0,0.475917100906,-0.00160908175167,0.0221314951777,-99.5917282104,0.0,6000.0,-0.0124255102128,-0.00397953670472,-0.0124255102128,75.8026275635,0.349065840244,0.0265011657029,-0.00610474823043,0.308477550745,-0.0114249978215,-0.0114249978215,0.000562013592571,-0.0458924174309,111.635215759,111.635215759,1.10100924969,18.9047145844,2018,2033,2547,2036,2036,2941,3429,3427,3244,3364,3091,3060,3163,3152,3243,2865,3411,3419,3255,3369,3139,3356,3387,3193
1508401059768485187,134,1508401059768115083,plot_matl,-0.300000011921,-7000.0,-0.313942432404,0.00159843137953,0.0,0.0,0.349065840244,0.126851245761,-0.0124282417819,-0.313938140869,-0.000949461653363,-0.000949461653363,-0.00392892677337,0.00153124460485,43.4982147217,43.4982147217,-12.3211355209,-100.849746704,2007,2058,2095,2031,2031,2752,3331,3350,3158,3297,3014,2978,3064,3080,3168,2882,3374,3368,3198,3272,2918,3280,3306,3025,0.0100306,1.340021435,1.3441004,0.453785598278,4500.0,0.475917100906,-0.000729552470148,0.0221314951777,-99.5917282104,0.0,6000.0,-0.0124135967344,0.00918910093606,-0.0124135967344,71.7178955078,0.349065840244,0.0265011657029,-0.00610474823043,0.308477550745,-0.0114249978215,-0.0114249978215,0.000562013592571,-0.0458924174309,111.635215759,111.635215759,1.10100924969,18.9047145844,2024,2027,2548,2034,2034,2939,3430,3427,3244,3364,3091,3060,3163,3152,3243,2865,3411,3419,3255,3370,3138,3355,3389,3192
1508401059778586270,135,1508401059778093367,plot_matl,-0.300000011921,-7000.0,-0.31393301487,0.00140907044988,0.0,0.0,0.349065840244,0.126851245761,-0.0124282417819,-0.313938140869,-0.000949461653363,-0.000949461653363,-0.00392892677337,0.00153124460485,43.4982147217,43.4982147217,-12.3211355209,-100.849746704,2003,2051,2095,2031,2031,2752,3331,3351,3159,3296,3013,2979,3067,3082,3167,2882,3373,3368,3198,3272,2918,3280,3306,3025,0.009977844,1.3499998,1.34700894,0.453785598278,4500.0,0.475917100906,0.000864195637405,0.0221314951777,-99.5917282104,0.0,6000.0,-0.0124290604144,-0.00392368342727,-0.0124290604144,75.7356643677,0.349065840244,0.0265011657029,-0.00610474823043,0.308477550745,-0.0114249978215,-0.0114249978215,0.000562013592571,-0.0458924174309,111.635215759,111.635215759,1.10100924969,18.9047145844,2028,2029,2548,2034,2034,2939,3430,3429,3247,3367,3090,3059,3161,3152,3243,2863,3411,3419,3255,3370,3138,3355,3389,3192
1508401059788505931,136,1508401059788089036,plot_matl,-0.300000011921,-7000.0,-0.313925683498,0.00125993520487,0.0,0.0,0.349065840244,0.126851245761,-0.0124428300187,-0.313929706812,-0.000155712943524,-0.000155712943524,-0.00366005138494,0.00134100730065,43.7178535461,43.7178535461,-12.4266052246,-101.016448975,2025,2051,2095,2032,2032,2752,3331,3351,3159,3296,3013,2979,3067,3082,3167,2882,3373,3371,3197,3271,2917,3281,3304,3025,0.009996651,1.35999584,1.359544536,0.453785598278,4500.0,0.475917100906,-0.00029259826988,0.0221314951777,-99.5917282104,0.0,6000.0,-0.0124412206933,-0.00369150005281,-0.0124412206933,75.9108810425,0.349065840244,0.0265011657029,-0.00610219826922,0.30840575695,-0.0089786015451,-0.0089786015451,0.000498028297443,-0.0444133207202,111.802818298,111.802818298,0.912411212921,19.1331882477,2036,2018,2548,2036,2036,2939,3430,3429,3247,3367,3090,3059,3161,3152,3243,2863,3411,3419,3254,3370,3140,3357,3388,3192
1508401059798437385,137,1508401059798084570,plot_matl,-0.300000011921,-7000.0,-0.313919901848,0.00114326912444,0.0,0.0,0.349065840244,0.126851245761,-0.0124428300187,-0.313929706812,-0.000155712943524,-0.000155712943524,-0.00366005138494,0.00134100730065,43.7178535461,43.7178535461,-12.4266052246,-101.016448975,2019,2039,2095,2032,2032,2752,3332,3347,3158,3294,3014,2978,3067,3082,3168,2882,3373,3371,3197,3271,2917,3281,3304,3025,0.009992867,1.369990642,1.369022779,0.453785598278,4500.0,0.475917100906,-0.00120606971905,0.0221314951777,-99.5917282104,0.0,6000.0,-0.0124364709482,0.00963272247463,-0.0124364709482,71.7246932983,0.349065840244,0.0265011657029,-0.00610219826922,0.30840575695,-0.0089786015451,-0.0089786015451,0.000498028297443,-0.0444133207202,111.802818298,111.802818298,0.912411212921,19.1331882477,2030,2019,2548,2036,2036,2939,3429,3427,3246,3364,3090,3059,3161,3152,3244,2863,3411,3419,3254,3370,3140,3357,3388,3192
1508401059808523720,138,1508401059808089611,plot_matl,-0.300000011921,-7000.0,-0.313914775848,0.00103923713323,0.0,0.0,0.349065840244,0.126851245761,-0.0124428300187,-0.313929706812,-0.000155712943524,-0.000155712943524,-0.00366005138494,0.00134100730065,43.7178535461,43.7178535461,-12.4266052246,-101.016448975,2019,2044,2096,2032,2032,2752,3332,3347,3158,3294,3014,2978,3067,3082,3168,2883,3374,3370,3199,3270,2916,3279,3305,3025,0.010005923,1.379996123,1.380817374,0.453785598278,4500.0,0.477266579866,0.0261848736554,0.0234809760004,-105.664390564,0.0,6000.0,-0.012433222495,0.00956779811531,-0.012433222495,71.7856674194,0.349065840244,0.0265011657029,-0.00610219826922,0.30840575695,-0.0089786015451,-0.0089786015451,0.000498028297443,-0.0444133207202,111.802818298,111.802818298,0.912411212921,19.1331882477,2028,2024,2548,2036,2036,2939,3429,3427,3246,3364,3090,3059,3161,3152,3244,2864,3413,3419,3255,3370,3139,3356,3388,3192
1508401059818655337,139,1508401059818142705,plot_matl,-0.300000011921,-7000.0,-0.313921540976,0.00117825542111,0.0,0.0,0.349065840244,0.126851245761,-0.0124428300187,-0.313929706812,-0.000155712943524,-0.000155712943524,-0.00366005138494,0.00134100730065,43.7178535461,43.7178535461,-12.4266052246,-101.016448975,2018,2058,2096,2033,2033,2751,3331,3348,3157,3296,3014,2979,3067,3082,3168,2883,3374,3370,3199,3270,2916,3279,3305,3025,0.010053245,1.390049197,1.397401055,0.453785598278,4500.0,0.475917100906,-0.000412221095758,0.0221314951777,-99.5917282104,0.0,6000.0,-0.0124681610614,-0.00315488129854,-0.0124681610614,75.8227539062,0.349065840244,0.0265011657029,-0.00610219826922,0.30840575695,-0.0089786015451,-0.0089786015451,0.000498028297443,-0.0444133207202,111.802818298,111.802818298,0.912411212921,19.1331882477,2023,2031,2548,2032,2032,2940,3427,3427,3246,3364,3091,3059,3163,3152,3244,2864,3413,3419,3255,3370,3139,3356,3388,3192
1508401059828425724,140,1508401059828129859,plot_matl,-0.300000011921,-7000.0,-0.313905507326,0.000846251496114,0.0,0.0,0.349065840244,0.126851245761,-0.0124770086259,-0.313913762569,-0.000160378796863,-0.000160378796863,-0.00298284878954,0.00101900473237,44.1522941589,44.1522941589,-12.9174995422,-100.875831604,2016,2060,2096,2033,2033,2751,3331,3348,3157,3296,3014,2979,3067,3082,3166,2882,3375,3369,3197,3270,2915,3278,3304,3025,0.009985258,1.400035632,1.39793612,0.453785598278,4500.0,0.475917100906,0.000220340880333,0.0221314951777,-99.5917282104,0.0,6000.0,-0.0124854445457,-0.00281262490898,-0.0124854445457,75.6927719116,0.349065840244,0.0265011657029,-0.00611279765144,0.308420479298,-0.010056860745,-0.010056860745,0.000735895941034,0.0169679503888,111.669952393,111.669952393,0.845256388187,18.7939281464,2022,2026,2548,2032,2032,2940,3427,3427,3246,3364,3091,3059,3163,3153,3245,2865,3413,3419,3255,3369,3139,3356,3389,3192
1508401059838477620,141,1508401059838095736,plot_matl,-0.300000011921,-7000.0,-0.313913166523,0.00100887310691,0.0,0.0,0.349065840244,0.126851245761,-0.0124770086259,-0.313913762569,-0.000160378796863,-0.000160378796863,-0.00298284878954,0.00101900473237,44.1522941589,44.1522941589,-12.9174995422,-100.875831604,2013,2051,2096,2034,2034,2752,3331,3349,3159,3295,3015,2979,3067,3082,3166,2882,3375,3369,3197,3270,2915,3278,3304,3022,0.009965704,1.410001663,1.405164264,0.453785598278,4500.0,0.477266579866,0.0269063785672,0.0234809760004,-105.664390564,0.0,6000.0,-0.0125108053908,-0.00230093882419,-0.0125108053908,75.783203125,0.349065840244,0.0265011657029,-0.00611279765144,0.308420479298,-0.010056860745,-0.010056860745,0.000735895941034,0.0169679503888,111.669952393,111.669952393,0.845256388187,18.7939281464,2023,2026,2548,2036,2036,2939,3427,3428,3248,3364,3090,3059,3163,3153,3245,2865,3413,3419,3255,3369,3139,3356,3389,3191
1508401059848362830,142,1508401059848091090,plot_matl,-0.300000011921,-7000.0,-0.313920646906,0.00115238130093,0.0,0.0,0.349065840244,0.126851245761,-0.0124770086259,-0.313913762569,-0.000160378796863,-0.000160378796863,-0.00298284878954,0.00101900473237,44.1522941589,44.1522941589,-12.9174995422,-100.875831604,2015,2053,2096,2034,2034,2752,3331,3349,3159,3295,3015,2978,3063,3083,3167,2883,3374,3370,3197,3270,2917,3278,3304,3022,0.009996005,1.419997743,1.41943271,0.453785598278,4500.0,0.475917100906,0.00160209077876,0.0221314951777,-99.5917282104,0.0,6000.0,-0.0125086829066,-0.00235788524151,-0.0125086829066,75.7446670532,0.349065840244,0.0265011657029,-0.00611279765144,0.308420479298,-0.010056860745,-0.010056860745,0.000735895941034,0.0169679503888,111.669952393,111.669952393,0.845256388187,18.7939281464,2031,2022,2548,2036,2036,2939,3427,3428,3248,3364,3090,3060,3162,3152,3244,2865,3412,3418,3254,3372,3140,3356,3389,3191
1508401059858406965,143,1508401059858065837,plot_matl,-0.300000011921,-7000.0,-0.313916087151,0.00105326017365,0.0,0.0,0.349065840244,0.126851245761,-0.0124770086259,-0.313913762569,-0.000160378796863,-0.000160378796863,-0.00298284878954,0.00101900473237,44.1522941589,44.1522941589,-12.9174995422,-100.875831604,2019,2051,2096,2033,2033,2752,3330,3350,3158,3295,3015,2978,3063,3083,3167,2883,3374,3370,3197,3270,2917,3280,3305,3022,0.009972423,1.429971605,1.426056489,0.453785598278,4500.0,0.477266579866,0.0276938881725,0.0234809760004,-105.664390564,0.0,6000.0,-0.0124951498583,-0.00263990368694,-0.0124951498583,75.7680053711,0.349065840244,0.0265011657029,-0.00611279765144,0.308420479298,-0.010056860745,-0.010056860745,0.000735895941034,0.0169679503888,111.669952393,111.669952393,0.845256388187,18.7939281464,2025,2024,2548,2037,2037,2941,3428,3426,3247,3364,3090,3060,3162,3152,3244,2865,3412,3418,3254,3372,3140,3354,3389,3191
1508401059868530799,144,1508401059868114195,plot_matl,-0.300000011921,-7000.0,-0.313912153244,0.000977717223577,0.0,0.0,0.349065840244,0.125501766801,-0.0124995708466,-0.313909202814,-0.0134231122211,-0.0134231122211,-0.00253735482693,0.000915626005735,44.1027412415,44.1027412415,-13.2644252777,-100.601150513,2009,2049,2096,2033,2033,2752,3330,3350,3158,3296,3014,2978,3067,3083,3170,2884,3375,3371,3199,3270,2917,3280,3305,3022,0.010048746,1.440020121,1.447019424,0.453785598278,4500.0,0.477266579866,0.0271308645606,0.0234809760004,-105.664390564,0.0,6000.0,-0.0124942492694,-0.0026495824568,-0.0124942492694,75.6891021729,0.349065840244,0.0265011657029,-0.00608160439879,0.308405965567,-0.00961804576218,-0.00961804576218,0.000112685724162,0.0171818528324,111.892349243,111.892349243,1.36342740059,18.3857955933,2024,2023,2548,2037,2037,2941,3428,3426,3247,3365,3092,3059,3164,3151,3242,2865,3413,3419,3254,3372,3140,3354,3389,3191
1508401059878752831,145,1508401059878101615,plot_matl,-0.300000011921,-7000.0,-0.313913464546,0.0010032420978,0.0,0.0,0.349065840244,0.125501766801,-0.0124995708466,-0.313909202814,-0.0134231122211,-0.0134231122211,-0.00253735482693,0.000915626005735,44.1027412415,44.1027412415,-13.2644252777,-100.601150513,2006,2059,2095,2034,2034,2751,3332,3350,3158,3296,3014,2978,3067,3083,3170,2884,3375,3371,3199,3271,2917,3278,3302,3025,0.009989505,1.450008594,1.448478225,0.453785598278,4500.0,0.475917100906,-0.00110524962656,0.0221314951777,-99.5917282104,0.0,6000.0,-0.0125062800944,-0.0024024352897,-0.0125062800944,75.7539215088,0.349065840244,0.0265011657029,-0.00608160439879,0.308405965567,-0.00961804576218,-0.00961804576218,0.000112685724162,0.0171818528324,111.892349243,111.892349243,1.36342740059,18.3857955933,2019,2025,2548,2032,2032,2941,3428,3426,3247,3365,3092,3059,3164,3151,3242,2865,3413,3419,3254,3368,3140,3355,3388,3192
