%time,field.header.seq,field.header.stamp,field.header.frame_id,field.FFJ4_set_point,field.FFJ4_position_gain,field.FFJ4_process_value,field.FFJ4_process_value_dot,field.FFJ4_error,field.FFJ4_command,field.FFJ1,field.FFJ2,field.FFJ3,field.FFJ4,field.FFJ1_dot,field.FFJ2_dot,field.FFJ3_dot,field.FFJ4_dot,field.FFJ1_tao,field.FFJ2_tao,field.FFJ3_tao,field.FFJ4_tao,field.pac0,field.pac1,field.pdc0,field.tac0,field.tdc0,field.el0,field.el1,field.el2,field.el3,field.el4,field.el5,field.el6,field.el7,field.el8,field.el9,field.el10,field.el11,field.el12,field.el13,field.el14,field.el15,field.el16,field.el17,field.el18,field.dt,field.time,field.test_time2,field.FFJ0_set_point,field.FFJ0_position_gain,field.FFJ0_process_value,field.FFJ0_process_value_dot,field.FFJ0_error,field.FFJ0_command,field.FFJ3_set_point,field.FFJ3_position_gain,field.FFJ3_process_value,field.FFJ3_process_value_dot,field.FFJ3_error,field.FFJ3_command,field.MFJ1,field.MFJ2,field.MFJ3,field.MFJ4,field.MFJ1_dot,field.MFJ2_dot,field.MFJ3_dot,field.MFJ4_dot,field.MFJ1_tao,field.MFJ2_tao,field.MFJ3_tao,field.MFJ4_tao,field.Mpac0,field.Mpac1,field.Mpdc0,field.Mtac0,field.Mtdc0,field.Mel0,field.Mel1,field.Mel2,field.Mel3,field.Mel4,field.Mel5,field.Mel6,field.Mel7,field.Mel8,field.Mel9,field.Mel10,field.Mel11,field.Mel12,field.Mel13,field.Mel14,field.Mel15,field.Mel16,field.Mel17,field.Mel18
1508401108155513719,128,1508401108154937097,plot_matl,-0.300000011921,-5000.0,-0.309037029743,-0.00185986945871,-0.00903702247888,-45.6475906372,0.349065840244,0.12010384351,-0.00676534045488,-0.309027910233,-0.0104932608083,-0.0104932608083,0.00238321418874,0.00392526062205,24.8234272003,24.8234272003,-12.1166715622,7.88067579269,2010,2053,2103,2019,2019,2730,3328,3349,3157,3296,3016,2979,3063,3085,3170,2910,3380,3374,3207,3276,2926,3281,3307,3028,0.009996647,1.280058533,1.279570816,0.453785598278,4500.0,0.469169706106,-0.019863365218,0.015384087339,-69.2283935547,0.0,6000.0,-0.00675960443914,0.00227594538592,-0.00675960443914,39.8455963135,0.349065840244,0.0265011657029,-0.00622252095491,0.308774292469,-0.00561042036861,-0.00561042036861,0.0029951070901,0.00973621290177,111.701461792,111.701461792,1.72264957428,7.36493062973,2020,2028,2547,2041,2041,2939,3424,3420,3241,3360,3082,3056,3160,3148,3238,2859,3410,3417,3249,3363,3134,3353,3382,3186
1508401108165174884,129,1508401108164891467,plot_matl,-0.300000011921,-5000.0,-0.309016734362,-0.00226922356524,-0.00901672337204,-45.6395187378,0.349065840244,0.12010384351,-0.00676534045488,-0.309027910233,-0.0104932608083,-0.0104932608083,0.00238321418874,0.00392526062205,24.8234272003,24.8234272003,-12.1166715622,7.88067579269,2015,2047,2103,2022,2022,2731,3328,3348,3158,3299,3020,2978,3064,3085,3170,2910,3380,3374,3207,3276,2926,3281,3307,3028,0.009953215,1.290012447,1.283964735,0.453785598278,4500.0,0.470519185066,0.00752825429663,0.0167335700244,-75.3010635376,0.0,6000.0,-0.00675098318607,0.0021175427828,-0.00675098318607,39.8556556702,0.349065840244,0.0265011657029,-0.00622252095491,0.308774292469,-0.00561042036861,-0.00561042036861,0.0029951070901,0.00973621290177,111.701461792,111.701461792,1.72264957428,7.36493062973,2031,2025,2547,2043,2043,2940,3425,3424,3241,3358,3082,3054,3161,3148,3238,2859,3410,3417,3249,3363,3134,3353,3382,3186
1508401108175288646,130,1508401108174905177,plot_matl,-0.300000011921,-5000.0,-0.309031933546,-0.00196568435058,-0.00903194118291,-45.5953483582,0.349065840244,0.12010384351,-0.00676534045488,-0.309027910233,-0.0104932608083,-0.0104932608083,0.00238321418874,0.00392526062205,24.8234272003,24.8234272003,-12.1166715622,7.88067579269,2027,2061,2103,2022,2022,2731,3328,3348,3158,3299,3020,2978,3064,3086,3171,2911,3380,3376,3207,3278,2925,3283,3306,3028,0.010013591,1.300026363,1.30176683,0.453785598278,4500.0,0.470519185066,0.00661342358217,0.0167335700244,-75.3010635376,0.0,6000.0,-0.00674538593739,0.00199233018793,-0.00674538593739,39.9149131775,0.349065840244,0.0265011657029,-0.00622252095491,0.308774292469,-0.00561042036861,-0.00561042036861,0.0029951070901,0.00973621290177,111.701461792,111.701461792,1.72264957428,7.36493062973,2028,2021,2547,2043,2043,2940,3425,3424,3241,3358,3082,3054,3161,3150,3240,2859,3410,3415,3249,3363,3133,3351,3382,3186
1508401108185390316,131,1508401108184897323,plot_matl,-0.300000011921,-5000.0,-0.309044480324,-0.0017174516106,-0.0090444907546,-45.673614502,0.349065840244,0.12010384351,-0.00676534045488,-0.309027910233,-0.0104932608083,-0.0104932608083,0.00238321418874,0.00392526062205,24.8234272003,24.8234272003,-12.1166715622,7.88067579269,2009,2043,2102,2019,2019,2732,3328,3348,3159,3296,3017,2978,3064,3086,3171,2911,3380,3376,3207,3278,2925,3283,3306,3028,0.009991761,1.310018574,1.308920691,0.453785598278,4500.0,0.470519185066,0.00685166800395,0.0167335700244,-75.3010635376,0.0,6000.0,-0.00675211567432,0.00212379917502,-0.00675211567432,39.8068618774,0.349065840244,0.0265011657029,-0.00622252095491,0.308774292469,-0.00561042036861,-0.00561042036861,0.0029951070901,0.00973621290177,111.701461792,111.701461792,1.72264957428,7.36493062973,2023,2023,2548,2044,2044,2938,3424,3422,3241,3357,3084,3054,3161,3150,3240,2859,3410,3415,3249,3363,3133,3351,3382,3186
1508401108195299579,132,1508401108194952171,plot_matl,-0.300000011921,-5000.0,-0.309044420719,-0.0017219792353,-0.00904442369938,-45.6310653687,0.349065840244,0.12145332247,-0.00674805883318,-0.309042483568,0.0035511367023,0.0035511367023,0.00204362627119,-0.00176425138488,24.8188209534,24.8188209534,-12.1960992813,7.88369131088,2018,2052,2102,2019,2019,2732,3328,3348,3159,3296,3017,2980,3063,3086,3169,2911,3380,3376,3206,3277,2925,3283,3306,3028,0.010055028,1.320073548,1.327263696,0.453785598278,4500.0,0.469169706106,-0.0196829475462,0.015384087339,-69.2283935547,0.0,6000.0,-0.00677042920142,0.00249620480463,-0.00677042920142,39.874332428,0.349065840244,0.0265011657029,-0.00619202712551,0.308830559254,-0.00668849237263,-0.00668849237263,0.00238686893135,0.00848703831434,112.063079834,112.063079834,1.63331699371,6.9628572464,2022,2022,2548,2044,2044,2938,3424,3422,3241,3357,3084,3056,3158,3151,3240,2858,3409,3415,3250,3363,3133,3351,3382,3186
1508401108205308172,133,1508401108204909649,plot_matl,-0.300000011921,-5000.0,-0.309044420719,-0.0017219792353,-0.00904442369938,-45.6310653687,0.349065840244,0.12145332247,-0.00674805883318,-0.309042483568,0.0035511367023,0.0035511367023,0.00204362627119,-0.00176425138488,24.8188209534,24.8188209534,-12.1960992813,7.88369131088,2018,2052,2102,2019,2019,2732,3328,3348,3159,3296,3017,2980,3063,3086,3169,2911,3380,3376,3206,3277,2925,3283,3306,3028,0.009957417,1.330031431,1.324336461,0.453785598278,4500.0,0.469169706106,-0.0196829475462,0.015384087339,-69.2283935547,0.0,6000.0,-0.00677042920142,0.00249620480463,-0.00677042920142,39.874332428,0.349065840244,0.0265011657029,-0.00619202712551,0.308830559254,-0.00668849237263,-0.00668849237263,0.00238686893135,0.00848703831434,112.063079834,112.063079834,1.63331699371,6.9628572464,2022,2022,2548,2044,2044,2938,3424,3422,3241,3357,3084,3056,3158,3151,3240,2858,3409,3415,3250,3363,3133,3351,3382,3186
1508401108215090072,134,1508401108214924511,plot_matl,-0.300000011921,-5000.0,-0.309054732323,-0.00149586098269,-0.00905472412705,-45.6573028564,0.349065840244,0.12145332247,-0.00674805883318,-0.309042483568,0.0035511367023,0.0035511367023,0.00204362627119,-0.00176425138488,24.8188209534,24.8188209534,-12.1960992813,7.88369131088,2023,2068,2103,2021,2021,2731,3344,3365,3169,3296,3017,2980,3063,3086,3169,2911,3380,3376,3206,3277,2925,3282,3306,3029,0.010014246,1.340045988,1.341908964,0.453785598278,4500.0,0.471868664026,0.0343730412424,0.0180830508471,-81.3737258911,0.0,6000.0,-0.00675297155976,0.00211264984682,-0.00675297155976,39.830909729,0.349065840244,0.0265011657029,-0.00619202712551,0.308830559254,-0.00668849237263,-0.00668849237263,0.00238686893135,0.00848703831434,112.063079834,112.063079834,1.63331699371,6.9628572464,2030,2036,2547,2044,2044,2937,3440,3435,3251,3357,3084,3056,3158,3151,3240,2858,3409,3415,3250,3363,3133,3351,3383,3187
1508401108225304192,135,1508401108224927116,plot_matl,-0.300000011921,-5000.0,-0.309069395065,-0.00120923691429,-0.00906940270215,-45.652381897,0.349065840244,0.12145332247,-0.00674805883318,-0.309042483568,0.0035511367023,0.0035511367023,0.00204362627119,-0.00176425138488,24.8188209534,24.8188209534,-12.1960992813,7.88369131088,2027,2055,2103,2021,2021,2731,3344,3365,3169,3309,3028,2985,3071,3092,3175,2916,3387,3380,3212,3277,2925,3282,3306,3029,0.010002004,1.350048468,1.35027054,0.453785598278,4500.0,0.470519185066,0.00686094351113,0.0167335700244,-75.3010635376,0.0,6000.0,-0.00675898464397,0.00225669704378,-0.00675898464397,39.8378715515,0.349065840244,0.0265011657029,-0.00619202712551,0.308830559254,-0.00668849237263,-0.00668849237263,0.00238686893135,0.00848703831434,112.063079834,112.063079834,1.63331699371,6.9628572464,2032,2027,2547,2044,2044,2937,3440,3435,3251,3370,3091,3064,3166,3156,3246,2864,3416,3422,3253,3363,3133,3351,3383,3187
1508401108235317447,136,1508401108234923437,plot_matl,-0.300000011921,-5000.0,-0.309074282646,-0.00110971787944,-0.00907426886261,-45.6391677856,0.349065840244,0.12010384351,-0.0067591490224,-0.309076279402,-0.0103185689077,-0.0103185689077,0.00225822464563,-0.0010725625325,25.0303726196,25.0303726196,-11.9087295532,7.72292232513,2027,2046,2103,2019,2019,2734,3331,3365,3169,3309,3028,2985,3071,3092,3175,2916,3387,3380,3212,3281,2928,3284,3311,3030,0.009996385,1.360045009,1.35950836,0.453785598278,4500.0,0.470519185066,0.00612078700215,0.0167335700244,-75.3010635376,0.0,6000.0,-0.00677452096716,0.00258029135875,-0.00677452096716,39.8718910217,0.349065840244,0.0240919683129,-0.00619896035641,0.308577120304,-0.0328479968011,-0.0328479968011,0.00252218288369,0.0137836029753,111.855659485,111.855659485,1.06820333004,7.55161094666,2032,2020,2547,2042,2042,2940,3427,3435,3251,3370,3091,3064,3166,3156,3246,2864,3416,3422,3253,3368,3138,3357,3385,3188
1508401108245364560,137,1508401108244903280,plot_matl,-0.300000011921,-5000.0,-0.309079229832,-0.00101171596907,-0.00907923281193,-45.6420135498,0.349065840244,0.12010384351,-0.0067591490224,-0.309076279402,-0.0103185689077,-0.0103185689077,0.00225822464563,-0.0010725625325,25.0303726196,25.0303726196,-11.9087295532,7.72292232513,2029,2040,2103,2019,2019,2734,3331,3351,3159,3301,3021,2979,3065,3087,3170,2912,3381,3380,3212,3281,2928,3284,3311,3030,0.009979613,1.370024712,1.367206981,0.453785598278,4500.0,0.469169706106,-0.0211788695306,0.015384087339,-69.2283935547,0.0,6000.0,-0.0067870807834,-0.0105767985806,-0.0067870807834,43.8608818054,0.349065840244,0.0240919683129,-0.00619896035641,0.308577120304,-0.0328479968011,-0.0328479968011,0.00252218288369,0.0137836029753,111.855659485,111.855659485,1.06820333004,7.55161094666,2030,2023,2547,2042,2042,2940,3427,3425,3242,3363,3084,3056,3161,3151,3243,2861,3411,3422,3253,3368,3138,3357,3385,3188
1508401108255365226,138,1508401108254902191,plot_matl,-0.300000011921,-5000.0,-0.309083074331,-0.000935707357712,-0.00908306613564,-45.6531257629,0.349065840244,0.12010384351,-0.0067591490224,-0.309076279402,-0.0103185689077,-0.0103185689077,0.00225822464563,-0.0010725625325,25.0303726196,25.0303726196,-11.9087295532,7.72292232513,2023,2058,2103,2018,2018,2734,3331,3351,3159,3301,3021,2979,3065,3087,3170,2912,3381,3376,3209,3279,2925,3281,3307,3029,0.009999557,1.380023944,1.379938866,0.453785598278,4500.0,0.469169706106,-0.0208169799298,0.015384087339,-69.2283935547,0.0,6000.0,-0.00681002484635,0.00331407669,-0.00681002484635,39.8205909729,0.349065840244,0.0240919683129,-0.00619896035641,0.308577120304,-0.0328479968011,-0.0328479968011,0.00252218288369,0.0137836029753,111.855659485,111.855659485,1.06820333004,7.55161094666,2027,2028,2547,2043,2043,2940,3427,3425,3242,3363,3084,3056,3161,3151,3243,2861,3411,3417,3250,3366,3135,3352,3383,3186
1508401108265326166,139,1508401108264954669,plot_matl,-0.300000011921,-5000.0,-0.309080958366,-0.000979033182375,-0.00908094923943,-45.6502990723,0.349065840244,0.12010384351,-0.0067591490224,-0.309076279402,-0.0103185689077,-0.0103185689077,0.00225822464563,-0.0010725625325,25.0303726196,25.0303726196,-11.9087295532,7.72292232513,2021,2065,2103,2018,2018,2732,3330,3350,3158,3296,3017,2978,3064,3085,3170,2912,3381,3376,3209,3279,2925,3281,3307,3029,0.010051436,1.390076592,1.397149604,0.453785598278,4500.0,0.470519185066,0.00617160415277,0.0167335700244,-75.3010635376,0.0,6000.0,-0.00680564157665,0.00322660407983,-0.00680564157665,39.8335990906,0.349065840244,0.0240919683129,-0.00619896035641,0.308577120304,-0.0328479968011,-0.0328479968011,0.00252218288369,0.0137836029753,111.855659485,111.855659485,1.06820333004,7.55161094666,2020,2028,2547,2043,2043,2939,3425,3423,3241,3360,3083,3058,3160,3149,3239,2861,3411,3417,3250,3366,3135,3352,3383,3186
1508401108275275395,140,1508401108274896010,plot_matl,-0.300000011921,-5000.0,-0.309095263481,-0.000693140900694,-0.00909525994211,-45.6486701965,0.349065840244,0.12010384351,-0.00678749941289,-0.309092342854,-0.0103519624099,-0.0103519624099,0.00286299455911,-0.000751005893108,24.7063846588,24.7063846588,-11.9101428986,7.81691408157,2015,2067,2103,2018,2018,2732,3330,3350,3158,3296,3017,2978,3064,3085,3170,2909,3379,3375,3209,3277,2924,3282,3307,3027,0.009939622,1.400017086,1.39154708,0.453785598278,4500.0,0.470519185066,0.00604155054316,0.0167335700244,-75.3010635376,0.0,6000.0,-0.00677649350837,0.00264240079559,-0.00677649350837,39.8494377136,0.349065840244,0.0265011657029,-0.00619892776012,0.308570146561,-0.00705610960722,-0.00705610960722,0.00247437739745,0.0137737542391,111.735404968,111.735404968,0.802273213863,7.44588041306,2021,2026,2548,2043,2043,2939,3425,3423,3241,3360,3083,3058,3160,3149,3239,2859,3409,3417,3250,3366,3136,3352,3384,3187
1508401108285436975,141,1508401108284945010,plot_matl,-0.300000011921,-5000.0,-0.309091001749,-0.000788264442235,-0.00909101683646,-45.657951355,0.349065840244,0.12010384351,-0.00678749941289,-0.309092342854,-0.0103519624099,-0.0103519624099,0.00286299455911,-0.000751005893108,24.7063846588,24.7063846588,-11.9101428986,7.81691408157,2011,2057,2103,2021,2021,2732,3328,3350,3159,3298,3018,2977,3062,3085,3170,2909,3379,3375,3209,3277,2924,3282,3307,3027,0.010050237,1.410067123,1.417083417,0.453785598278,4500.0,0.470519185066,0.00445880694315,0.0167335700244,-75.3010635376,0.0,6000.0,-0.00677973777056,-0.0107143400237,-0.00677973777056,44.0913238525,0.349065840244,0.0265011657029,-0.00619892776012,0.308570146561,-0.00705610960722,-0.00705610960722,0.00247437739745,0.0137737542391,111.735404968,111.735404968,0.802273213863,7.44588041306,2018,2023,2548,2042,2042,2939,3426,3423,3241,3358,3084,3057,3160,3149,3239,2859,3409,3417,3250,3366,3136,3352,3384,3187
1508401108295477711,142,1508401108294925169,plot_matl,-0.300000011921,-5000.0,-0.309098124504,-0.000645570398774,-0.00909813679755,-45.6418151855,0.349065840244,0.12010384351,-0.00678749941289,-0.309092342854,-0.0103519624099,-0.0103519624099,0.00286299455911,-0.000751005893108,24.7063846588,24.7063846588,-11.9101428986,7.81691408157,2019,2048,2103,2021,2021,2732,3328,3350,3159,3298,3018,2977,3062,3086,3171,2911,3380,3375,3208,3277,2926,3280,3306,3027,0.009980244,1.420047031,1.417194648,0.453785598278,4500.0,0.469169706106,-0.0230783913285,0.015384087339,-69.2283935547,0.0,6000.0,-0.00676788296551,0.00245043565519,-0.00676788296551,39.8846282959,0.349065840244,0.0265011657029,-0.00619892776012,0.308570146561,-0.00705610960722,-0.00705610960722,0.00247437739745,0.0137737542391,111.735404968,111.735404968,0.802273213863,7.44588041306,2024,2022,2548,2042,2042,2939,3426,3423,3241,3358,3084,3057,3160,3151,3241,2858,3410,3415,3250,3364,3134,3350,3383,3187
1508401108305434021,143,1508401108304938954,plot_matl,-0.300000011921,-5000.0,-0.309098660946,-0.000632735376712,-0.00909866020083,-45.6475639343,0.349065840244,0.12010384351,-0.00678749941289,-0.309092342854,-0.0103519624099,-0.0103519624099,0.00286299455911,-0.000751005893108,24.7063846588,24.7063846588,-11.9101428986,7.81691408157,2022,2053,2103,2020,2020,2731,3327,3348,3159,3298,3019,2977,3062,3086,3171,2911,3380,3375,3208,3277,2926,3280,3306,3031,0.01001357,1.430060872,1.43194051,0.453785598278,4500.0,0.469169706106,-0.0218712184578,0.015384087339,-69.2283935547,0.0,6000.0,-0.00675749173388,0.00224614306353,-0.00675749173388,39.8583602905,0.349065840244,0.0265011657029,-0.00619892776012,0.308570146561,-0.00705610960722,-0.00705610960722,0.00247437739745,0.0137737542391,111.735404968,111.735404968,0.802273213863,7.44588041306,2032,2025,2548,2043,2043,2938,3425,3422,3240,3359,3083,3057,3160,3151,3241,2858,3410,3415,3250,3364,3134,3350,3383,3185
1508401108315436776,144,1508401108314940326,plot_matl,-0.300000011921,-5000.0,-0.309098392725,-0.000635516596958,-0.00909838918597,-45.6442451477,0.349065840244,0.122802808881,-0.00675785308704,-0.309102267027,0.0160134993494,0.0160134993494,0.00224188808352,-0.000560647866223,24.8585109711,24.8585109711,-11.9339904785,7.65832662582,2014,2052,2103,2020,2020,2731,3327,3348,3159,3298,3019,2978,3063,3085,3170,2912,3381,3375,3209,3277,2925,3280,3306,3031,0.01000047,1.440061933,1.44006768,0.453785598278,4500.0,0.470519185066,0.00492872484028,0.0167335700244,-75.3010635376,0.0,6000.0,-0.00674913125113,0.00206915056333,-0.00674913125113,39.8724861145,0.349065840244,0.0289103612304,-0.0061633689329,0.308634579182,0.0163991916925,0.0163991916925,0.00175672711339,0.0124494601041,111.976768494,111.976768494,0.870335996151,6.72498416901,2025,2027,2548,2043,2043,2938,3425,3422,3240,3359,3083,3054,3160,3149,3240,2858,3410,3415,3250,3365,3135,3350,3383,3185
1508401108325418239,145,1508401108324961929,plot_matl,-0.300000011921,-5000.0,-0.309098780155,-0.000626685563475,-0.00909876637161,-45.6534423828,0.349065840244,0.122802808881,-0.00675785308704,-0.309102267027,0.0160134993494,0.0160134993494,0.00224188808352,-0.000560647866223,24.8585109711,24.8585109711,-11.9339904785,7.65832662582,2016,2061,2103,2018,2018,2731,3329,3351,3155,3298,3019,2978,3063,3085,3170,2912,3381,3375,3209,3277,2925,3280,3306,3030,0.010021458,1.450083797,1.45311141,0.453785598278,4500.0,0.470519185066,0.00453662360087,0.0167335700244,-75.3010635376,0.0,6000.0,-0.00674287974834,0.00193976587616,-0.00674287974834,39.8367958069,0.349065840244,0.0289103612304,-0.0061633689329,0.308634579182,0.0163991916925,0.0163991916925,0.00175672711339,0.0124494601041,111.976768494,111.976768494,0.870335996151,6.72498416901,2021,2025,2548,2047,2047,2939,3427,3422,3242,3359,3083,3054,3160,3149,3240,2858,3410,3415,3250,3365,3135,3352,3384,3186
1508401108335092517,146,1508401108334893242,plot_matl,-0.300000011921,-5000.0,-0.309078514576,-0.00104148301762,-0.00907850731164,-45.6423568726,0.349065840244,0.122802808881,-0.00675785308704,-0.309102267027,0.0160134993494,0.0160134993494,0.00224188808352,-0.000560647866223,24.8585109711,24.8585109711,-11.9339904785,7.65832662582,2021,2061,2103,2018,2018,2731,3329,3351,3155,3299,3018,2977,3063,3087,3169,2912,3379,3377,3207,3277,2925,3280,3306,3030,0.009928717,1.460014373,1.449592682,0.453785598278,4500.0,0.470519185066,0.00371344177984,0.0167335700244,-75.3010635376,0.0,6000.0,-0.00678575783968,0.00279095582664,-0.00678575783968,39.864616394,0.349065840244,0.0289103612304,-0.0061633689329,0.308634579182,0.0163991916925,0.0163991916925,0.00175672711339,0.0124494601041,111.976768494,111.976768494,0.870335996151,6.72498416901,2026,2034,2548,2047,2047,2939,3427,3422,3242,3359,3084,3056,3161,3150,3240,2858,3411,3414,3249,3365,3135,3352,3384,3186
1508401108345293792,147,1508401108344922106,plot_matl,-0.300000011921,-5000.0,-0.309077709913,-0.0010616161162,-0.00907771289349,-45.6296234131,0.349065840244,0.122802808881,-0.00675785308704,-0.309102267027,0.0160134993494,0.0160134993494,0.00224188808352,-0.000560647866223,24.8585109711,24.8585109711,-11.9339904785,7.65832662582,2013,2065,2104,2018,2018,2732,3328,3351,3155,3299,3018,2977,3063,3087,3169,2912,3379,3377,3207,3276,2924,3281,3307,3030,0.010028554,1.470043373,1.474197438,0.453785598278,4500.0,0.470519185066,0.00308877928182,0.0167335700244,-75.3010635376,0.0,6000.0,-0.00677203107625,0.00251894374378,-0.00677203107625,39.9030227661,0.349065840244,0.0289103612304,-0.0061633689329,0.308634579182,0.0163991916925,0.0163991916925,0.00175672711339,0.0124494601041,111.976768494,111.976768494,0.870335996151,6.72498416901,2023,2035,2549,2042,2042,2938,3426,3422,3242,3359,3084,3056,3161,3150,3240,2858,3411,3414,3249,3365,3134,3352,3383,3184
1508401108355015083,148,1508401108354886379,plot_matl,-0.300000011921,-5000.0,-0.309077739716,-0.00106902362313,-0.00907774176449,-45.6460876465,0.349065840244,0.12010384351,-0.00675773853436,-0.309073358774,-0.0119898021221,-0.0119898021221,0.00223629642278,-0.00115813000593,25.0617046356,25.0617046356,-12.2375001907,7.99963665009,2033,2063,2104,2018,2018,2732,3328,3348,3158,3297,3019,2978,3063,3086,3170,2911,3381,3377,3207,3276,2924,3281,3307,3030,0.009962183,1.480006789,1.474403084,0.453785598278,4500.0,0.473218142986,0.0569753497839,0.0194325316697,-87.446395874,0.0,6000.0,-0.00674903765321,0.0020642359741,-0.00674903765321,39.8558807373,0.349065840244,0.0265011657029,-0.00620829546824,0.308287769556,-0.00702385045588,-0.00702385045588,0.00263729831204,-0.042502310127,112.010070801,112.010070801,0.794536650181,6.66914510727,2029,2024,2549,2042,2042,2938,3426,3423,3243,3359,3083,3055,3158,3152,3241,2859,3410,3414,3249,3365,3134,3352,3383,3184
1508401108365274809,149,1508401108364929371,plot_matl,-0.300000011921,-5000.0,-0.309076309204,-0.00109742884524,-0.00907632056624,-45.656539917,0.349065840244,0.12010384351,-0.00675773853436,-0.309073358774,-0.0119898021221,-0.0119898021221,0.00223629642278,-0.00115813000593,25.0617046356,25.0617046356,-12.2375001907,7.99963665009,2024,2052,2103,2017,2017,2732,3328,3348,3158,3297,3019,2978,3063,3086,3170,2911,3381,3373,3209,3275,2926,3282,3307,3028,0.01004471,1.490050712,1.49666179,0.453785598278,4500.0,0.469169706106,-0.0246962253004,0.015384087339,-69.2283935547,0.0,6000.0,-0.00676575303078,0.00241079204716,-0.00676575303078,39.8242416382,0.349065840244,0.0265011657029,-0.00620829546824,0.308287769556,-0.00702385045588,-0.00702385045588,0.00263729831204,-0.042502310127,112.010070801,112.010070801,0.794536650181,6.66914510727,2023,2016,2547,2044,2044,2938,3426,3423,3243,3359,3083,3055,3158,3152,3241,2859,3410,3415,3250,3364,3134,3351,3383,3185
1508401108375440373,150,1508401108374950738,plot_matl,-0.300000011921,-5000.0,-0.309075385332,-0.00111194024794,-0.00907537993044,-45.6439743042,0.349065840244,0.12010384351,-0.00675773853436,-0.309073358774,-0.0119898021221,-0.0119898021221,0.00223629642278,-0.00115813000593,25.0617046356,25.0617046356,-12.2375001907,7.99963665009,2028,2056,2103,2017,2017,2732,3330,3347,3157,3297,3018,2978,3062,3086,3171,2911,3381,3373,3209,3275,2926,3282,3307,3028,0.010022846,1.500072601,1.5034269,0.453785598278,4500.0,0.469169706106,-0.0237305946648,0.015384087339,-69.2283935547,0.0,6000.0,-0.00678976764902,0.00291588506661,-0.00678976764902,39.8573188782,0.349065840244,0.0265011657029,-0.00620829546824,0.308287769556,-0.00702385045588,-0.00702385045588,0.00263729831204,-0.042502310127,112.010070801,112.010070801,0.794536650181,6.66914510727,2023,2017,2547,2044,2044,2939,3426,3423,3241,3359,3082,3054,3159,3151,3241,2859,3410,3415,3250,3364,3134,3351,3383,3185
1508401108385342380,151,1508401108384901551,plot_matl,-0.300000011921,-5000.0,-0.309075176716,-0.00112307234667,-0.00907516479492,-45.6349906921,0.349065840244,0.12010384351,-0.00675773853436,-0.309073358774,-0.0119898021221,-0.0119898021221,0.00223629642278,-0.00115813000593,25.0617046356,25.0617046356,-12.2375001907,7.99963665009,2026,2056,2103,2017,2017,2732,3330,3347,3157,3297,3018,2978,3062,3086,3171,2911,3382,3373,3208,3276,2924,3282,3307,3030,0.009948557,1.510023027,1.502232107,0.453785598278,4500.0,0.469169706106,-0.0247744210064,0.015384087339,-69.2283935547,0.0,6000.0,-0.00679918751121,0.00310415169224,-0.00679918751121,39.8879699707,0.349065840244,0.0265011657029,-0.00620829546824,0.308287769556,-0.00702385045588,-0.00702385045588,0.00263729831204,-0.042502310127,112.010070801,112.010070801,0.794536650181,6.66914510727,2021,2017,2547,2044,2044,2939,3426,3423,3241,3359,3082,3054,3159,3151,3241,2860,3411,3414,3250,3366,3133,3352,3384,3187
1508401108395371685,152,1508401108394916027,plot_matl,-0.300000011921,-5000.0,-0.309073895216,-0.00114830152597,-0.00907390844077,-45.6481819153,0.349065840244,0.12010384351,-0.00679570948705,-0.309081494808,-0.0117371156812,-0.0117371156812,-0.0103979893029,-0.000994423404336,24.8205318451,24.8205318451,-12.2471179962,7.84075927734,1996,2040,2103,2017,2017,2731,3327,3345,3157,3298,3019,2976,3065,3086,3171,2911,3382,3373,3208,3276,2924,3282,3307,3030,0.010015339,1.520037729,1.522331528,0.453785598278,4500.0,0.471868664026,0.0291876476258,0.0180830508471,-81.3737258911,0.0,6000.0,-0.00682269502431,-0.00985160470009,-0.00682269502431,43.9378471375,0.349065840244,0.0265011657029,-0.00617540813982,0.308311402798,-0.00558706698939,-0.00558706698939,0.0019527458353,0.0193516816944,111.830741882,111.830741882,0.820576965809,6.98053073883,2018,2019,2547,2044,2044,2939,3423,3424,3241,3357,3084,3057,3159,3151,3241,2860,3411,3414,3250,3366,3133,3352,3384,3187
1508401108405271948,153,1508401108404907813,plot_matl,-0.300000011921,-5000.0,-0.309073835611,-0.00115038221702,-0.00907384417951,-45.6359710693,0.349065840244,0.12010384351,-0.00679570948705,-0.309081494808,-0.0117371156812,-0.0117371156812,-0.0103979893029,-0.000994423404336,24.8205318451,24.8205318451,-12.2471179962,7.84075927734,2018,2056,2103,2017,2017,2731,3327,3345,3157,3298,3019,2976,3065,3087,3169,2910,3381,3375,3206,3277,2926,3281,3307,3030,0.009990899,1.530029369,1.528607547,0.453785598278,4500.0,0.470519185066,0.00254346732982,0.0167335700244,-75.3010635376,0.0,6000.0,-0.00682500796393,0.00362429651432,-0.00682500796393,39.8857955933,0.349065840244,0.0265011657029,-0.00617540813982,0.308311402798,-0.00558706698939,-0.00558706698939,0.0019527458353,0.0193516816944,111.830741882,111.830741882,0.820576965809,6.98053073883,2021,2026,2547,2044,2044,2939,3423,3424,3241,3357,3084,3057,3159,3150,3239,2859,3409,3415,3250,3363,3134,3352,3384,3187
1508401108415342126,154,1508401108414901327,plot_matl,-0.300000011921,-5000.0,-0.309062898159,-0.00136722240131,-0.00906289741397,-45.6454353333,0.349065840244,0.12010384351,-0.00679570948705,-0.309081494808,-0.0117371156812,-0.0117371156812,-0.0103979893029,-0.000994423404336,24.8205318451,24.8205318451,-12.2471179962,7.84075927734,2023,2068,2103,2014,2014,2733,3328,3349,3157,3299,3018,2976,3065,3087,3169,2910,3381,3375,3206,3277,2926,3281,3307,3029,0.009993013,1.540023069,1.538924002,0.453785598278,4500.0,0.469169706106,-0.0241741593927,0.015384087339,-69.2283935547,0.0,6000.0,-0.00683940993622,0.00390023249201,-0.00683940993622,39.8420372009,0.349065840244,0.0265011657029,-0.00617540813982,0.308311402798,-0.00558706698939,-0.00558706698939,0.0019527458353,0.0193516816944,111.830741882,111.830741882,0.820576965809,6.98053073883,2020,2027,2547,2045,2045,2939,3425,3425,3242,3361,3084,3057,3159,3150,3239,2859,3409,3415,3250,3363,3134,3352,3384,3187
1508401108425276341,155,1508401108424902353,plot_matl,-0.300000011921,-5000.0,-0.309058338404,0.00452300114557,-0.00905832462013,-44.2393341064,0.349065840244,0.12010384351,-0.00679570948705,-0.309081494808,-0.0117371156812,-0.0117371156812,-0.0103979893029,-0.000994423404336,24.8205318451,24.8205318451,-12.2471179962,7.84075927734,2011,2050,2103,2014,2014,2733,3328,3349,3157,3299,3018,2979,3061,3084,3170,2909,3378,3374,3207,3277,2927,3281,3307,3029,0.01000028,1.55002389,1.5500434,0.453785598278,4500.0,0.470519185066,0.00246898154728,0.0167335700244,-75.3010635376,0.0,6000.0,-0.00685293180868,-0.00923172105104,-0.00685293180868,43.7988777161,0.349065840244,0.0265011657029,-0.00617540813982,0.308311402798,-0.00558706698939,-0.00558706698939,0.0019527458353,0.0193516816944,111.830741882,111.830741882,0.820576965809,6.98053073883,2032,2028,2547,2045,2045,2939,3425,3425,3242,3361,3084,3056,3160,3149,3241,2858,3410,3416,3250,3365,3133,3352,3384,3187
1508401108435280003,156,1508401108434915948,plot_matl,-0.300000011921,-5000.0,-0.309065580368,0.00467174546793,-0.00906559545547,-44.2258605957,0.349065840244,0.12010384351,-0.0068410015665,-0.309066444635,-0.0117390574887,-0.0117390574887,0.00396803813055,-0.0012855050154,24.688741684,24.688741684,-12.1105947495,7.84865093231,2029,2064,2103,2016,2016,2730,3327,3348,3158,3299,3018,2979,3061,3084,3170,2909,3378,3374,3207,3277,2927,3282,3308,3029,0.010012843,1.560037249,1.562003508,0.453785598278,4500.0,0.470519185066,0.00296607380733,0.0167335700244,-75.3010635376,0.0,6000.0,-0.00686479266733,-0.00897987280041,-0.00686479266733,43.8379211426,0.349065840244,0.0289103612304,-0.00615631649271,0.308368384838,0.0177159998566,0.0177159998566,0.0016078252811,0.0182606726885,111.647514343,111.647514343,0.960127055645,6.84717273712,2037,2028,2549,2045,2045,2938,3426,3422,3241,3361,3084,3056,3160,3149,3241,2858,3410,3416,3250,3365,3133,3353,3384,3186
1508401108445392216,157,1508401108444908164,plot_matl,-0.300000011921,-5000.0,-0.309060543776,0.00457513285801,-0.00906055234373,-44.1005744934,0.349065840244,0.12010384351,-0.0068410015665,-0.309066444635,-0.0117390574887,-0.0117390574887,0.00396803813055,-0.0012855050154,24.688741684,24.688741684,-12.1105947495,7.84865093231,2041,2057,2103,2016,2016,2730,3327,3348,3158,3299,3019,2977,3064,3086,3169,2911,3380,3376,3208,3277,2927,3282,3308,3029,0.009993439,1.570029846,1.568969923,0.453785598278,4500.0,0.470519185066,0.00234792684205,0.0167335700244,-75.3010635376,0.0,6000.0,-0.00686316890642,-0.00900855381042,-0.00686316890642,44.1439933777,0.349065840244,0.0289103612304,-0.00615631649271,0.308368384838,0.0177159998566,0.0177159998566,0.0016078252811,0.0182606726885,111.647514343,111.647514343,0.960127055645,6.84717273712,2032,2025,2549,2045,2045,2938,3426,3422,3241,3360,3084,3056,3158,3151,3241,2859,3409,3416,3250,3365,3133,3353,3384,3186
1508401108455328210,158,1508401108454955555,plot_matl,-0.300000011921,-5000.0,-0.309062123299,0.0046027074568,-0.00906212627888,-44.2072639465,0.349065840244,0.12010384351,-0.0068410015665,-0.309066444635,-0.0117390574887,-0.0117390574887,0.00396803813055,-0.0012855050154,24.688741684,24.688741684,-12.1105947495,7.84865093231,2014,2043,2104,2018,2018,2731,3329,3348,3158,3299,3019,2977,3064,3086,3169,2911,3380,3376,3208,3277,2924,3283,3307,3028,0.010045517,1.580076861,1.587191686,0.453785598278,4500.0,0.469169706106,-0.0253269821405,0.015384087339,-69.2283935547,0.0,6000.0,-0.00684530613944,0.00405864976346,-0.00684530613944,39.8558959961,0.349065840244,0.0289103612304,-0.00615631649271,0.308368384838,0.0177159998566,0.0177159998566,0.0016078252811,0.0182606726885,111.647514343,111.647514343,0.960127055645,6.84717273712,2021,2019,2548,2045,2045,2938,3425,3422,3241,3360,3084,3056,3158,3151,3241,2859,3409,3416,3250,3367,3135,3353,3382,3185
1508401108465394093,159,1508401108464924529,plot_matl,-0.300000011921,-5000.0,-0.30904725194,0.00429976172745,-0.0090472586453,-44.2141914368,0.349065840244,0.12010384351,-0.0068410015665,-0.309066444635,-0.0117390574887,-0.0117390574887,0.00396803813055,-0.0012855050154,24.688741684,24.688741684,-12.1105947495,7.84865093231,2034,2054,2104,2018,2018,2731,3329,3346,3156,3299,3016,2977,3061,3085,3172,2912,3381,3376,3208,3277,2924,3283,3307,3028,0.009968608,1.59004589,1.585008672,0.453785598278,4500.0,0.471868664026,0.0287775695324,0.0180830508471,-81.3737258911,0.0,6000.0,-0.00686752330512,0.00452153803781,-0.00686752330512,39.8665962219,0.349065840244,0.0289103612304,-0.00615631649271,0.308368384838,0.0177159998566,0.0177159998566,0.0016078252811,0.0182606726885,111.647514343,111.647514343,0.960127055645,6.84717273712,2032,2026,2548,2045,2045,2938,3425,3422,3241,3361,3082,3056,3161,3150,3241,2859,3408,3416,3250,3367,3135,3353,3382,3185
1508401108475291629,160,1508401108474960925,plot_matl,-0.300000011921,-5000.0,-0.309045851231,-0.00169949117117,-0.00904585886747,-45.6306228638,0.349065840244,0.12145332247,-0.00685351947322,-0.30904507637,0.000679696968291,0.000679696968291,0.0042401808314,0.00425917329267,24.7194538116,24.7194538116,-12.2417545319,7.9046421051,2026,2056,2103,2013,2013,2731,3329,3346,3156,3299,3016,2977,3061,3085,3172,2912,3381,3376,3209,3278,2923,3283,3308,3030,0.010036386,1.600082377,1.60582176,0.453785598278,4500.0,0.470519185066,0.00123419507872,0.0167335700244,-75.3010635376,0.0,6000.0,-0.0068374844268,0.00391465099528,-0.0068374844268,39.8800010681,0.349065840244,0.0265011657029,-0.00617167027667,0.30880266428,-0.00625202385709,-0.00625202385709,0.00189087097533,0.00928964745253,111.675018311,111.675018311,1.09068715572,7.1163687706,2021,2016,2548,2043,2043,2938,3425,3422,3241,3361,3082,3056,3161,3150,3241,2859,3408,3417,3250,3364,3135,3352,3383,3185
1508401108485106242,161,1508401108484894522,plot_matl,-0.300000011921,-5000.0,-0.309028148651,0.0039284043014,-0.00902813766152,-44.170665741,0.349065840244,0.12145332247,-0.00685351947322,-0.30904507637,0.000679696968291,0.000679696968291,0.0042401808314,0.00425917329267,24.7194538116,24.7194538116,-12.2417545319,7.9046421051,2010,2046,2103,2013,2013,2730,3329,3350,3157,3297,3019,2978,3063,3084,3169,2912,3381,3376,3209,3278,2923,3283,3308,3030,0.009932031,1.610015356,1.599056991,0.453785598278,4500.0,0.470519185066,0.00248305522837,0.0167335700244,-75.3010635376,0.0,6000.0,-0.00683722086251,0.00391184724867,-0.00683722086251,39.8173027039,0.349065840244,0.0265011657029,-0.00617167027667,0.30880266428,-0.00625202385709,-0.00625202385709,0.00189087097533,0.00928964745253,111.675018311,111.675018311,1.09068715572,7.1163687706,2018,2022,2548,2043,2043,2937,3426,3422,3240,3359,3083,3056,3160,3148,3239,2859,3408,3417,3250,3364,3135,3352,3383,3185
1508401108495000143,162,1508401108494880573,plot_matl,-0.300000011921,-5000.0,-0.309036433697,-0.00187614024617,-0.00903641991317,-45.632976532,0.349065840244,0.12145332247,-0.00685351947322,-0.30904507637,0.000679696968291,0.000679696968291,0.0042401808314,0.00425917329267,24.7194538116,24.7194538116,-12.2417545319,7.9046421051,2026,2059,2103,2013,2013,2730,3329,3350,3157,3297,3019,2978,3063,3084,3169,2912,3381,3373,3207,3277,2923,3283,3309,3029,0.009984583,1.620000832,1.617502446,0.453785598278,4500.0,0.470519185066,0.00194214249495,0.0167335700244,-75.3010635376,0.0,6000.0,-0.00681553222239,0.00346432905644,-0.00681553222239,39.8679046631,0.349065840244,0.0265011657029,-0.00617167027667,0.30880266428,-0.00625202385709,-0.00625202385709,0.00189087097533,0.00928964745253,111.675018311,111.675018311,1.09068715572,7.1163687706,2028,2022,2548,2043,2043,2937,3426,3422,3240,3359,3083,3056,3160,3148,3239,2860,3409,3417,3249,3367,3133,3354,3383,3184
1508401108505283503,163,1508401108504932252,plot_matl,-0.300000011921,-5000.0,-0.30903339386,0.00405617943034,-0.00903340149671,-44.2117156982,0.349065840244,0.12145332247,-0.00685351947322,-0.30904507637,0.000679696968291,0.000679696968291,0.0042401808314,0.00425917329267,24.7194538116,24.7194538116,-12.2417545319,7.9046421051,2013,2055,2103,2015,2015,2730,3330,3349,3157,3300,3018,2978,3063,3084,3169,2912,3381,3373,3207,3277,2923,3283,3309,3029,0.010054217,1.630054089,1.638837371,0.453785598278,4500.0,0.469169706106,-0.025799324736,0.015384087339,-69.2283935547,0.0,6000.0,-0.00679333461449,0.00300758192316,-0.00679333461449,39.8672561646,0.349065840244,0.0265011657029,-0.00617167027667,0.30880266428,-0.00625202385709,-0.00625202385709,0.00189087097533,0.00928964745253,111.675018311,111.675018311,1.09068715572,7.1163687706,2015,2018,2548,2041,2041,2939,3424,3424,3240,3357,3084,3057,3159,3148,3239,2860,3409,3417,3249,3367,3133,3354,3383,3184
1508401108515249445,164,1508401108514934571,plot_matl,-0.300000011921,-5000.0,-0.309040486813,-0.00179023004603,-0.00904049444944,-45.6231994629,0.349065840244,0.12145332247,-0.00679327268153,-0.309045881033,0.000778090034146,0.000778090034146,0.0030076126568,-0.00169948546682,24.5958766937,24.5958766937,-12.4056978226,8.13571834564,2051,2059,2103,2015,2015,2730,3330,3349,3157,3300,3018,2978,3063,3099,3183,2920,3389,3385,3216,3285,2930,3287,3313,3029,0.010001161,1.640055847,1.640190404,0.453785598278,4500.0,0.469169706106,-0.0255440827459,0.015384087339,-69.2283935547,0.0,6000.0,-0.00682537909597,0.00367372250184,-0.00682537909597,39.89453125,0.349065840244,0.0265011657029,-0.00614622188732,0.308769226074,-0.00592260016128,-0.00592260016128,0.0013777614804,0.00991963129491,111.802841187,111.802841187,1.38887059689,7.34016990662,2041,2026,2548,2041,2041,2939,3424,3424,3240,3357,3084,3057,3159,3164,3253,2869,3419,3424,3257,3372,3141,3357,3388,3184
1508401108525235803,165,1508401108524933893,plot_matl,-0.300000011921,-5000.0,-0.309046000242,0.00428940169513,-0.00904601160437,-44.2605819702,0.349065840244,0.12145332247,-0.00679327268153,-0.309045881033,0.000778090034146,0.000778090034146,0.0030076126568,-0.00169948546682,24.5958766937,24.5958766937,-12.4056978226,8.13571834564,2043,2060,2103,2015,2015,2735,3332,3353,3160,3303,3021,2978,3063,3099,3183,2920,3389,3385,3216,3285,2930,3287,3313,3035,0.009999032,1.65005524,1.64984028,0.453785598278,4500.0,0.471868664026,0.0287046339363,0.0180830508471,-81.3737258911,0.0,6000.0,-0.00681531475857,0.00346378586255,-0.00681531475857,39.9139518738,0.349065840244,0.0265011657029,-0.00614622188732,0.308769226074,-0.00592260016128,-0.00592260016128,0.0013777614804,0.00991963129491,111.802841187,111.802841187,1.38887059689,7.34016990662,2032,2019,2548,2041,2041,2942,3427,3426,3243,3362,3084,3057,3159,3164,3253,2869,3419,3424,3257,3372,3141,3357,3388,3191
1508401108535206570,166,1508401108534906996,plot_matl,-0.300000011921,-5000.0,-0.309051334858,-0.00159062060993,-0.00905133411288,-45.6282119751,0.349065840244,0.12145332247,-0.00679327268153,-0.309045881033,0.000778090034146,0.000778090034146,0.0030076126568,-0.00169948546682,24.5958766937,24.5958766937,-12.4056978226,8.13571834564,2022,2042,2103,2015,2015,2735,3332,3353,3160,3303,3021,2981,3064,3089,3170,2912,3382,3376,3208,3279,2924,3287,3313,3035,0.009972963,1.660028578,1.655511858,0.453785598278,4500.0,0.470519185066,-0.00037973059807,0.0167335700244,-75.3010635376,0.0,6000.0,-0.00680797966197,0.00329592847265,-0.00680797966197,39.8879203796,0.349065840244,0.0265011657029,-0.00614622188732,0.308769226074,-0.00592260016128,-0.00592260016128,0.0013777614804,0.00991963129491,111.802841187,111.802841187,1.38887059689,7.34016990662,2029,2018,2548,2041,2041,2942,3427,3426,3243,3362,3084,3060,3161,3151,3241,2860,3413,3416,3250,3367,3137,3357,3388,3191
1508401108545271353,167,1508401108544909586,plot_matl,-0.300000011921,-5000.0,-0.309060424566,-0.00140872993506,-0.00906043872237,-45.6319046021,0.349065840244,0.12145332247,-0.00679327268153,-0.309045881033,0.000778090034146,0.000778090034146,0.0030076126568,-0.00169948546682,24.5958766937,24.5958766937,-12.4056978226,8.13571834564,2035,2071,2103,2015,2015,2731,3328,3348,3159,3303,3021,2981,3064,3089,3170,2912,3382,3376,3208,3279,2924,3281,3309,3031,0.010001748,1.670030742,1.670291916,0.453785598278,4500.0,0.470519185066,0.000659152225126,0.0167335700244,-75.3010635376,0.0,6000.0,-0.00677835289389,0.00269805383869,-0.00677835289389,39.8819541931,0.349065840244,0.0265011657029,-0.00614622188732,0.308769226074,-0.00592260016128,-0.00592260016128,0.0013777614804,0.00991963129491,111.802841187,111.802841187,1.38887059689,7.34016990662,2032,2032,2548,2037,2037,2939,3427,3423,3241,3362,3084,3060,3161,3151,3241,2860,3413,3416,3250,3367,3137,3354,3383,3187
1508401108555084810,168,1508401108554881256,plot_matl,-0.300000011921,-5000.0,-0.30905225873,-0.00158111739438,-0.00905226077884,-45.6288528442,0.349065840244,0.12010384351,-0.00679333461449,-0.30903339386,-0.012899662368,-0.012899662368,0.00300758192316,0.00405617943034,24.6306819916,24.6306819916,-12.5553722382,8.19053173065,2031,2064,2103,2015,2015,2731,3328,3348,3159,3299,3018,2978,3063,3086,3169,2910,3381,3375,3205,3279,2924,3281,3309,3031,0.009969998,1.680001758,1.674959664,0.453785598278,4500.0,0.470519185066,0.000564468733501,0.0167335700244,-75.3010635376,0.0,6000.0,-0.00676674162969,0.00245772185735,-0.00676674162969,39.8821601868,0.349065840244,0.0265011657029,-0.00614022416994,0.308811485767,-0.00588205363601,-0.00588205363601,0.00125910330098,0.00906531419605,111.819816589,111.819816589,1.26925575733,7.3946313858,2023,2031,2548,2037,2037,2939,3427,3423,3241,3358,3083,3058,3159,3151,3239,2860,3409,3416,3249,3367,3137,3354,3383,3187
1508401108565347622,169,1508401108564903279,plot_matl,-0.300000011921,-5000.0,-0.30905225873,-0.00158111739438,-0.00905226077884,-45.6288528442,0.349065840244,0.12010384351,-0.00679333461449,-0.30903339386,-0.012899662368,-0.012899662368,0.00300758192316,0.00405617943034,24.6306819916,24.6306819916,-12.5553722382,8.19053173065,2000,2050,2102,2018,2018,2733,3330,3348,3159,3299,3018,2978,3063,3086,3169,2910,3381,3375,3205,3278,2926,3281,3309,3030,0.010024002,1.690024941,1.694056338,0.453785598278,4500.0,0.470519185066,0.000564468733501,0.0167335700244,-75.3010635376,0.0,6000.0,-0.00676674162969,0.00245772185735,-0.00676674162969,39.8821601868,0.349065840244,0.0265011657029,-0.00614022416994,0.308811485767,-0.00588205363601,-0.00588205363601,0.00125910330098,0.00906531419605,111.819816589,111.819816589,1.26925575733,7.3946313858,2019,2034,2549,2039,2039,2939,3425,3423,3241,3358,3083,3058,3159,3151,3239,2860,3409,3416,3249,3365,3134,3353,3382,3186
1508401108575441278,170,1508401108574886466,plot_matl,-0.300000011921,-5000.0,-0.309057116508,0.0045189037919,-0.00905711576343,-43.7335739136,0.349065840244,0.12010384351,-0.00679333461449,-0.30903339386,-0.012899662368,-0.012899662368,0.00300758192316,0.00405617943034,24.6306819916,24.6306819916,-12.5553722382,8.19053173065,2025,2058,2102,2018,2018,2733,3330,3350,3159,3296,3028,2985,3070,3090,3175,2915,3385,3375,3205,3278,2926,3281,3309,3030,0.00998138,1.700007316,1.6968346,0.453785598278,4500.0,0.471868664026,0.0270419381559,0.0180830508471,-81.3737258911,0.0,6000.0,-0.0067488308996,0.00210046255961,-0.0067488308996,39.5849990845,0.349065840244,0.0265011657029,-0.00614022416994,0.308811485767,-0.00588205363601,-0.00588205363601,0.00125910330098,0.00906531419605,111.819816589,111.819816589,1.26925575733,7.3946313858,2032,2021,2549,2039,2039,2939,3425,3422,3240,3360,3091,3062,3166,3154,3244,2862,3413,3416,3249,3365,3134,3353,3382,3186
1508401108585430868,171,1508401108584938522,plot_matl,-0.300000011921,-5000.0,-0.309065848589,-0.00128355226479,-0.00906583573669,-45.6549797058,0.349065840244,0.12010384351,-0.00679333461449,-0.30903339386,-0.012899662368,-0.012899662368,0.00300758192316,0.00405617943034,24.6306819916,24.6306819916,-12.5553722382,8.19053173065,2013,2036,2103,2017,2017,2733,3330,3350,3159,3296,3028,2985,3070,3090,3175,2915,3385,3378,3210,3279,2927,3283,3311,3031,0.01005354,1.710060224,1.71915534,0.453785598278,4500.0,0.470519185066,-0.000660872610752,0.0167335700244,-75.3010635376,0.0,6000.0,-0.00677834870294,0.00270546437241,-0.00677834870294,39.8261413574,0.349065840244,0.0265011657029,-0.00614022416994,0.308811485767,-0.00588205363601,-0.00588205363601,0.00125910330098,0.00906531419605,111.819816589,111.819816589,1.26925575733,7.3946313858,2032,2019,2547,2041,2041,2939,3425,3422,3240,3360,3091,3062,3166,3154,3244,2862,3413,3420,3253,3368,3138,3354,3385,3186
1508401108595318167,172,1508401108594931445,plot_matl,-0.300000011921,-5000.0,-0.30905559659,0.00447330670431,-0.00905560702085,-44.0936164856,0.349065840244,0.12145332247,-0.00677835289389,-0.309060424566,0.000329576112563,0.000329576112563,0.00269805383869,-0.00140872993506,24.9002189636,24.9002189636,-12.6197347641,8.2459192276,2002,2037,2103,2017,2017,2732,3330,3350,3160,3300,3017,2978,3065,3086,3171,2915,3385,3378,3210,3279,2927,3283,3311,3031,0.009992933,1.720053272,1.718784476,0.453785598278,4500.0,0.470519185066,-0.000491626444273,0.0167335700244,-75.3010635376,0.0,6000.0,-0.00674247229472,0.00197402318008,-0.00674247229472,39.7997550964,0.349065840244,0.0240919683129,-0.00613965606317,0.308545082808,-0.0305744614452,-0.0305744614452,0.0012820889242,-0.0475112907588,111.788795471,111.788795471,1.20728445053,7.21916389465,2026,2019,2547,2041,2041,2940,3427,3422,3244,3360,3083,3055,3161,3149,3242,2862,3413,3420,3253,3368,3138,3354,3385,3186
1508401108605157170,173,1508401108604894126,plot_matl,-0.300000011921,-5000.0,-0.309053212404,-0.00154050183482,-0.00905321072787,-45.6340827942,0.349065840244,0.12145332247,-0.00677835289389,-0.309060424566,0.000329576112563,0.000329576112563,0.00269805383869,-0.00140872993506,24.9002189636,24.9002189636,-12.6197347641,8.2459192276,2016,2055,2103,2017,2017,2732,3330,3350,3160,3300,3017,2978,3065,3086,3171,2911,3380,3375,3209,3277,2925,3281,3309,3029,0.0099607,1.730015282,1.7232011,0.453785598278,4500.0,0.471868664026,0.0253436211497,0.0180830508471,-81.3737258911,0.0,6000.0,-0.00678730895743,-0.0105372928083,-0.00678730895743,43.8357543945,0.349065840244,0.0240919683129,-0.00613965606317,0.308545082808,-0.0305744614452,-0.0305744614452,0.0012820889242,-0.0475112907588,111.788795471,111.788795471,1.20728445053,7.21916389465,2023,2024,2547,2041,2041,2940,3427,3422,3244,3360,3083,3055,3161,3149,3242,2860,3410,3416,3251,3364,3136,3352,3383,3187
1508401108615322952,174,1508401108614924843,plot_matl,-0.300000011921,-5000.0,-0.309062004089,-0.00136706558987,-0.00906200800091,-45.683303833,0.349065840244,0.12145332247,-0.00677835289389,-0.309060424566,0.000329576112563,0.000329576112563,0.00269805383869,-0.00140872993506,24.9002189636,24.9002189636,-12.6197347641,8.2459192276,1991,2034,2103,2015,2015,2733,3328,3350,3159,3297,3017,2978,3064,3086,3171,2911,3380,3375,3209,3277,2925,3281,3309,3029,0.010030674,1.740046254,1.745337276,0.453785598278,4500.0,0.470519185066,-0.00208061235026,0.0167335700244,-75.3010635376,0.0,6000.0,-0.00678617646918,0.00283870077692,-0.00678617646918,39.7508735657,0.349065840244,0.0240919683129,-0.00613965606317,0.308545082808,-0.0305744614452,-0.0305744614452,0.0012820889242,-0.0475112907588,111.788795471,111.788795471,1.20728445053,7.21916389465,2019,2023,2547,2037,2037,2940,3425,3423,3241,3360,3083,3055,3160,3149,3242,2860,3410,3416,3251,3364,3136,3352,3383,3187
1508401108625323846,175,1508401108624902646,plot_matl,-0.300000011921,-5000.0,-0.309064567089,-0.00132299831603,-0.00906455889344,-45.6421356201,0.349065840244,0.12145332247,-0.00677835289389,-0.309060424566,0.000329576112563,0.000329576112563,0.00269805383869,-0.00140872993506,24.9002189636,24.9002189636,-12.6197347641,8.2459192276,2007,2048,2103,2015,2015,2733,3328,3350,3159,3297,3017,2978,3064,3086,3170,2912,3382,3377,3208,3276,2925,3282,3308,3029,0.009977859,1.750024323,1.746125325,0.453785598278,4500.0,0.470519185066,-0.00168469035998,0.0167335700244,-75.3010635376,0.0,6000.0,-0.00680749490857,-0.0101233413443,-0.00680749490857,43.888458252,0.349065840244,0.0240919683129,-0.00613965606317,0.308545082808,-0.0305744614452,-0.0305744614452,0.0012820889242,-0.0475112907588,111.788795471,111.788795471,1.20728445053,7.21916389465,2023,2025,2547,2037,2037,2940,3425,3423,3241,3360,3083,3055,3160,3150,3241,2858,3408,3415,3249,3364,3136,3352,3385,3187
1508401108635305218,176,1508401108634894758,plot_matl,-0.300000011921,-5000.0,-0.30907073617,0.00477631669492,-0.00907072424889,-44.2096710205,0.349065840244,0.12145332247,-0.00674860179424,-0.309063404799,-0.000545775226783,-0.000545775226783,0.00209772051312,0.00463685812429,24.8062858582,24.8062858582,-12.7291402817,8.05996894836,2011,2051,2104,2014,2014,2733,3329,3350,3158,3300,3019,2978,3064,3086,3170,2912,3382,3377,3208,3276,2925,3282,3308,3029,0.009991043,1.760015953,1.758423568,0.453785598278,4500.0,0.471868664026,0.0248926952481,0.0180830508471,-81.3737258911,0.0,6000.0,-0.00683634448797,-0.00952352117747,-0.00683634448797,43.8803062439,0.349065840244,0.0289103612304,-0.00614686729386,0.308770269156,0.0180269610137,0.0180269610137,-0.0139039549977,-0.0511776991189,111.796028137,111.796028137,0.91895788908,6.8007516861,2023,2023,2547,2040,2040,2937,3425,3423,3243,3359,3083,3055,3160,3150,3241,2858,3408,3415,3249,3364,3136,3352,3385,3187
1508401108645389974,177,1508401108644911088,plot_matl,-0.300000011921,-5000.0,-0.309054970741,0.00445302715525,-0.00905496161431,-44.2200698853,0.349065840244,0.12145332247,-0.00674860179424,-0.309063404799,-0.000545775226783,-0.000545775226783,0.00209772051312,0.00463685812429,24.8062858582,24.8062858582,-12.7291402817,8.05996894836,2018,2053,2104,2014,2014,2733,3329,3350,3158,3300,3019,2979,3062,3086,3170,2910,3382,3375,3207,3276,2924,3282,3308,3029,0.010017058,1.770032836,1.773019266,0.453785598278,4500.0,0.470519185066,-0.000918364792597,0.0167335700244,-75.3010635376,0.0,6000.0,-0.00680184504017,0.00318902404979,-0.00680184504017,39.8708877563,0.349065840244,0.0289103612304,-0.00614686729386,0.308770269156,0.0180269610137,0.0180269610137,-0.0139039549977,-0.0511776991189,111.796028137,111.796028137,0.91895788908,6.8007516861,2024,2023,2547,2040,2040,2937,3425,3423,3243,3359,3083,3055,3160,3150,3240,2860,3409,3416,3250,3364,3133,3352,3385,3187
1508401108655290863,178,1508401108654898719,plot_matl,-0.300000011921,-5000.0,-0.309052795172,-0.00156491645612,-0.009052795358,-45.646030426,0.349065840244,0.12145332247,-0.00674860179424,-0.309063404799,-0.000545775226783,-0.000545775226783,0.00209772051312,0.00463685812429,24.8062858582,24.8062858582,-12.7291402817,8.05996894836,2008,2049,2103,2014,2014,2731,3329,3348,3156,3300,3019,2979,3062,3086,3170,2910,3382,3375,3207,3276,2924,3279,3307,3029,0.009986499,1.780020156,1.777596822,0.453785598278,4500.0,0.470519185066,-0.00123341439757,0.0167335700244,-75.3010635376,0.0,6000.0,-0.00681128771976,0.00337744946592,-0.00681128771976,39.8416404724,0.349065840244,0.0289103612304,-0.00614686729386,0.308770269156,0.0180269610137,0.0180269610137,-0.0139039549977,-0.0511776991189,111.796028137,111.796028137,0.91895788908,6.8007516861,2017,2023,2547,2040,2040,2937,3424,3423,3241,3359,3083,3055,3160,3150,3240,2860,3409,3416,3250,3364,3133,3352,3383,3185
1508401108665305518,179,1508401108664902847,plot_matl,-0.300000011921,-5000.0,-0.309050559998,-0.00160107121337,-0.00905056297779,-45.6388778687,0.349065840244,0.12145332247,-0.00674860179424,-0.309063404799,-0.000545775226783,-0.000545775226783,0.00209772051312,0.00463685812429,24.8062858582,24.8062858582,-12.7291402817,8.05996894836,2024,2066,2103,2014,2014,2731,3329,3348,3156,3296,3018,2977,3061,3085,3168,2911,3380,3373,3207,3276,2924,3279,3307,3029,0.010003331,1.790024164,1.790596249,0.453785598278,4500.0,0.470519185066,0.000495168380439,0.0167335700244,-75.3010635376,0.0,6000.0,-0.00680252769962,0.00321681261994,-0.00680252769962,39.8603057861,0.349065840244,0.0289103612304,-0.00614686729386,0.308770269156,0.0180269610137,0.0180269610137,-0.0139039549977,-0.0511776991189,111.796028137,111.796028137,0.91895788908,6.8007516861,2026,2027,2547,2040,2040,2937,3424,3423,3241,3357,3082,3054,3161,3151,3241,2858,3410,3415,3250,3364,3133,3352,3383,3185
1508401108675247806,180,1508401108674927167,plot_matl,-0.300000011921,-5000.0,-0.309059470892,-0.00141947774682,-0.0090594785288,-45.6289024353,0.349065840244,0.12145332247,-0.00682184938341,-0.309073239565,-0.00097131630173,-0.00097131630173,0.00358678516932,-0.00114846124779,25.0151138306,25.0151138306,-12.8855276108,7.87583017349,2031,2063,2103,2015,2015,2731,3326,3348,3156,3296,3018,2977,3061,3085,3168,2911,3380,3373,3207,3277,2926,3281,3307,3028,0.010024144,1.800048478,1.80434592,0.453785598278,4500.0,0.469169706106,-0.0253310259432,0.015384087339,-69.2283935547,0.0,6000.0,-0.00679716002196,0.00310734356754,-0.00679716002196,39.8912658691,0.349065840244,0.0240919683129,-0.00616157986224,0.308603316545,-0.0305344685912,-0.0305344685912,0.00168846454471,-0.0481343381107,111.849746704,111.849746704,1.21156919003,6.90760755539,2032,2025,2548,2041,2041,2937,3424,3423,3241,3357,3082,3054,3161,3151,3241,2858,3410,3415,3250,3364,3133,3351,3380,3187
1508401108685309452,181,1508401108684904404,plot_matl,-0.300000011921,-5000.0,-0.309066861868,-0.001274805516,-0.00906686019152,-45.6464729309,0.349065840244,0.12145332247,-0.00682184938341,-0.309073239565,-0.00097131630173,-0.00097131630173,0.00358678516932,-0.00114846124779,25.0151138306,25.0151138306,-12.8855276108,7.87583017349,2024,2059,2103,2015,2015,2731,3326,3349,3158,3297,3020,2981,3063,3086,3169,2911,3381,3373,3207,3277,2926,3281,3307,3028,0.009977799,1.810026126,1.805981619,0.453785598278,4500.0,0.469169706106,-0.0232165437192,0.015384087339,-69.2283935547,0.0,6000.0,-0.00676950765774,0.00254392065108,-0.00676950765774,39.8496894836,0.349065840244,0.0240919683129,-0.00616157986224,0.308603316545,-0.0305344685912,-0.0305344685912,0.00168846454471,-0.0481343381107,111.849746704,111.849746704,1.21156919003,6.90760755539,2026,2023,2548,2041,2041,2937,3424,3423,3241,3359,3084,3057,3159,3151,3239,2859,3409,3415,3250,3364,3133,3351,3380,3187
1508401108695353345,182,1508401108694918830,plot_matl,-0.300000011921,-5000.0,-0.309068083763,-0.00125167320948,-0.00906808953732,-45.6420707703,0.349065840244,0.12145332247,-0.00682184938341,-0.309073239565,-0.00097131630173,-0.00097131630173,0.00358678516932,-0.00114846124779,25.0151138306,25.0151138306,-12.8855276108,7.87583017349,2033,2058,2102,2016,2016,2731,3326,3349,3158,3297,3020,2981,3063,3086,3169,2911,3381,3374,3207,3277,2927,3281,3308,3029,0.010013965,1.820040633,1.82254163,0.453785598278,4500.0,0.470519185066,0.00384148722515,0.0167335700244,-75.3010635376,0.0,6000.0,-0.00675851618871,0.00231947074644,-0.00675851618871,39.8615989685,0.349065840244,0.0240919683129,-0.00616157986224,0.308603316545,-0.0305344685912,-0.0305344685912,0.00168846454471,-0.0481343381107,111.849746704,111.849746704,1.21156919003,6.90760755539,2032,2021,2548,2040,2040,2937,3424,3423,3241,3359,3084,3057,3159,3151,3239,2859,3409,3416,3251,3364,3134,3352,3383,3184
1508401108705462752,183,1508401108704963795,plot_matl,-0.300000011921,-5000.0,-0.309073776007,-0.00113743240945,-0.0090737612918,-45.6428833008,0.349065840244,0.12145332247,-0.00682184938341,-0.309073239565,-0.00097131630173,-0.00097131630173,0.00358678516932,-0.00114846124779,25.0151138306,25.0151138306,-12.8855276108,7.87583017349,2029,2049,2102,2016,2016,2731,3330,3348,3158,3297,3017,2978,3063,3087,3169,2911,3381,3374,3207,3277,2927,3281,3308,3029,0.010044139,1.830085309,1.838077437,0.453785598278,4500.0,0.470519185066,0.00415856204927,0.0167335700244,-75.3010635376,0.0,6000.0,-0.00678697088733,-0.0105231441557,-0.00678697088733,43.8829803467,0.349065840244,0.0240919683129,-0.00616157986224,0.308603316545,-0.0305344685912,-0.0305344685912,0.00168846454471,-0.0481343381107,111.849746704,111.849746704,1.21156919003,6.90760755539,2030,2023,2548,2040,2040,2938,3423,3423,3240,3359,3084,3056,3159,3148,3240,2859,3409,3416,3251,3364,3134,3352,3383,3184
1508401108715370853,184,1508401108714906620,plot_matl,-0.300000011921,-5000.0,-0.309074014425,-0.00113518373109,-0.00907402485609,-45.635761261,0.349065840244,0.12145332247,-0.0068066646345,-0.309055060148,0.000743513402995,0.000743513402995,0.00330100324936,-0.0015079441946,24.9500389099,24.9500389099,-12.8853683472,7.73770570755,2018,2046,2103,2016,2016,2731,3330,3348,3158,3297,3017,2978,3063,3087,3169,2910,3381,3374,3207,3277,2924,3281,3307,3028,0.009942114,1.840027927,1.829348976,0.453785598278,4500.0,0.470519185066,0.00347230164334,0.0167335700244,-75.3010635376,0.0,6000.0,-0.00680943252519,0.0033582332544,-0.00680943252519,39.8852157593,0.349065840244,0.0240919683129,-0.00614164443687,0.308690935373,-0.029535766691,-0.029535766691,0.00130754138809,-0.0501772165298,111.496635437,111.496635437,1.3126553297,6.75810337067,2025,2025,2547,2040,2040,2938,3423,3423,3240,3359,3084,3056,3159,3148,3240,2860,3408,3415,3251,3366,3134,3352,3383,3187
1508401108725243794,185,1508401108724921152,plot_matl,-0.300000011921,-5000.0,-0.309062510729,0.00460136216134,-0.009062519297,-44.2150421143,0.349065840244,0.12145332247,-0.0068066646345,-0.309055060148,0.000743513402995,0.000743513402995,0.00330100324936,-0.0015079441946,24.9500389099,24.9500389099,-12.8853683472,7.73770570755,2015,2045,2103,2016,2016,2732,3327,3347,3156,3296,3019,2978,3063,3087,3169,2910,3381,3374,3207,3277,2924,3281,3307,3028,0.010014161,1.850042499,1.852619785,0.453785598278,4500.0,0.470519185066,0.00240154610947,0.0167335700244,-75.3010635376,0.0,6000.0,-0.00679102027789,0.00299274595454,-0.00679102027789,39.8653450012,0.349065840244,0.0240919683129,-0.00614164443687,0.308690935373,-0.029535766691,-0.029535766691,0.00130754138809,-0.0501772165298,111.496635437,111.496635437,1.3126553297,6.75810337067,2019,2020,2547,2043,2043,2938,3424,3424,3241,3359,3082,3056,3159,3148,3240,2860,3408,3415,3251,3366,3134,3352,3383,3187
1508401108735381444,186,1508401108734935158,plot_matl,-0.300000011921,-5000.0,-0.309054434299,-0.00153686327394,-0.00905443634838,-45.6268310547,0.349065840244,0.12145332247,-0.0068066646345,-0.309055060148,0.000743513402995,0.000743513402995,0.00330100324936,-0.0015079441946,24.9500389099,24.9500389099,-12.8853683472,7.73770570755,2007,2053,2103,2016,2016,2732,3327,3347,3156,3296,3019,2978,3063,3086,3171,2911,3381,3374,3207,3276,2924,3281,3310,3028,0.010013475,1.860056369,1.86250635,0.453785598278,4500.0,0.469169706106,-0.0251478329301,0.015384087339,-69.2283935547,0.0,6000.0,-0.00679930485785,0.00316016771831,-0.00679930485785,39.8927230835,0.349065840244,0.0240919683129,-0.00614164443687,0.308690935373,-0.029535766691,-0.029535766691,0.00130754138809,-0.0501772165298,111.496635437,111.496635437,1.3126553297,6.75810337067,2012,2021,2547,2043,2043,2938,3424,3424,3241,3359,3082,3056,3159,3149,3238,2860,3409,3417,3249,3366,3133,3353,3382,3187
1508401108745133267,187,1508401108744896589,plot_matl,-0.300000011921,-5000.0,-0.309051662683,0.00437748106197,-0.00905167590827,-44.1534233093,0.349065840244,0.12145332247,-0.0068066646345,-0.309055060148,0.000743513402995,0.000743513402995,0.00330100324936,-0.0015079441946,24.9500389099,24.9500389099,-12.8853683472,7.73770570755,2007,2053,2103,2016,2016,2732,3327,3347,3156,3296,3019,2978,3063,3086,3171,2911,3381,3374,3207,3276,2924,3281,3310,3028,0.00996118,1.870017735,1.86274066,0.453785598278,4500.0,0.470519185066,0.0032250971999,0.0167335700244,-75.3010635376,0.0,6000.0,-0.00678305421025,0.00281751528382,-0.00678305421025,39.8180007935,0.349065840244,0.0240919683129,-0.00614164443687,0.308690935373,-0.029535766691,-0.029535766691,0.00130754138809,-0.0501772165298,111.496635437,111.496635437,1.3126553297,6.75810337067,2012,2021,2547,2043,2043,2938,3424,3424,3241,3359,3082,3056,3159,3149,3238,2860,3409,3417,3249,3366,3133,3353,3382,3187
1508401108755196293,188,1508401108754888831,plot_matl,-0.300000011921,-5000.0,-0.309028327465,-0.00181629147846,-0.00902831647545,-45.6706924438,0.349065840244,0.12145332247,-0.00679281307384,-0.309070616961,0.00157131580636,0.00157131580636,0.00301633775234,-0.00120378902648,24.7769374847,24.7769374847,-12.4889669418,7.79570436478,1993,2036,2103,2018,2018,2731,3327,3349,3157,3298,3018,2978,3063,3086,3171,2911,3381,3374,3207,3276,2924,3281,3310,3028,0.009991103,1.880009671,1.878327364,0.453785598278,4500.0,0.470519185066,0.00500486604869,0.0167335700244,-75.3010635376,0.0,6000.0,-0.00676386756822,0.00237395474687,-0.00676386756822,39.8104629517,0.349065840244,0.0289103612304,-0.00615711463615,0.308835595846,0.0165194049478,0.0165194049478,0.00162986153737,0.00855523068458,111.98475647,111.98475647,0.817061185837,7.1193022728,2013,2021,2548,2040,2040,2939,3424,3424,3241,3356,3083,3056,3159,3149,3238,2860,3409,3417,3249,3366,3133,3353,3382,3186
