%time,field.header.seq,field.header.stamp,field.header.frame_id,field.FFJ4_set_point,field.FFJ4_position_gain,field.FFJ4_process_value,field.FFJ4_process_value_dot,field.FFJ4_error,field.FFJ4_command,field.FFJ1,field.FFJ2,field.FFJ3,field.FFJ4,field.FFJ1_dot,field.FFJ2_dot,field.FFJ3_dot,field.FFJ4_dot,field.FFJ1_tao,field.FFJ2_tao,field.FFJ3_tao,field.FFJ4_tao,field.pac0,field.pac1,field.pdc0,field.tac0,field.tdc0,field.el0,field.el1,field.el2,field.el3,field.el4,field.el5,field.el6,field.el7,field.el8,field.el9,field.el10,field.el11,field.el12,field.el13,field.el14,field.el15,field.el16,field.el17,field.el18,field.dt,field.time,field.test_time2,field.FFJ0_set_point,field.FFJ0_position_gain,field.FFJ0_process_value,field.FFJ0_process_value_dot,field.FFJ0_error,field.FFJ0_command,field.FFJ3_set_point,field.FFJ3_position_gain,field.FFJ3_process_value,field.FFJ3_process_value_dot,field.FFJ3_error,field.FFJ3_command,field.MFJ1,field.MFJ2,field.MFJ3,field.MFJ4,field.MFJ1_dot,field.MFJ2_dot,field.MFJ3_dot,field.MFJ4_dot,field.MFJ1_tao,field.MFJ2_tao,field.MFJ3_tao,field.MFJ4_tao,field.Mpac0,field.Mpac1,field.Mpdc0,field.Mtac0,field.Mtdc0,field.Mel0,field.Mel1,field.Mel2,field.Mel3,field.Mel4,field.Mel5,field.Mel6,field.Mel7,field.Mel8,field.Mel9,field.Mel10,field.Mel11,field.Mel12,field.Mel13,field.Mel14,field.Mel15,field.Mel16,field.Mel17,field.Mel18
1508399647871454683,168,1508399647870945768,plot_matl,0.25,-3000.0,0.223508164287,-0.00360998185351,-0.026491843164,-80.373916626,0.349065840244,0.0796194002032,-0.00198541628197,0.223446846008,0.00288222008385,0.00288222008385,-0.000146529637277,-0.00236260076053,-74.9645385742,-74.9645385742,-0.030978217721,82.8905181885,2010,2051,2114,2011,2011,2697,3316,3339,3142,3290,3004,2976,3055,3085,3167,2939,3389,3380,3220,3280,2935,3279,3303,3025,0.010004179,1.68001554,1.680702072,0.453785598278,4500.0,0.428685247898,0.00480134645477,-0.0251003541052,112.951591492,0.0,6000.0,-0.00197709887289,-0.000323380052578,0.0,0.0,0.349065840244,0.0240919683129,-0.00167067628354,0.314138203859,0.00189597834833,0.00189597834833,-0.0122258458287,0.0252413954586,111.056663513,111.056663513,0.747579395771,0.881803870201,2023,2022,2549,2025,2025,2931,3423,3420,3239,3358,3083,3057,3158,3151,3239,2864,3407,3414,3248,3362,3132,3351,3383,3186
1508399647881179694,169,1508399647880935508,plot_matl,0.25,-3000.0,0.223603352904,-0.00554112484679,-0.026396650821,-80.5241546631,0.349065840244,0.0796194002032,-0.00198541628197,0.223446846008,0.00288222008385,0.00288222008385,-0.000146529637277,-0.00236260076053,-74.9645385742,-74.9645385742,-0.030978217721,82.8905181885,2014,2040,2115,2014,2014,2697,3315,3340,3143,3291,3003,2976,3055,3085,3167,2939,3389,3380,3220,3280,2935,3279,3303,3026,0.009988262,1.690004486,1.688016278,0.453785598278,4500.0,0.428685247898,0.00488518737257,-0.0251003541052,112.951591492,0.0,6000.0,-0.00198248634115,-0.000216477972572,0.0,0.0,0.349065840244,0.0240919683129,-0.00167067628354,0.314138203859,0.00189597834833,0.00189597834833,-0.0122258458287,0.0252413954586,111.056663513,111.056663513,0.747579395771,0.881803870201,2027,2017,2549,2022,2022,2930,3422,3421,3239,3358,3083,3057,3158,3151,3239,2864,3407,3414,3248,3362,3132,3351,3383,3185
1508399647891376772,170,1508399647890964317,plot_matl,0.25,-3000.0,0.223616108298,-0.00581261795014,-0.0263838879764,-80.5741653442,0.349065840244,0.0796194002032,-0.0019820316229,0.223628163338,0.00254441704601,0.00254441704601,-0.000225502197281,-0.00605492619798,-74.8766937256,-74.8766937256,-0.101375199854,83.4432373047,2008,2046,2115,2014,2014,2697,3315,3340,3143,3291,3003,2977,3054,3088,3166,2940,3386,3379,3220,3282,2936,3279,3303,3026,0.010029857,1.700034115,1.70507569,0.453785598278,4500.0,0.428685247898,0.00488518737257,-0.0251003541052,112.951591492,0.0,6000.0,-0.00198248634115,-0.000216477972572,0.0,0.0,0.349065840244,0.0240919683129,-0.00170967692975,0.314376085997,0.000814473896753,0.000814473896753,0.00388964801095,0.0204105954617,111.145553589,111.145553589,1.00361597538,1.06931531429,2023,2018,2549,2022,2022,2930,3422,3421,3239,3358,3083,3056,3158,3152,3241,2865,3409,3415,3250,3362,3132,3351,3383,3185
1508399647901215114,171,1508399647900960447,plot_matl,0.25,-3000.0,0.223632618785,-0.00611858488992,-0.0263673756272,-80.5370483398,0.349065840244,0.0796194002032,-0.0019820316229,0.223628163338,0.00254441704601,0.00254441704601,-0.000225502197281,-0.00605492619798,-74.8766937256,-74.8766937256,-0.101375199854,83.4432373047,2009,2052,2114,2014,2014,2697,3317,3340,3141,3291,3003,2977,3054,3088,3166,2940,3386,3379,3220,3282,2936,3278,3306,3025,0.009994916,1.710029876,1.709130636,0.453785598278,4500.0,0.427335768938,-0.0226484630257,-0.0264498349279,119.024261475,0.0,6000.0,-0.00198445213027,-0.000177474837983,0.0,0.0,0.349065840244,0.0240919683129,-0.00170967692975,0.314376085997,0.000814473896753,0.000814473896753,0.00388964801095,0.0204105954617,111.145553589,111.145553589,1.00361597538,1.06931531429,2027,2025,2550,2020,2020,2931,3422,3421,3239,3358,3083,3056,3158,3152,3241,2865,3409,3415,3250,3362,3132,3350,3380,3184
1508399647911224363,172,1508399647910932563,plot_matl,0.25,-3000.0,0.223611533642,-0.00574278226122,-0.0263884589076,-80.6228790283,0.349065840244,0.0796194002032,-0.0019820316229,0.223628163338,0.00254441704601,0.00254441704601,-0.000225502197281,-0.00605492619798,-74.8766937256,-74.8766937256,-0.101375199854,83.4432373047,1998,2055,2114,2014,2014,2697,3317,3340,3141,3290,3004,2975,3055,3087,3167,2940,3385,3380,3219,3282,2936,3278,3306,3025,0.009972429,1.72000221,1.715257788,0.453785598278,4500.0,0.427335768938,-0.0226484630257,-0.0264498349279,119.024261475,0.0,6000.0,-0.00198607845232,-0.000145205092849,0.0,0.0,0.349065840244,0.0240919683129,-0.00170967692975,0.314376085997,0.000814473896753,0.000814473896753,0.00388964801095,0.0204105954617,111.145553589,111.145553589,1.00361597538,1.06931531429,2023,2026,2550,2020,2020,2931,3422,3421,3239,3357,3082,3056,3159,3152,3240,2867,3410,3415,3250,3362,3132,3350,3380,3184
1508399647921277303,173,1508399647920987116,plot_matl,0.25,-3000.0,0.223629847169,0.0317735299468,-0.0263701528311,-71.4249801636,0.349065840244,0.0796194002032,-0.0019820316229,0.223628163338,0.00254441704601,0.00254441704601,-0.000225502197281,-0.00605492619798,-74.8766937256,-74.8766937256,-0.101375199854,83.4432373047,2011,2055,2114,2014,2014,2697,3318,3340,3141,3290,3004,2975,3055,3087,3167,2940,3385,3380,3219,3279,2937,3276,3306,3024,0.010054797,1.730056993,1.739479881,0.453785598278,4500.0,0.428685247898,0.00421119946986,-0.0251003541052,112.951591492,0.0,6000.0,-0.00198739906773,-0.000119000731502,0.0,0.0,0.349065840244,0.0240919683129,-0.00170967692975,0.314376085997,0.000814473896753,0.000814473896753,0.00388964801095,0.0204105954617,111.145553589,111.145553589,1.00361597538,1.06931531429,2028,2030,2549,2019,2019,2931,3424,3421,3239,3357,3082,3056,3159,3152,3240,2867,3410,3415,3250,3363,3132,3352,3382,3184
1508399647931445309,174,1508399647930975585,plot_matl,0.25,-3000.0,0.223606675863,-0.00567895779386,-0.0263933166862,-80.6040649414,0.349065840244,0.0796194002032,-0.00198828871362,0.223618447781,0.00202996144071,0.00202996144071,-0.000101348901808,-0.00591806415468,-74.9161376953,-74.9161376953,0.568772017956,83.094329834,2019,2054,2114,2014,2014,2697,3318,3338,3144,3289,3004,2975,3056,3086,3166,2939,3387,3380,3219,3279,2937,3276,3306,3024,0.009987805,1.740045306,1.73787807,0.453785598278,4500.0,0.428685247898,0.00335075077601,-0.0251003541052,112.951591492,0.0,6000.0,-0.00198849500157,-9.72541238298e-05,0.0,0.0,0.349065840244,0.0240919683129,-0.00169622257818,0.314300239086,0.000889395421837,0.000889395421837,0.00359114119783,-0.0399301983416,111.159790039,111.159790039,1.49763441086,1.09174656868,2032,2023,2549,2019,2019,2931,3424,3420,3238,3359,3082,3056,3158,3152,3239,2865,3409,3415,3250,3363,3132,3352,3382,3184
1508399647941143555,175,1508399647940938160,plot_matl,0.25,-3000.0,0.223565459251,-0.00478176027536,-0.0264345444739,-80.4114379883,0.349065840244,0.0796194002032,-0.00198828871362,0.223618447781,0.00202996144071,0.00202996144071,-0.000101348901808,-0.00591806415468,-74.9161376953,-74.9161376953,0.568772017956,83.094329834,2019,2054,2114,2014,2014,2697,3318,3338,3144,3289,3004,2975,3056,3086,3166,2939,3387,3380,3219,3279,2937,3276,3306,3024,0.009962158,1.750007502,1.74337765,0.453785598278,4500.0,0.428685247898,0.00335075077601,-0.0251003541052,112.951591492,0.0,6000.0,-0.00200138124637,0.000155261994223,0.0,0.0,0.349065840244,0.0240919683129,-0.00169622257818,0.314300239086,0.000889395421837,0.000889395421837,0.00359114119783,-0.0399301983416,111.159790039,111.159790039,1.49763441086,1.09174656868,2032,2023,2549,2019,2019,2931,3424,3420,3238,3359,3082,3056,3158,3152,3239,2865,3409,3415,3250,3363,3132,3352,3382,3184
1508399647951307334,176,1508399647950945213,plot_matl,0.25,-3000.0,0.223520442843,-0.00389276864007,-0.0264795552939,-80.3695602417,0.349065840244,0.0796194002032,-0.00198828871362,0.223618447781,0.00202996144071,0.00202996144071,-0.000101348901808,-0.00591806415468,-74.9161376953,-74.9161376953,0.568772017956,83.094329834,2038,2064,2115,2014,2014,2697,3318,3338,3144,3289,3004,2975,3056,3086,3166,2939,3387,3383,3220,3281,2935,3278,3302,3027,0.010008193,1.760015601,1.761441968,0.453785598278,4500.0,0.428685247898,0.00373323494568,-0.0251003541052,112.951591492,0.0,6000.0,-0.00200138124637,0.000155261994223,0.0,0.0,0.349065840244,0.0240919683129,-0.00169622257818,0.314300239086,0.000889395421837,0.000889395421837,0.00359114119783,-0.0399301983416,111.159790039,111.159790039,1.49763441086,1.09174656868,2030,2022,2549,2021,2021,2931,3424,3420,3238,3359,3082,3056,3158,3152,3239,2865,3409,3415,3249,3363,3132,3353,3382,3187
1508399647961401641,177,1508399647960936076,plot_matl,0.25,-3000.0,0.223520442843,-0.00389276864007,-0.0264795552939,-80.3695602417,0.349065840244,0.0796194002032,-0.00198828871362,0.223618447781,0.00202996144071,0.00202996144071,-0.000101348901808,-0.00591806415468,-74.9161376953,-74.9161376953,0.568772017956,83.094329834,2026,2083,2115,2014,2014,2697,3334,3355,3158,3304,3014,2988,3068,3095,3176,2939,3387,3383,3220,3281,2935,3278,3302,3027,0.009989746,1.770005693,1.768185042,0.453785598278,4500.0,0.427335768938,-0.0207056701183,-0.0264498349279,119.024261475,0.0,6000.0,-0.00199882104062,0.000105483188236,0.0,0.0,0.349065840244,0.0240919683129,-0.00169622257818,0.314300239086,0.000889395421837,0.000889395421837,0.00359114119783,-0.0399301983416,111.159790039,111.159790039,1.49763441086,1.09174656868,2034,2034,2549,2021,2021,2930,3445,3440,3253,3370,3092,3067,3170,3162,3250,2865,3409,3415,3249,3363,3132,3353,3382,3187
1508399647971427258,178,1508399647970955238,plot_matl,0.25,-3000.0,0.223627686501,0.0318525768816,-0.0263723172247,-71.4595489502,0.349065840244,0.0782699212432,-0.00199792650528,0.223485708237,-0.0103521049023,-0.0103521049023,8.80875304574e-05,-0.0031904426869,-74.744430542,-74.744430542,0.752607703209,82.5523071289,2026,2070,2114,2014,2014,2697,3334,3355,3158,3304,3014,2988,3068,3095,3176,2947,3395,3389,3226,3290,2941,3282,3309,3030,0.010019052,1.780025096,1.783391256,0.453785598278,4500.0,0.428685247898,0.00669158156961,-0.0251003541052,112.951591492,0.0,6000.0,-0.00199703220278,7.06990977051e-05,0.0,0.0,0.349065840244,0.0216827709228,-0.00171630689874,0.314440101385,-0.0204296261072,-0.0204296261072,0.00324483169243,0.0190765354782,111.253623962,111.253623962,1.08183050156,1.32704079151,2024,2019,2549,2021,2021,2930,3445,3440,3253,3370,3092,3067,3170,3162,3250,2873,3418,3423,3255,3369,3137,3358,3388,3188
1508399647981358110,179,1508399647980946337,plot_matl,0.25,-3000.0,0.223627686501,0.0318525768816,-0.0263723172247,-71.4595489502,0.349065840244,0.0782699212432,-0.00199792650528,0.223485708237,-0.0103521049023,-0.0103521049023,8.80875304574e-05,-0.0031904426869,-74.744430542,-74.744430542,0.752607703209,82.5523071289,2023,2055,2114,2018,2018,2698,3317,3341,3147,3291,3005,2977,3057,3095,3176,2947,3395,3389,3226,3290,2941,3282,3309,3030,0.009990411,1.790016205,1.788283569,0.453785598278,4500.0,0.428685247898,0.00669158156961,-0.0251003541052,112.951591492,0.0,6000.0,-0.00199703220278,7.06990977051e-05,0.0,0.0,0.349065840244,0.0216827709228,-0.00171630689874,0.314440101385,-0.0204296261072,-0.0204296261072,0.00324483169243,0.0190765354782,111.253623962,111.253623962,1.08183050156,1.32704079151,2025,2022,2549,2024,2024,2934,3427,3423,3241,3362,3083,3058,3161,3162,3250,2873,3418,3423,3255,3369,3137,3358,3388,3188
1508399647991411259,180,1508399647990968461,plot_matl,0.25,-3000.0,0.223627686501,0.0318525768816,-0.0263723172247,-71.4595489502,0.349065840244,0.0782699212432,-0.00199792650528,0.223485708237,-0.0103521049023,-0.0103521049023,8.80875304574e-05,-0.0031904426869,-74.744430542,-74.744430542,0.752607703209,82.5523071289,2023,2055,2114,2018,2018,2698,3317,3341,3147,3291,3005,2977,3057,3095,3176,2947,3395,3389,3226,3290,2941,3282,3309,3030,0.010022374,1.800038639,1.80402732,0.453785598278,4500.0,0.428685247898,0.00669158156961,-0.0251003541052,112.951591492,0.0,6000.0,-0.00199703220278,7.06990977051e-05,0.0,0.0,0.349065840244,0.0216827709228,-0.00171630689874,0.314440101385,-0.0204296261072,-0.0204296261072,0.00324483169243,0.0190765354782,111.253623962,111.253623962,1.08183050156,1.32704079151,2025,2022,2549,2024,2024,2934,3427,3423,3241,3362,3083,3058,3161,3162,3250,2873,3418,3423,3255,3369,3137,3358,3388,3188
1508399648001380843,181,1508399648000963118,plot_matl,0.25,-3000.0,0.223840281367,-0.010534488596,-0.026159722358,-84.3929595947,0.349065840244,0.0782699212432,-0.00199792650528,0.223485708237,-0.0103521049023,-0.0103521049023,8.80875304574e-05,-0.0031904426869,-74.744430542,-74.744430542,0.752607703209,82.5523071289,2010,2067,2114,2018,2018,2698,3317,3341,3147,3291,3005,2977,3057,3090,3168,2939,3393,3389,3230,3293,2956,3297,3325,3030,0.009993645,1.810033021,1.808849745,0.453785598278,4500.0,0.427335768938,-0.0203123539686,-0.0264498349279,119.024261475,0.0,6000.0,-0.00200472795404,0.00023333322315,0.0,0.0,0.349065840244,0.0216827709228,-0.00171630689874,0.314440101385,-0.0204296261072,-0.0204296261072,0.00324483169243,0.0190765354782,111.253623962,111.253623962,1.08183050156,1.32704079151,2032,2037,2549,2024,2024,2934,3427,3423,3241,3362,3083,3058,3161,3154,3241,2868,3415,3423,3258,3375,3152,3371,3402,3188
1508399648011372640,182,1508399648010960125,plot_matl,0.25,-3000.0,0.223845243454,-0.0105622326955,-0.0261547546834,-80.9001235962,0.349065840244,0.0782699212432,-0.00200293119997,0.223834723234,-0.0112213445827,-0.0112213445827,0.000196336244699,-0.0103547135368,-75.2398910522,-75.2398910522,0.115948393941,83.2190246582,2028,2052,2114,2014,2014,2711,3333,3355,3155,3302,3015,2977,3057,3090,3168,2939,3393,3389,3230,3293,2956,3297,3325,3052,0.009997303,1.820030253,1.819509146,0.453785598278,4500.0,0.428685247898,0.00378201925196,-0.0251003541052,112.951591492,0.0,6000.0,-0.00200185738504,0.000174221684574,0.0,0.0,0.349065840244,0.0240919683129,-0.0016558637144,0.314162194729,0.00565030053258,0.00565030053258,0.00252990843728,-0.0393843352795,111.300331116,111.300331116,0.516654968262,1.22160470486,2028,2022,2550,2023,2023,2946,3442,3436,3251,3370,3092,3058,3161,3154,3241,2868,3415,3423,3258,3375,3152,3371,3402,3211
1508399648021353624,183,1508399648020953505,plot_matl,0.25,-3000.0,0.223742008209,-0.00845775101334,-0.0262579973787,-80.8504714966,0.349065840244,0.0782699212432,-0.00200293119997,0.223834723234,-0.0112213445827,-0.0112213445827,0.000196336244699,-0.0103547135368,-75.2398910522,-75.2398910522,0.115948393941,83.2190246582,2011,2052,2114,2014,2014,2711,3333,3355,3155,3302,3015,2987,3066,3096,3179,2948,3399,3391,3230,3289,2942,3297,3325,3052,0.009992071,1.830023049,1.828548993,0.453785598278,4500.0,0.428685247898,0.00205610250123,-0.0251003541052,112.951591492,0.0,6000.0,-0.00200017145835,0.000139508731081,0.0,0.0,0.349065840244,0.0240919683129,-0.0016558637144,0.314162194729,0.00565030053258,0.00565030053258,0.00252990843728,-0.0393843352795,111.300331116,111.300331116,0.516654968262,1.22160470486,2016,2024,2550,2023,2023,2946,3442,3436,3251,3370,3092,3065,3169,3160,3253,2873,3419,3426,3255,3369,3137,3371,3402,3211
1508399648031352367,184,1508399648030945925,plot_matl,0.25,-3000.0,0.223742008209,-0.00845775101334,-0.0262579973787,-80.8504714966,0.349065840244,0.0782699212432,-0.00200293119997,0.223834723234,-0.0112213445827,-0.0112213445827,0.000196336244699,-0.0103547135368,-75.2398910522,-75.2398910522,0.115948393941,83.2190246582,2011,2052,2114,2014,2014,2711,3333,3355,3155,3302,3015,2987,3066,3096,3179,2948,3399,3391,3230,3289,2942,3297,3325,3052,0.009992544,1.840015758,1.838628096,0.453785598278,4500.0,0.428685247898,0.00205610250123,-0.0251003541052,112.951591492,0.0,6000.0,-0.00200017145835,0.000139508731081,0.0,0.0,0.349065840244,0.0240919683129,-0.0016558637144,0.314162194729,0.00565030053258,0.00565030053258,0.00252990843728,-0.0393843352795,111.300331116,111.300331116,0.516654968262,1.22160470486,2016,2024,2550,2023,2023,2946,3442,3436,3251,3370,3092,3065,3169,3160,3253,2873,3419,3426,3255,3369,3137,3371,3402,3211
1508399648041350789,185,1508399648040974820,plot_matl,0.25,-3000.0,0.223865613341,-0.0106442319229,-0.0261343866587,-81.0353469849,0.349065840244,0.0782699212432,-0.00200293119997,0.223834723234,-0.0112213445827,-0.0112213445827,0.000196336244699,-0.0103547135368,-75.2398910522,-75.2398910522,0.115948393941,83.2190246582,2034,2067,2115,2014,2014,2705,3324,3348,3152,3302,3015,2987,3066,3096,3179,2948,3399,3391,3230,3289,2942,3289,3317,3042,0.010028087,1.850044707,1.855196095,0.453785598278,4500.0,0.428685247898,-0.000141244614497,-0.0251003541052,112.951591492,0.0,6000.0,-0.00199849903584,0.000105072176666,0.0,0.0,0.349065840244,0.0240919683129,-0.0016558637144,0.314162194729,0.00565030053258,0.00565030053258,0.00252990843728,-0.0393843352795,111.300331116,111.300331116,0.516654968262,1.22160470486,2033,2029,2549,2018,2018,2939,3431,3431,3246,3370,3092,3065,3169,3160,3253,2873,3419,3426,3255,3369,3137,3362,3396,3201
1508399648051261829,186,1508399648050962746,plot_matl,0.25,-3000.0,0.223887771368,-0.0108279632404,-0.0261122323573,-81.0581817627,0.349065840244,0.0796194002032,-0.00199781055562,0.223893299699,-6.10921197222e-05,-6.10921197222e-05,9.08931106096e-05,-0.0112759433687,-75.4419708252,-75.4419708252,-0.658733785152,83.822845459,2030,2051,2115,2014,2014,2705,3324,3348,3152,3300,3014,2987,3071,3101,3182,2949,3397,3391,3228,3289,2942,3289,3317,3042,0.00998745,1.860032458,1.8576657,0.453785598278,4500.0,0.428685247898,-0.00183931575157,-0.0251003541052,112.951591492,0.0,6000.0,-0.00199723150581,7.89697587606e-05,0.0,0.0,0.349065840244,0.0240919683129,-0.00166477146558,0.314443320036,0.000948221539147,0.000948221539147,0.00295049534179,0.0184024497867,111.284614563,111.284614563,0.234936609864,1.26812124252,2033,2024,2549,2018,2018,2939,3431,3431,3246,3370,3091,3067,3171,3165,3251,2874,3420,3424,3257,3369,3137,3362,3396,3201
1508399648061301488,187,1508399648060949766,plot_matl,0.25,-3000.0,0.223819091916,-0.00953696388751,-0.0261809155345,-80.927986145,0.349065840244,0.0796194002032,-0.00199781055562,0.223893299699,-6.10921197222e-05,-6.10921197222e-05,9.08931106096e-05,-0.0112759433687,-75.4419708252,-75.4419708252,-0.658733785152,83.822845459,2032,2055,2114,2017,2017,2700,3321,3348,3152,3300,3014,2987,3071,3101,3182,2949,3397,3391,3228,3290,2943,3287,3314,3033,0.00998705,1.870019644,1.86757835,0.453785598278,4500.0,0.430034726858,0.0246958266944,-0.0237508714199,106.878929138,0.0,6000.0,-0.00199653650634,6.46589905955e-05,0.0,0.0,0.349065840244,0.0240919683129,-0.00166477146558,0.314443320036,0.000948221539147,0.000948221539147,0.00295049534179,0.0184024497867,111.284614563,111.284614563,0.234936609864,1.26812124252,2038,2029,2548,2023,2023,2935,3428,3431,3246,3370,3091,3067,3171,3165,3251,2874,3420,3424,3257,3373,3139,3359,3389,3189
1508399648071304905,188,1508399648070943099,plot_matl,0.25,-3000.0,0.223819091916,-0.00953696388751,-0.0261809155345,-80.927986145,0.349065840244,0.0796194002032,-0.00199781055562,0.223893299699,-6.10921197222e-05,-6.10921197222e-05,9.08931106096e-05,-0.0112759433687,-75.4419708252,-75.4419708252,-0.658733785152,83.822845459,2032,2055,2114,2017,2017,2700,3321,3348,3152,3300,3014,2987,3071,3101,3182,2949,3397,3391,3228,3290,2943,3287,3314,3033,0.009992958,1.880012987,1.878676104,0.453785598278,4500.0,0.430034726858,0.0246958266944,-0.0237508714199,106.878929138,0.0,6000.0,-0.00199653650634,6.46589905955e-05,0.0,0.0,0.349065840244,0.0240919683129,-0.00166477146558,0.314443320036,0.000948221539147,0.000948221539147,0.00295049534179,0.0184024497867,111.284614563,111.284614563,0.234936609864,1.26812124252,2038,2029,2548,2023,2023,2935,3428,3431,3246,3370,3091,3067,3171,3165,3251,2874,3420,3424,3257,3373,3139,3359,3389,3189
1508399648081331714,189,1508399648080955451,plot_matl,0.25,-3000.0,0.223611027002,-0.00545086152852,-0.0263889748603,-80.5451583862,0.349065840244,0.0796194002032,-0.00199781055562,0.223893299699,-6.10921197222e-05,-6.10921197222e-05,9.08931106096e-05,-0.0112759433687,-75.4419708252,-75.4419708252,-0.658733785152,83.822845459,2015,2054,2114,2016,2016,2700,3321,3342,3153,3296,3009,2982,3062,3091,3172,2941,3391,3386,3223,3285,2937,3283,3308,3027,0.010012407,1.890025505,1.892344923,0.453785598278,4500.0,0.430034726858,0.0236363392323,-0.0237508714199,106.878929138,0.0,6000.0,-0.00199545174837,4.23210949521e-05,0.0,0.0,0.349065840244,0.0240919683129,-0.00166477146558,0.314443320036,0.000948221539147,0.000948221539147,0.00295049534179,0.0184024497867,111.284614563,111.284614563,0.234936609864,1.26812124252,2028,2023,2549,2022,2022,2935,3428,3428,3245,3364,3088,3062,3164,3157,3244,2869,3413,3418,3252,3365,3135,3356,3387,3188
1508399648091344948,190,1508399648090946986,plot_matl,0.25,-3000.0,0.223611027002,-0.00545086152852,-0.0263889748603,-80.5451583862,0.349065840244,0.0823183655739,-0.00199537072331,0.223673656583,0.024979101494,0.024979101494,4.06567378377e-05,0.0311854723841,-75.0518951416,-75.0518951416,-0.41276922822,83.466545105,2015,2054,2114,2016,2016,2700,3321,3342,3153,3296,3009,2982,3062,3091,3172,2941,3391,3386,3223,3285,2937,3283,3308,3027,0.009990618,1.900016799,1.89821742,0.453785598278,4500.0,0.430034726858,0.0236363392323,-0.0237508714199,106.878929138,0.0,6000.0,-0.00199545174837,4.23210949521e-05,0.0,0.0,0.349065840244,0.0240919683129,-0.00163154874463,0.314241796732,0.00148523913231,0.00148523913231,0.00226887548342,-0.0394131913781,111.259643555,111.259643555,0.556763470173,1.365711689,2028,2023,2549,2022,2022,2935,3428,3428,3245,3364,3088,3062,3164,3157,3244,2869,3413,3418,3252,3365,3135,3356,3387,3188
1508399648101321484,191,1508399648100994317,plot_matl,0.25,-3000.0,0.22348061204,-0.00289426534437,-0.0265193898231,-80.304107666,0.349065840244,0.0823183655739,-0.00199537072331,0.223673656583,0.024979101494,0.024979101494,4.06567378377e-05,0.0311854723841,-75.0518951416,-75.0518951416,-0.41276922822,83.466545105,2021,2065,2114,2016,2016,2700,3316,3341,3144,3291,3007,2977,3059,3089,3170,2940,3387,3382,3222,3281,2938,3281,3308,3026,0.010047286,1.910064511,1.919031626,0.453785598278,4500.0,0.427335768938,-0.0294811557978,-0.0264498349279,119.024261475,0.0,6000.0,-0.00199477397837,2.8365308026e-05,0.0,0.0,0.349065840244,0.0240919683129,-0.00163154874463,0.314241796732,0.00148523913231,0.00148523913231,0.00226887548342,-0.0394131913781,111.259643555,111.259643555,0.556763470173,1.365711689,2028,2026,2549,2022,2022,2933,3425,3425,3240,3359,3083,3057,3160,3153,3240,2867,3412,3418,3249,3364,3134,3353,3384,3185
1508399648111178314,192,1508399648110957210,plot_matl,0.25,-3000.0,0.22342158854,-0.00173655082472,-0.0265784170479,-80.1841506958,0.349065840244,0.0823183655739,-0.00199537072331,0.223673656583,0.024979101494,0.024979101494,4.06567378377e-05,0.0311854723841,-75.0518951416,-75.0518951416,-0.41276922822,83.466545105,2015,2052,2114,2016,2016,2698,3314,3341,3144,3290,3005,2978,3057,3089,3170,2940,3387,3382,3222,3281,2938,3281,3308,3026,0.009960644,1.920026308,1.912443648,0.453785598278,4500.0,0.428685247898,-0.00381038105115,-0.0251003541052,112.951591492,0.0,6000.0,-0.00199452461675,2.32333004533e-05,0.0,0.0,0.349065840244,0.0240919683129,-0.00163154874463,0.314241796732,0.00148523913231,0.00148523913231,0.00226887548342,-0.0394131913781,111.259643555,111.259643555,0.556763470173,1.365711689,2027,2024,2549,2020,2020,2931,3421,3420,3238,3359,3085,3056,3159,3153,3240,2867,3412,3418,3249,3364,3134,3353,3384,3185
1508399648121361373,193,1508399648120994190,plot_matl,0.25,-3000.0,0.223577275872,0.0329980924726,-0.0264227278531,-71.3734588623,0.349065840244,0.0823183655739,-0.00199537072331,0.223673656583,0.024979101494,0.024979101494,4.06567378377e-05,0.0311854723841,-75.0518951416,-75.0518951416,-0.41276922822,83.466545105,2024,2057,2114,2016,2016,2698,3314,3341,3144,3290,3005,2978,3057,3087,3166,2939,3387,3383,3222,3280,2937,3280,3304,3026,0.010038015,1.930063967,1.937336895,0.453785598278,4500.0,0.428685247898,-0.00416996423155,-0.0251003541052,112.951591492,0.0,6000.0,-0.00199431972578,1.90126629604e-05,0.0,0.0,0.349065840244,0.0240919683129,-0.00163154874463,0.314241796732,0.00148523913231,0.00148523913231,0.00226887548342,-0.0394131913781,111.259643555,111.259643555,0.556763470173,1.365711689,2023,2019,2549,2020,2020,2931,3421,3420,3238,3359,3085,3056,3159,3153,3240,2864,3409,3414,3249,3365,3133,3352,3382,3185
1508399648131364698,194,1508399648130937400,plot_matl,0.25,-3000.0,0.223569884896,0.0331081859767,-0.0264301169664,-71.3693008423,0.349065840244,0.0796194002032,-0.00199501262978,0.2235455513,-0.00160291616339,-0.00160291616339,3.32823256031e-05,-0.00418848590925,-74.7566070557,-74.7566070557,-0.346331804991,83.5558166504,2023,2057,2113,2016,2016,2698,3317,3339,3142,3289,3005,2978,3057,3087,3166,2939,3387,3383,3222,3280,2937,3280,3304,3025,0.009942523,1.940007162,1.928849462,0.453785598278,4500.0,0.428685247898,-0.00243921834044,-0.0251003541052,112.951591492,0.0,6000.0,-0.00200677104294,0.000264960428467,0.0,0.0,0.349065840244,0.0240919683129,-0.0016111608129,0.3141708076,0.00163424795028,0.00163424795028,0.00185734161641,-0.0378648675978,111.26625824,111.26625824,0.621874511242,1.2312951088,2019,2025,2549,2021,2021,2932,3425,3424,3239,3359,3083,3056,3159,3153,3240,2864,3409,3414,3249,3365,3133,3352,3382,3187
1508399648141321144,195,1508399648140988911,plot_matl,0.25,-3000.0,0.223592802882,-0.00531189423054,-0.0264071933925,-80.5526580811,0.349065840244,0.0796194002032,-0.00199501262978,0.2235455513,-0.00160291616339,-0.00160291616339,3.32823256031e-05,-0.00418848590925,-74.7566070557,-74.7566070557,-0.346331804991,83.5558166504,2005,2052,2113,2016,2016,2698,3317,3339,3142,3289,3005,2978,3057,3088,3168,2937,3386,3381,3221,3279,2935,3280,3304,3025,0.010051656,1.950059054,1.96007292,0.453785598278,4500.0,0.428685247898,-0.00291741965339,-0.0251003541052,112.951591492,0.0,6000.0,-0.00199076067656,0.0133699029684,0.0,0.0,0.349065840244,0.0240919683129,-0.0016111608129,0.3141708076,0.00163424795028,0.00163424795028,0.00185734161641,-0.0378648675978,111.26625824,111.26625824,0.621874511242,1.2312951088,2019,2021,2549,2021,2021,2932,3425,3424,3239,3359,3083,3058,3158,3152,3241,2866,3410,3415,3249,3362,3131,3352,3382,3187
1508399648151395927,196,1508399648150975975,plot_matl,0.25,-3000.0,0.223574593663,-0.00495123770088,-0.0264253988862,-80.5042266846,0.349065840244,0.0796194002032,-0.00199501262978,0.2235455513,-0.00160291616339,-0.00160291616339,3.32823256031e-05,-0.00418848590925,-74.7566070557,-74.7566070557,-0.346331804991,83.5558166504,2015,2060,2114,2013,2013,2695,3316,3337,3143,3289,3005,2978,3057,3088,3168,2937,3386,3381,3221,3279,2935,3278,3305,3025,0.009986187,1.960045743,1.957292652,0.453785598278,4500.0,0.428685247898,-0.00191524694674,-0.0251003541052,112.951591492,0.0,6000.0,-0.00199123844504,-4.21220611315e-05,0.0,0.0,0.349065840244,0.0240919683129,-0.0016111608129,0.3141708076,0.00163424795028,0.00163424795028,0.00185734161641,-0.0378648675978,111.26625824,111.26625824,0.621874511242,1.2312951088,2021,2028,2549,2020,2020,2931,3425,3422,3241,3359,3083,3058,3158,3152,3241,2866,3410,3415,3249,3362,3131,3353,3383,3187
1508399648161179854,197,1508399648160929412,plot_matl,0.25,-3000.0,0.223560914397,-0.00467849196866,-0.0264390800148,-80.5082702637,0.349065840244,0.0796194002032,-0.00199501262978,0.2235455513,-0.00160291616339,-0.00160291616339,3.32823256031e-05,-0.00418848590925,-74.7566070557,-74.7566070557,-0.346331804991,83.5558166504,2021,2060,2114,2013,2013,2695,3316,3337,3143,3290,3005,2975,3056,3087,3167,2939,3390,3380,3220,3279,2935,3278,3305,3025,0.009951969,1.969998413,1.960537893,0.453785598278,4500.0,0.428685247898,-0.00206481432542,-0.0251003541052,112.951591492,0.0,6000.0,-0.00199163029902,-3.44721665897e-05,0.0,0.0,0.349065840244,0.0240919683129,-0.0016111608129,0.3141708076,0.00163424795028,0.00163424795028,0.00185734161641,-0.0378648675978,111.26625824,111.26625824,0.621874511242,1.2312951088,2028,2027,2549,2020,2020,2931,3425,3422,3241,3358,3083,3058,3161,3151,3242,2864,3410,3413,3250,3362,3131,3353,3383,3187
1508399648171338314,198,1508399648170952364,plot_matl,0.25,-3000.0,0.223524600267,0.0339699648321,-0.0264754053205,-71.1110916138,0.349065840244,0.0796194002032,-0.0019942834042,0.223567456007,-0.00200314866379,-0.00200314866379,1.82664352906e-05,-0.00471900776029,-74.6279907227,-74.6279907227,-0.430730760098,83.5348205566,2013,2033,2114,2013,2013,2697,3316,3337,3143,3290,3005,2975,3056,3087,3167,2939,3390,3380,3220,3280,2937,3280,3304,3026,0.010024261,1.980022307,1.984803678,0.453785598278,4500.0,0.428685247898,-0.00168185518123,-0.0251003541052,112.951591492,0.0,6000.0,-0.00199194950983,-2.82397159026e-05,0.0,0.0,0.349065840244,0.0240919683129,-0.00162186322268,0.314129918814,0.00201842142269,0.00201842142269,0.00207466911525,-0.0367246940732,111.135902405,111.135902405,0.19563627243,1.50457513332,2023,2019,2548,2027,2027,2930,3425,3422,3241,3358,3083,3058,3161,3151,3242,2864,3410,3413,3250,3362,3132,3352,3384,3184
1508399648181094301,199,1508399648180925251,plot_matl,0.25,-3000.0,0.223420292139,-0.0018404382281,-0.0265797041357,-80.1910400391,0.349065840244,0.0796194002032,-0.0019942834042,0.223567456007,-0.00200314866379,-0.00200314866379,1.82664352906e-05,-0.00471900776029,-74.6279907227,-74.6279907227,-0.430730760098,83.5348205566,2023,2037,2114,2013,2013,2697,3316,3339,3141,3290,3005,2978,3057,3085,3166,2936,3385,3380,3220,3280,2937,3280,3304,3026,0.009970699,1.989994225,1.984169101,0.453785598278,4500.0,0.428685247898,-0.00192625797354,-0.0251003541052,112.951591492,0.0,6000.0,-0.0019922114443,-2.31305421039e-05,0.0,0.0,0.349065840244,0.0240919683129,-0.00162186322268,0.314129918814,0.00201842142269,0.00201842142269,0.00207466911525,-0.0367246940732,111.135902405,111.135902405,0.19563627243,1.50457513332,2029,2021,2548,2027,2027,2930,3425,3421,3239,3357,3082,3057,3160,3152,3241,2866,3410,3413,3250,3362,3132,3352,3384,3184
1508399648191050552,200,1508399648190918750,plot_matl,0.25,-3000.0,0.223403394222,-0.00150685245171,-0.0265966001898,-80.1591033936,0.349065840244,0.0796194002032,-0.0019942834042,0.223567456007,-0.00200314866379,-0.00200314866379,1.82664352906e-05,-0.00471900776029,-74.6279907227,-74.6279907227,-0.430730760098,83.5348205566,2025,2057,2114,2013,2013,2697,3316,3339,3141,3290,3005,2978,3057,3085,3166,2936,3385,3382,3221,3279,2936,3277,3303,3027,0.009993805,1.999987953,1.998761,0.453785598278,4500.0,0.428685247898,-0.00206553284079,-0.0251003541052,112.951591492,0.0,6000.0,-0.00199242611416,-1.89380516531e-05,0.0,0.0,0.349065840244,0.0240919683129,-0.00162186322268,0.314129918814,0.00201842142269,0.00201842142269,0.00207466911525,-0.0367246940732,111.135902405,111.135902405,0.19563627243,1.50457513332,2029,2021,2548,2021,2021,2930,3425,3421,3239,3357,3082,3057,3160,3152,3241,2866,3410,3415,3249,3365,3131,3352,3384,3184
1508399648201386555,201,1508399648200940544,plot_matl,0.25,-3000.0,0.223387092352,-0.00119869306218,-0.0266129057854,-80.129119873,0.349065840244,0.0796194002032,-0.0019942834042,0.223567456007,-0.00200314866379,-0.00200314866379,1.82664352906e-05,-0.00471900776029,-74.6279907227,-74.6279907227,-0.430730760098,83.5348205566,2004,2045,2114,2013,2013,2696,3317,3338,3143,3287,3002,2975,3055,3087,3167,2936,3385,3382,3221,3279,2936,3277,3303,3027,0.010023218,2.010010437,2.014666818,0.453785598278,4500.0,0.428685247898,-0.001684731571,-0.0251003541052,112.951591492,0.0,6000.0,-0.00199260213412,-1.55042071128e-05,0.0,0.0,0.349065840244,0.0240919683129,-0.00162186322268,0.314129918814,0.00201842142269,0.00201842142269,0.00207466911525,-0.0367246940732,111.135902405,111.135902405,0.19563627243,1.50457513332,2021,2023,2548,2021,2021,2931,3424,3423,3238,3357,3083,3056,3160,3151,3239,2866,3410,3415,3249,3365,3131,3352,3384,3184
1508399648211218604,202,1508399648210941726,plot_matl,0.25,-3000.0,0.223338395357,-0.0381359532475,-0.0266616027802,-89.3054199219,0.349065840244,0.0809688791633,-0.0019916985184,0.223551869392,0.0123685421422,0.0123685421422,-3.31390729116e-05,-0.00449756719172,-74.9010162354,-74.9010162354,-0.85237967968,83.2566604614,2009,2065,2114,2013,2013,2696,3317,3338,3143,3287,3002,2975,3055,3087,3167,2937,3390,3382,3220,3281,2935,3279,3305,3026,0.010000124,2.020011368,2.020025048,0.453785598278,4500.0,0.428685247898,-0.000919930753298,-0.0251003541052,112.951591492,0.0,6000.0,-0.00196921313182,-0.000488336663693,0.0,0.0,0.349065840244,0.0265011657029,-0.00164076487999,0.31423702836,0.0238781683147,0.0238781683147,-0.0128868333995,0.0231521558017,111.120162964,111.120162964,0.145984843373,1.42231369019,2024,2030,2548,2021,2021,2931,3424,3423,3238,3357,3083,3056,3160,3151,3239,2865,3410,3416,3250,3365,3131,3350,3382,3186
1508399648221294369,203,1508399648220944426,plot_matl,0.25,-3000.0,0.223406493664,-0.00162286160048,-0.0265935081989,-80.1601486206,0.349065840244,0.0809688791633,-0.0019916985184,0.223551869392,0.0123685421422,0.0123685421422,-3.31390729116e-05,-0.00449756719172,-74.9010162354,-74.9010162354,-0.85237967968,83.2566604614,2015,2062,2114,2013,2013,2697,3317,3339,3144,3288,3004,2977,3054,3087,3167,2937,3390,3382,3220,3281,2935,3279,3305,3026,0.010002584,2.030013978,2.030524552,0.453785598278,4500.0,0.428685247898,-0.00127663044259,-0.0251003541052,112.951591492,0.0,6000.0,-0.00197360035963,-0.000399743876187,0.0,0.0,0.349065840244,0.0265011657029,-0.00164076487999,0.31423702836,0.0238781683147,0.0238781683147,-0.0128868333995,0.0231521558017,111.120162964,111.120162964,0.145984843373,1.42231369019,2020,2030,2548,2022,2022,2931,3423,3422,3240,3359,3083,3056,3159,3151,3239,2865,3410,3416,3250,3365,3131,3350,3382,3186
1508399648231306003,204,1508399648230969161,plot_matl,0.25,-3000.0,0.223396912217,-0.00137633888517,-0.0266030915082,-80.1170272827,0.349065840244,0.0809688791633,-0.0019916985184,0.223551869392,0.0123685421422,0.0123685421422,-3.31390729116e-05,-0.00449756719172,-74.9010162354,-74.9010162354,-0.85237967968,83.2566604614,2013,2057,2114,2013,2013,2697,3317,3339,3144,3288,3004,2977,3054,3087,3165,2937,3386,3380,3218,3281,2936,3278,3304,3026,0.010024942,2.040039124,2.045088168,0.453785598278,4500.0,0.427335768938,-0.028350289911,-0.0264498349279,119.024261475,0.0,6000.0,-0.00198838673532,-0.000102797886939,0.0,0.0,0.349065840244,0.0265011657029,-0.00164076487999,0.31423702836,0.0238781683147,0.0238781683147,-0.0128868333995,0.0231521558017,111.120162964,111.120162964,0.145984843373,1.42231369019,2026,2034,2548,2022,2022,2931,3423,3422,3240,3359,3083,3056,3159,3152,3240,2865,3409,3414,3249,3365,3134,3353,3383,3186
1508399648241111484,205,1508399648240927156,plot_matl,0.25,-3000.0,0.223396912217,-0.00137633888517,-0.0266030915082,-80.1170272827,0.349065840244,0.0809688791633,-0.0019916985184,0.223551869392,0.0123685421422,0.0123685421422,-3.31390729116e-05,-0.00449756719172,-74.9010162354,-74.9010162354,-0.85237967968,83.2566604614,2013,2057,2114,2013,2013,2697,3317,3339,3144,3288,3004,2977,3054,3087,3165,2937,3386,3380,3218,3281,2936,3278,3304,3026,0.009955715,2.049996068,2.040921575,0.453785598278,4500.0,0.427335768938,-0.028350289911,-0.0264498349279,119.024261475,0.0,6000.0,-0.00198838673532,-0.000102797886939,0.0,0.0,0.349065840244,0.0265011657029,-0.00164076487999,0.31423702836,0.0238781683147,0.0238781683147,-0.0128868333995,0.0231521558017,111.120162964,111.120162964,0.145984843373,1.42231369019,2026,2034,2548,2022,2022,2931,3423,3422,3240,3359,3083,3056,3159,3152,3240,2865,3409,3414,3249,3365,3134,3353,3383,3186
1508399648251403202,206,1508399648250988817,plot_matl,0.25,-3000.0,0.223383978009,-0.00111582234967,-0.0266160275787,-80.1245117188,0.349065840244,0.0782699212432,-0.00197946140543,0.223384737968,-0.0141699304804,-0.0141699304804,0.0131422551349,-0.00115166744217,-75.0699386597,-75.0699386597,-0.547801971436,83.6377029419,2027,2062,2114,2014,2014,2697,3314,3338,3165,3307,3020,2977,3054,3087,3165,2937,3386,3380,3218,3281,2936,3278,3304,3023,0.010062738,2.060058292,2.072924028,0.453785598278,4500.0,0.428685247898,-0.000713256769814,-0.0251003541052,112.951591492,0.0,6000.0,-0.00199002213776,-6.9240173616e-05,0.0,0.0,0.349065840244,0.0240919683129,-0.00166319066193,0.314212173223,0.000958470802289,0.000958470802289,0.00290502095595,0.0237198211253,111.21598053,111.21598053,0.0877692699432,1.88018298149,2034,2029,2549,2023,2023,2929,3425,3422,3258,3377,3096,3056,3159,3152,3240,2865,3409,3414,3249,3365,3134,3353,3383,3186
1508399648261187402,207,1508399648260945310,plot_matl,0.25,-3000.0,0.223449230194,0.035501152277,-0.0265507753938,-70.4738998413,0.349065840244,0.0782699212432,-0.00197946140543,0.223384737968,-0.0141699304804,-0.0141699304804,0.0131422551349,-0.00115166744217,-75.0699386597,-75.0699386597,-0.547801971436,83.6377029419,2005,2047,2114,2014,2014,2697,3314,3338,3165,3307,3020,2989,3069,3099,3178,2949,3397,3389,3228,3290,2940,3278,3304,3023,0.0099561,2.070014752,2.0609127,0.453785598278,4500.0,0.428685247898,-0.00070382776903,-0.0251003541052,112.951591492,0.0,6000.0,-0.00199063657783,-5.66312519368e-05,0.0,0.0,0.349065840244,0.0240919683129,-0.00166319066193,0.314212173223,0.000958470802289,0.000958470802289,0.00290502095595,0.0237198211253,111.21598053,111.21598053,0.0877692699432,1.88018298149,2023,2021,2549,2023,2023,2929,3425,3422,3258,3377,3096,3069,3170,3162,3249,2874,3417,3422,3257,3370,3138,3353,3383,3186
1508399648271356760,208,1508399648270995887,plot_matl,0.25,-3000.0,0.223458752036,0.0352859124541,-0.026541242376,-71.1557922363,0.349065840244,0.0782699212432,-0.00197946140543,0.223384737968,-0.0141699304804,-0.0141699304804,0.0131422551349,-0.00115166744217,-75.0699386597,-75.0699386597,-0.547801971436,83.6377029419,2014,2057,2114,2012,2012,2700,3321,3343,3145,3307,3020,2989,3069,3099,3178,2949,3397,3389,3228,3290,2940,3283,3310,3031,0.01005124,2.080065785,2.09065792,0.453785598278,4500.0,0.428685247898,-6.87350693624e-05,-0.0251003541052,112.951591492,0.0,6000.0,-0.00199113343842,-4.6435452532e-05,0.0,0.0,0.349065840244,0.0240919683129,-0.00166319066193,0.314212173223,0.000958470802289,0.000958470802289,0.00290502095595,0.0237198211253,111.21598053,111.21598053,0.0877692699432,1.88018298149,2020,2024,2549,2018,2018,2934,3427,3426,3241,3377,3096,3069,3170,3162,3249,2874,3417,3422,3257,3370,3138,3360,3388,3190
1508399648281236194,209,1508399648280937453,plot_matl,0.25,-3000.0,0.223538413644,0.0336646214128,-0.0264615863562,-71.3111419678,0.349065840244,0.0782699212432,-0.00197946140543,0.223384737968,-0.0141699304804,-0.0141699304804,0.0131422551349,-0.00115166744217,-75.0699386597,-75.0699386597,-0.547801971436,83.6377029419,2006,2047,2114,2012,2012,2700,3321,3343,3145,3293,3006,2978,3059,3089,3169,2941,3388,3383,3222,3290,2940,3283,3310,3031,0.009940705,2.090007091,2.077607345,0.453785598278,4500.0,0.427335768938,-0.0263090096414,-0.0264498349279,119.024261475,0.0,6000.0,-0.00199154368602,-3.80166893592e-05,0.0,0.0,0.349065840244,0.0240919683129,-0.00166319066193,0.314212173223,0.000958470802289,0.000958470802289,0.00290502095595,0.0237198211253,111.21598053,111.21598053,0.0877692699432,1.88018298149,2020,2023,2549,2018,2018,2934,3427,3426,3241,3360,3085,3059,3162,3153,3242,2866,3411,3417,3250,3370,3138,3360,3388,3190
1508399648291442828,210,1508399648290979533,plot_matl,0.25,-3000.0,0.223504304886,-0.00356175890192,-0.0264957007021,-80.3481369019,0.349065840244,0.0796194002032,-0.00198988406919,0.223348349333,-0.000371206377167,-0.000371206377167,-7.20705211279e-05,-0.000394319824409,-75.5131454468,-75.5131454468,-1.00629878044,82.9713287354,2009,2051,2114,2010,2010,2699,3319,3343,3145,3293,3006,2978,3059,3089,3169,2941,3388,3383,3222,3281,2938,3279,3305,3026,0.010041823,2.100049416,2.10878283,0.453785598278,4500.0,0.430034726858,0.0294696111232,-0.0237508714199,106.878929138,0.0,6000.0,-0.00199187966064,-3.11235089612e-05,0.0,0.0,0.349065840244,0.0240919683129,-0.00163927488029,0.313807100058,0.00543937413022,0.00543937413022,0.00246222317219,0.0322540402412,110.811546326,110.811546326,0.117717944086,1.50922894478,2024,2026,2549,2020,2020,2932,3425,3426,3241,3360,3085,3059,3162,3153,3242,2866,3411,3417,3250,3364,3135,3354,3383,3186
1508399648301366228,211,1508399648300991429,plot_matl,0.25,-3000.0,0.223538860679,-0.00427196733654,-0.026461135596,-80.4091567993,0.349065840244,0.0796194002032,-0.00198988406919,0.223348349333,-0.000371206377167,-0.000371206377167,-7.20705211279e-05,-0.000394319824409,-75.5131454468,-75.5131454468,-1.00629878044,82.9713287354,2029,2058,2114,2010,2010,2699,3319,3337,3145,3288,3003,2978,3056,3086,3168,2940,3389,3383,3222,3281,2938,3279,3305,3026,0.010012001,2.110061436,2.112532211,0.453785598278,4500.0,0.428685247898,0.00318442005664,-0.0251003541052,112.951591492,0.0,6000.0,-0.00199215463363,-2.54801998381e-05,0.0,0.0,0.349065840244,0.0240919683129,-0.00163927488029,0.313807100058,0.00543937413022,0.00543937413022,0.00246222317219,0.0322540402412,110.811546326,110.811546326,0.117717944086,1.50922894478,2021,2020,2549,2020,2020,2932,3425,3422,3241,3361,3083,3058,3159,3153,3241,2866,3410,3417,3250,3364,3135,3354,3383,3186
1508399648311395864,212,1508399648310971302,plot_matl,0.25,-3000.0,0.223468258977,-0.00281983264722,-0.0265317391604,-80.2796783447,0.349065840244,0.0796194002032,-0.00198988406919,0.223348349333,-0.000371206377167,-0.000371206377167,-7.20705211279e-05,-0.000394319824409,-75.5131454468,-75.5131454468,-1.00629878044,82.9713287354,2016,2042,2115,2009,2009,2699,3319,3337,3145,3288,3003,2978,3056,3086,3168,2940,3389,3382,3221,3281,2935,3279,3306,3026,0.009979848,2.1200415,2.115727776,0.453785598278,4500.0,0.428685247898,0.00311380368657,-0.0251003541052,112.951591492,0.0,6000.0,-0.00199237978086,-2.08610290429e-05,0.0,0.0,0.349065840244,0.0240919683129,-0.00163927488029,0.313807100058,0.00543937413022,0.00543937413022,0.00246222317219,0.0322540402412,110.811546326,110.811546326,0.117717944086,1.50922894478,2021,2020,2549,2022,2022,2932,3425,3422,3241,3361,3083,3058,3159,3153,3241,2866,3410,3415,3248,3364,3135,3353,3383,3185
1508399648321368997,213,1508399648320965979,plot_matl,0.25,-3000.0,0.223298832774,-0.0372947119176,-0.0267011635005,-89.4447402954,0.349065840244,0.0796194002032,-0.00198988406919,0.223348349333,-0.000371206377167,-0.000371206377167,-7.20705211279e-05,-0.000394319824409,-75.5131454468,-75.5131454468,-1.00629878044,82.9713287354,2022,2051,2115,2009,2009,2698,3315,3338,3144,3289,3005,2975,3056,3089,3167,2940,3389,3382,3221,3281,2935,3279,3306,3026,0.009993704,2.130035761,2.128658952,0.453785598278,4500.0,0.428685247898,0.00306082936004,-0.0251003541052,112.951591492,0.0,6000.0,-0.00198162533343,-0.000238851236645,0.0,0.0,0.349065840244,0.0240919683129,-0.00163927488029,0.313807100058,0.00543937413022,0.00543937413022,0.00246222317219,0.0322540402412,110.811546326,110.811546326,0.117717944086,1.50922894478,2029,2025,2549,2022,2022,2931,3424,3421,3237,3358,3084,3056,3159,3151,3240,2866,3410,3415,3248,3364,3135,3353,3383,3185
1508399648331376132,214,1508399648330966078,plot_matl,0.25,-3000.0,0.223369657993,-0.000838620355353,-0.0266303382814,-80.0945358276,0.349065840244,0.0796194002032,-0.00199161656201,0.223493084311,0.00072361715138,0.00072361715138,-3.65230043826e-05,-0.0412458106875,-75.5985183716,-75.5985183716,-0.550263524055,82.77003479,2021,2057,2115,2009,2009,2698,3315,3338,3144,3289,3005,2975,3056,3089,3167,2939,3390,3381,3220,3281,2937,3278,3305,3026,0.009999332,2.14003566,2.139857048,0.453785598278,4500.0,0.427335768938,-0.0221547298133,-0.0264498349279,119.024261475,0.0,6000.0,-0.00198375992477,-0.000195535307284,0.0,0.0,0.349065840244,0.0240919683129,-0.00159160944168,0.313972294331,0.00465013179928,0.00465013179928,0.00148203177378,-0.0950335785747,110.987342834,110.987342834,-0.042062330991,1.56588435173,2021,2020,2549,2022,2022,2931,3424,3421,3237,3358,3084,3056,3159,3151,3240,2866,3410,3414,3248,3364,3132,3353,3385,3185
1508399648341395811,215,1508399648341002276,plot_matl,0.25,-3000.0,0.223427757621,-0.0019789179787,-0.0265722405165,-80.4068984985,0.349065840244,0.0796194002032,-0.00199161656201,0.223493084311,0.00072361715138,0.00072361715138,-3.65230043826e-05,-0.0412458106875,-75.5985183716,-75.5985183716,-0.550263524055,82.77003479,2014,2056,2115,2017,2017,2697,3315,3339,3144,3288,3004,2976,3060,3089,3167,2939,3390,3381,3220,3281,2937,3278,3305,3026,0.010035935,2.150071972,2.157726025,0.453785598278,4500.0,0.428685247898,0.00573886651546,-0.0251003541052,112.951591492,0.0,6000.0,-0.00198571593501,-0.000155844245455,0.0,0.0,0.349065840244,0.0240919683129,-0.00159160944168,0.313972294331,0.00465013179928,0.00465013179928,0.00148203177378,-0.0950335785747,110.987342834,110.987342834,-0.042062330991,1.56588435173,2030,2029,2549,2025,2025,2931,3424,3420,3239,3360,3082,3057,3162,3151,3240,2866,3410,3414,3248,3364,3132,3353,3385,3185
1508399648351345877,216,1508399648350973758,plot_matl,0.25,-3000.0,0.223427757621,-0.0019789179787,-0.0265722405165,-80.4068984985,0.349065840244,0.0796194002032,-0.00199161656201,0.223493084311,0.00072361715138,0.00072361715138,-3.65230043826e-05,-0.0412458106875,-75.5985183716,-75.5985183716,-0.550263524055,82.77003479,2014,2056,2115,2017,2017,2697,3315,3339,3144,3288,3004,2976,3060,3089,3167,2939,3390,3381,3220,3281,2937,3278,3305,3026,0.009971268,2.160043475,2.153793888,0.453785598278,4500.0,0.428685247898,0.00573886651546,-0.0251003541052,112.951591492,0.0,6000.0,-0.00198571593501,-0.000155844245455,0.0,0.0,0.349065840244,0.0240919683129,-0.00159160944168,0.313972294331,0.00465013179928,0.00465013179928,0.00148203177378,-0.0950335785747,110.987342834,110.987342834,-0.042062330991,1.56588435173,2030,2029,2549,2025,2025,2931,3424,3420,3239,3360,3082,3057,3162,3151,3240,2866,3410,3414,3248,3364,3132,3353,3385,3185
1508399648361459973,217,1508399648360964752,plot_matl,0.25,-3000.0,0.223466694355,-0.00276490557007,-0.0265332981944,-80.2904891968,0.349065840244,0.0796194002032,-0.00199161656201,0.223493084311,0.00072361715138,0.00072361715138,-3.65230043826e-05,-0.0412458106875,-75.5985183716,-75.5985183716,-0.550263524055,82.77003479,2035,2057,2115,2017,2017,2697,3315,3339,3144,3288,3004,2976,3060,3089,3170,2941,3400,3392,3230,3290,2943,3284,3310,3026,0.009991304,2.170034669,2.168112968,0.453785598278,4500.0,0.430034726858,0.0320356115699,-0.0237508714199,106.878929138,0.0,6000.0,-0.00198760419153,-0.00011753054423,0.0,0.0,0.349065840244,0.0240919683129,-0.00159160944168,0.313972294331,0.00465013179928,0.00465013179928,0.00148203177378,-0.0950335785747,110.987342834,110.987342834,-0.042062330991,1.56588435173,2030,2030,2549,2025,2025,2931,3424,3420,3239,3360,3082,3057,3162,3155,3243,2867,3422,3428,3257,3373,3141,3357,3389,3185
1508399648371572393,218,1508399648371022060,plot_matl,0.25,-3000.0,0.223406523466,-0.0015643456718,-0.0265934765339,-80.1773681641,0.349065840244,0.0796194002032,-0.00198208191432,0.22333702445,0.00147104868665,0.00147104868665,-0.000229586017667,0.0377477519214,-75.5263442993,-75.5263442993,-0.214671209455,82.6766815186,2009,2046,2114,2014,2014,2700,3321,3343,3146,3294,3006,2976,3060,3089,3170,2941,3400,3392,3230,3290,2943,3284,3310,3031,0.0100579,2.180092028,2.1926222,0.453785598278,4500.0,0.428685247898,0.00388054922223,-0.0251003541052,112.951591492,0.0,6000.0,-0.00197695032693,-0.000338389130775,0.0,0.0,0.349065840244,0.0216827709228,-0.00162242969964,0.313899815083,-0.0209346860647,-0.0209346860647,0.00208528153598,0.0301378127187,110.909286499,110.909286499,0.0875709876418,1.5812587738,2023,2028,2549,2025,2025,2933,3426,3425,3240,3362,3087,3057,3162,3155,3243,2867,3422,3428,3257,3373,3141,3357,3389,3190
1508399648381382844,219,1508399648380955844,plot_matl,0.25,-3000.0,0.223421260715,-0.00185575266369,-0.0265787430108,-80.2026062012,0.349065840244,0.0796194002032,-0.00198208191432,0.22333702445,0.00147104868665,0.00147104868665,-0.000229586017667,0.0377477519214,-75.5263442993,-75.5263442993,-0.214671209455,82.6766815186,2017,2055,2114,2014,2014,2700,3321,3343,3146,3294,3006,2978,3059,3091,3169,2939,3389,3382,3223,3284,2936,3284,3310,3031,0.009933713,2.190026037,2.175483147,0.453785598278,4500.0,0.430034726858,0.0283894520253,-0.0237508714199,106.878929138,0.0,6000.0,-0.00197992194444,-0.000277249200735,0.0,0.0,0.349065840244,0.0216827709228,-0.00162242969964,0.313899815083,-0.0209346860647,-0.0209346860647,0.00208528153598,0.0301378127187,110.909286499,110.909286499,0.0875709876418,1.5812587738,2029,2030,2549,2025,2025,2933,3426,3425,3240,3362,3087,3058,3160,3154,3241,2866,3412,3416,3250,3365,3132,3357,3389,3190
1508399648391411190,220,1508399648390955166,plot_matl,0.25,-3000.0,0.223442703485,-0.0023273716215,-0.0265572909266,-80.2257080078,0.349065840244,0.0796194002032,-0.00198208191432,0.22333702445,0.00147104868665,0.00147104868665,-0.000229586017667,0.0377477519214,-75.5263442993,-75.5263442993,-0.214671209455,82.6766815186,2019,2053,2114,2017,2017,2696,3319,3341,3145,3294,3006,2978,3059,3091,3169,2939,3389,3382,3223,3284,2936,3282,3306,3026,0.009998756,2.200025254,2.19972632,0.453785598278,4500.0,0.428685247898,0.00039800198283,-0.0251003541052,112.951591492,0.0,6000.0,-0.00198237388395,-0.000226797739742,0.0,0.0,0.349065840244,0.0216827709228,-0.00162242969964,0.313899815083,-0.0209346860647,-0.0209346860647,0.00208528153598,0.0301378127187,110.909286499,110.909286499,0.0875709876418,1.5812587738,2032,2030,2549,2022,2022,2932,3424,3420,3239,3362,3087,3058,3160,3154,3241,2866,3412,3416,3250,3365,3132,3353,3384,3186
1508399648401316477,221,1508399648400970400,plot_matl,0.25,-3000.0,0.223521620035,-0.00397440558299,-0.0264783725142,-80.3773880005,0.349065840244,0.0796194002032,-0.00198208191432,0.22333702445,0.00147104868665,0.00147104868665,-0.000229586017667,0.0377477519214,-75.5263442993,-75.5263442993,-0.214671209455,82.6766815186,2019,2032,2114,2017,2017,2696,3319,3341,3145,3289,3005,2977,3058,3087,3165,2939,3388,3382,3221,3284,2936,3282,3306,3026,0.010014031,2.210040393,2.213100851,0.453785598278,4500.0,0.428685247898,0.00119828083552,-0.0251003541052,112.951591492,0.0,6000.0,-0.00198436505161,-0.000185827157111,0.0,0.0,0.349065840244,0.0216827709228,-0.00162242969964,0.313899815083,-0.0209346860647,-0.0209346860647,0.00208528153598,0.0301378127187,110.909286499,110.909286499,0.0875709876418,1.5812587738,2032,2023,2549,2022,2022,2932,3424,3420,3239,3359,3085,3060,3162,3150,3240,2866,3411,3415,3247,3365,3132,3353,3384,3186
1508399648411354334,222,1508399648410959469,plot_matl,0.25,-3000.0,0.223553314805,-0.00457983184606,-0.0264466870576,-80.3969802856,0.349065840244,0.0796194002032,-0.00197592913173,0.22341145575,0.00207332195714,0.00207332195714,-0.000359401485184,-0.0395657457411,-75.4020690918,-75.4020690918,-0.113403834403,82.1639251709,2021,2044,2114,2013,2013,2698,3316,3341,3145,3289,3005,2977,3058,3087,3165,2939,3388,3382,3221,3281,2937,3277,3306,3027,0.009987826,2.220029086,2.217297372,0.453785598278,4500.0,0.428685247898,0.00234711030498,-0.0251003541052,112.951591492,0.0,6000.0,-0.00198600394651,-0.000152103268192,0.0,0.0,0.349065840244,0.0240919683129,-0.00171747326385,0.313851296902,0.000693063717335,0.000693063717335,0.0041585881263,-0.0308529511094,110.849052429,110.849052429,0.446281373501,1.96681630611,2029,2017,2549,2021,2021,2931,3424,3420,3239,3359,3085,3060,3162,3150,3240,2866,3411,3415,3247,3365,3132,3352,3382,3186
1508399648421433081,223,1508399648420954416,plot_matl,0.25,-3000.0,0.223620131612,0.032003287226,-0.0263798665255,-71.6322250366,0.349065840244,0.0796194002032,-0.00197592913173,0.22341145575,0.00207332195714,0.00207332195714,-0.000359401485184,-0.0395657457411,-75.4020690918,-75.4020690918,-0.113403834403,82.1639251709,2021,2043,2114,2013,2013,2698,3316,3341,3144,3289,3004,2976,3057,3089,3167,2939,3388,3382,3221,3281,2937,3277,3306,3027,0.009996405,2.23002464,2.229198315,0.453785598278,4500.0,0.428685247898,0.00148028985132,-0.0251003541052,112.951591492,0.0,6000.0,-0.00196429132484,-0.00059631181648,0.0,0.0,0.349065840244,0.0240919683129,-0.00171747326385,0.313851296902,0.000693063717335,0.000693063717335,0.0041585881263,-0.0308529511094,110.849052429,110.849052429,0.446281373501,1.96681630611,2026,2022,2549,2021,2021,2931,3424,3422,3238,3358,3081,3056,3158,3150,3239,2866,3409,3415,3247,3365,3132,3352,3382,3186
1508399648431386600,224,1508399648430944523,plot_matl,0.25,-3000.0,0.223573133349,-0.00492587778717,-0.0264268685132,-80.4410171509,0.349065840244,0.0796194002032,-0.00197592913173,0.22341145575,0.00207332195714,0.00207332195714,-0.000359401485184,-0.0395657457411,-75.4020690918,-75.4020690918,-0.113403834403,82.1639251709,2015,2055,2115,2012,2012,2698,3316,3341,3144,3289,3004,2976,3057,3089,3167,2939,3388,3381,3222,3282,2937,3277,3306,3026,0.009988433,2.240014095,2.237408992,0.453785598278,4500.0,0.427335768938,-0.0240717642009,-0.0264498349279,119.024261475,0.0,6000.0,-0.00196959893219,-0.000487565179355,0.0,0.0,0.349065840244,0.0240919683129,-0.00171747326385,0.313851296902,0.000693063717335,0.000693063717335,0.0041585881263,-0.0308529511094,110.849052429,110.849052429,0.446281373501,1.96681630611,2025,2025,2549,2016,2016,2931,3424,3422,3238,3358,3081,3056,3158,3150,3239,2866,3409,3415,3250,3364,3132,3351,3381,3184
1508399648441416600,225,1508399648440945890,plot_matl,0.25,-3000.0,0.223527848721,-0.00402022013441,-0.0264721531421,-80.4273071289,0.349065840244,0.0796194002032,-0.00197592913173,0.22341145575,0.00207332195714,0.00207332195714,-0.000359401485184,-0.0395657457411,-75.4020690918,-75.4020690918,-0.113403834403,82.1639251709,2024,2077,2115,2012,2012,2698,3317,3339,3143,3290,3005,2977,3057,3086,3166,2939,3388,3381,3222,3282,2937,3277,3306,3026,0.01000061,2.250015542,2.25013725,0.453785598278,4500.0,0.428685247898,0.00262708868831,-0.0251003541052,112.951591492,0.0,6000.0,-0.00197391631082,-0.000399112381274,0.0,0.0,0.349065840244,0.0240919683129,-0.00171747326385,0.313851296902,0.000693063717335,0.000693063717335,0.0041585881263,-0.0308529511094,110.849052429,110.849052429,0.446281373501,1.96681630611,2018,2021,2549,2016,2016,2932,3422,3421,3237,3360,3082,3058,3161,3151,3240,2866,3409,3415,3250,3364,3132,3351,3381,3184
1508399648451354214,226,1508399648450963058,plot_matl,0.25,-3000.0,0.223561778665,-0.00472274189815,-0.0264382213354,-80.4286575317,0.349065840244,0.0796194002032,-0.00198554270901,0.223529011011,0.00152179948054,0.00152179948054,-0.000161592834047,-0.00410061236471,-75.3617019653,-75.3617019653,0.348582476377,81.9948883057,2020,2067,2114,2012,2012,2698,3317,3339,3143,3290,3005,2977,3057,3086,3166,2939,3386,3381,3219,3282,2936,3278,3304,3025,0.010016802,2.260032715,2.263797252,0.453785598278,4500.0,0.428685247898,0.0021512506064,-0.0251003541052,112.951591492,0.0,6000.0,-0.00198977696709,-8.2844919234e-05,0.0,0.0,0.349065840244,0.0216827709228,-0.00176550599281,0.314082533121,-0.0231767259538,-0.0231767259538,-0.010282792151,0.0263301879168,110.969474792,110.969474792,0.393124610186,1.26327180862,2019,2030,2549,2016,2016,2932,3422,3421,3237,3360,3082,3058,3161,3151,3240,2867,3409,3415,3247,3363,3132,3350,3382,3187
1508399648461367458,227,1508399648460945807,plot_matl,0.25,-3000.0,0.223526209593,0.0339003950357,-0.0264737922698,-71.1573410034,0.349065840244,0.0796194002032,-0.00198554270901,0.223529011011,0.00152179948054,0.00152179948054,-0.000161592834047,-0.00410061236471,-75.3617019653,-75.3617019653,0.348582476377,81.9948883057,2026,2052,2114,2016,2016,2698,3315,3337,3143,3289,3004,2976,3054,3086,3166,2939,3386,3381,3219,3282,2936,3278,3304,3025,0.009982764,2.27001578,2.266087428,0.453785598278,4500.0,0.430034726858,0.0298835802823,-0.0237508714199,106.878929138,0.0,6000.0,-0.00200249208137,0.000177426307346,0.0,0.0,0.349065840244,0.0216827709228,-0.00176550599281,0.314082533121,-0.0231767259538,-0.0231767259538,-0.010282792151,0.0263301879168,110.969474792,110.969474792,0.393124610186,1.26327180862,2026,2021,2549,2019,2019,2931,3423,3420,3239,3356,3082,3056,3158,3151,3240,2867,3409,3415,3247,3363,3132,3350,3382,3187
1508399648471674079,228,1508399648470969029,plot_matl,0.25,-3000.0,0.223528131843,-0.00403158599511,-0.0264718681574,-80.378578186,0.349065840244,0.0796194002032,-0.00198554270901,0.223529011011,0.00152179948054,0.00152179948054,-0.000161592834047,-0.00410061236471,-75.3617019653,-75.3617019653,0.348582476377,81.9948883057,2034,2056,2114,2016,2016,2698,3315,3337,3143,3289,3004,2976,3054,3089,3166,2939,3389,3379,3222,3279,2936,3278,3305,3025,0.010023412,2.280039192,2.285337936,0.453785598278,4500.0,0.428685247898,0.00354960630648,-0.0251003541052,112.951591492,0.0,6000.0,-0.00200084364042,0.000145269936183,0.0,0.0,0.349065840244,0.0216827709228,-0.00176550599281,0.314082533121,-0.0231767259538,-0.0231767259538,-0.010282792151,0.0263301879168,110.969474792,110.969474792,0.393124610186,1.26327180862,2025,2019,2549,2019,2019,2931,3423,3420,3239,3356,3082,3056,3158,3152,3241,2865,3411,3415,3248,3362,3131,3352,3383,3187
1508399648481339671,229,1508399648480965635,plot_matl,0.25,-3000.0,0.223523959517,-0.00395987508819,-0.0264760423452,-80.3777770996,0.349065840244,0.0796194002032,-0.00198554270901,0.223529011011,0.00152179948054,0.00152179948054,-0.000161592834047,-0.00410061236471,-75.3617019653,-75.3617019653,0.348582476377,81.9948883057,2024,2051,2114,2016,2016,2696,3315,3338,3144,3290,3004,2976,3054,3089,3166,2939,3389,3379,3222,3279,2936,3278,3305,3025,0.009995804,2.290035488,2.289039116,0.453785598278,4500.0,0.428685247898,0.00440127123147,-0.0251003541052,112.951591492,0.0,6000.0,-0.00199949368834,0.000118936986837,0.0,0.0,0.349065840244,0.0216827709228,-0.00176550599281,0.314082533121,-0.0231767259538,-0.0231767259538,-0.010282792151,0.0263301879168,110.969474792,110.969474792,0.393124610186,1.26327180862,2023,2020,2549,2024,2024,2932,3424,3422,3239,3357,3083,3056,3158,3152,3241,2865,3411,3415,3248,3362,3131,3352,3383,3187
1508399648491448697,230,1508399648490972580,plot_matl,0.25,-3000.0,0.223560154438,0.0332598723471,-0.0264398436993,-70.559928894,0.349065840244,0.0796194002032,-0.00198955298401,0.223537743092,0.00114223128185,0.00114223128185,-8.79749277374e-05,-0.00424292543903,-75.2099761963,-75.2099761963,0.565064549446,82.068397522,2016,2047,2114,2016,2016,2696,3315,3338,3144,3290,3004,2974,3058,3087,3168,2939,3387,3381,3221,3281,2938,3278,3305,3025,0.010007787,2.300042673,2.30179101,0.453785598278,4500.0,0.430034726858,0.0293864011765,-0.0237508714199,106.878929138,0.0,6000.0,-0.00199837749824,9.71631016e-05,0.0,0.0,0.349065840244,0.0240919683129,-0.00172957964242,0.313957422972,0.00360099552199,0.00360099552199,-0.0110471053049,0.0287761539221,111.107978821,111.107978821,0.191452234983,1.4694288969,2032,2026,2549,2024,2024,2932,3424,3422,3239,3357,3083,3058,3159,3151,3239,2864,3410,3415,3250,3363,3134,3352,3383,3187
