%time,field.header.seq,field.header.stamp,field.header.frame_id,field.FFJ4_set_point,field.FFJ4_position_gain,field.FFJ4_process_value,field.FFJ4_process_value_dot,field.FFJ4_error,field.FFJ4_command,field.FFJ1,field.FFJ2,field.FFJ3,field.FFJ4,field.FFJ1_dot,field.FFJ2_dot,field.FFJ3_dot,field.FFJ4_dot,field.FFJ1_tao,field.FFJ2_tao,field.FFJ3_tao,field.FFJ4_tao,field.pac0,field.pac1,field.pdc0,field.tac0,field.tdc0,field.el0,field.el1,field.el2,field.el3,field.el4,field.el5,field.el6,field.el7,field.el8,field.el9,field.el10,field.el11,field.el12,field.el13,field.el14,field.el15,field.el16,field.el17,field.el18,field.dt,field.time,field.test_time2,field.FFJ0_set_point,field.FFJ0_position_gain,field.FFJ0_process_value,field.FFJ0_process_value_dot,field.FFJ0_error,field.FFJ0_command,field.FFJ3_set_point,field.FFJ3_position_gain,field.FFJ3_process_value,field.FFJ3_process_value_dot,field.FFJ3_error,field.FFJ3_command,field.MFJ1,field.MFJ2,field.MFJ3,field.MFJ4,field.MFJ1_dot,field.MFJ2_dot,field.MFJ3_dot,field.MFJ4_dot,field.MFJ1_tao,field.MFJ2_tao,field.MFJ3_tao,field.MFJ4_tao,field.Mpac0,field.Mpac1,field.Mpdc0,field.Mtac0,field.Mtdc0,field.Mel0,field.Mel1,field.Mel2,field.Mel3,field.Mel4,field.Mel5,field.Mel6,field.Mel7,field.Mel8,field.Mel9,field.Mel10,field.Mel11,field.Mel12,field.Mel13,field.Mel14,field.Mel15,field.Mel16,field.Mel17,field.Mel18
1508400194969530909,193,1508400194969322157,plot_matl,-0.300000011921,-500.0,-0.189712837338,0.00187515385915,0.110287167132,55.5952415466,0.349065840244,0.110657475889,-0.00863768905401,-0.189705714583,0.00130266789347,0.00130266789347,-1.07969744931e-05,0.00170962675475,-12.2004899979,-12.2004899979,-0.696533858776,-92.6938400269,2021,2049,2115,2022,2022,2791,3344,3356,3173,3302,3025,2972,3065,3076,3169,2870,3370,3365,3192,3267,2912,3282,3305,3027,0.009995679,1.929996078,1.929166047,0.453785598278,4500.0,0.459723323584,0.00495165353641,0.0,0.0,0.0,6000.0,-0.00865395460278,0.000321872648783,-0.00865395460278,51.8273506165,0.349065840244,0.0289103612304,-0.0051559843123,0.309185653925,0.0189417041838,0.0189417041838,-0.00324305100366,0.00167932349723,110.215049744,110.215049744,-0.00836743041873,1.07279014587,2025,2031,2550,2030,2030,2929,3424,3421,3239,3359,3084,3058,3160,3154,3240,2868,3411,3416,3251,3365,3134,3353,3383,3186
1508400194979538498,194,1508400194979325088,plot_matl,-0.300000011921,-500.0,-0.189712837338,0.00187515385915,0.110287167132,55.5952415466,0.349065840244,0.110657475889,-0.00863768905401,-0.189705714583,0.00130266789347,0.00130266789347,-1.07969744931e-05,0.00170962675475,-12.2004899979,-12.2004899979,-0.696533858776,-92.6938400269,2021,2049,2115,2022,2022,2791,3344,3356,3173,3302,3025,2972,3065,3076,3169,2870,3370,3365,3192,3267,2912,3282,3305,3027,0.010003133,1.939999136,1.940607802,0.453785598278,4500.0,0.459723323584,0.00495165353641,0.0,0.0,0.0,6000.0,-0.00865395460278,0.000321872648783,-0.00865395460278,51.8273506165,0.349065840244,0.0289103612304,-0.0051559843123,0.309185653925,0.0189417041838,0.0189417041838,-0.00324305100366,0.00167932349723,110.215049744,110.215049744,-0.00836743041873,1.07279014587,2025,2031,2550,2030,2030,2929,3424,3421,3239,3359,3084,3058,3160,3154,3240,2868,3411,3416,3251,3365,3134,3353,3383,3186
1508400194989495015,195,1508400194989325643,plot_matl,-0.300000011921,-500.0,-0.189712062478,0.00181938137393,0.110287934542,55.5711975098,0.349065840244,0.110657475889,-0.00863768905401,-0.189705714583,0.00130266789347,0.00130266789347,-1.07969744931e-05,0.00170962675475,-12.2004899979,-12.2004899979,-0.696533858776,-92.6938400269,2030,2077,2115,2022,2022,2791,3344,3356,3173,3302,3025,2971,3064,3077,3167,2871,3368,3364,3189,3267,2925,3282,3305,3027,0.010000034,1.949999622,1.95000663,0.453785598278,4500.0,0.459723323584,0.00556300580502,0.0,0.0,0.0,6000.0,-0.0086498549208,0.000238892476773,-0.0086498549208,51.8309020996,0.349065840244,0.0289103612304,-0.0051559843123,0.309185653925,0.0189417041838,0.0189417041838,-0.00324305100366,0.00167932349723,110.215049744,110.215049744,-0.00836743041873,1.07279014587,2037,2037,2550,2030,2030,2929,3424,3421,3239,3359,3084,3056,3160,3152,3241,2870,3412,3417,3252,3365,3146,3353,3383,3186
1508400194999498527,196,1508400194999324782,plot_matl,-0.300000011921,-500.0,-0.18970644474,-0.00425833882764,0.11029355973,54.1557655334,0.349065840244,0.110657475889,-0.00863768905401,-0.189705714583,0.00130266789347,0.00130266789347,-1.07969744931e-05,0.00170962675475,-12.2004899979,-12.2004899979,-0.696533858776,-92.6938400269,2014,2062,2115,2020,2020,2795,3348,3365,3179,3302,3025,2971,3064,3077,3167,2871,3368,3364,3189,3267,2925,3292,3317,3040,0.00999898,1.959998674,1.95980008,0.453785598278,4500.0,0.458373844624,-0.0201537944376,0.0,0.0,0.0,6000.0,-0.0086477175355,0.000195647415239,-0.0086477175355,51.8290214539,0.349065840244,0.0289103612304,-0.0051559843123,0.309185653925,0.0189417041838,0.0189417041838,-0.00324305100366,0.00167932349723,110.215049744,110.215049744,-0.00836743041873,1.07279014587,2030,2035,2550,2028,2028,2934,3428,3427,3242,3359,3084,3056,3160,3152,3241,2870,3412,3417,3252,3365,3146,3362,3393,3198
1508400195009527445,197,1508400195009327089,plot_matl,-0.300000011921,-500.0,-0.189706355333,0.00172369100619,0.110293641686,55.565864563,0.349065840244,0.109307989478,-0.00865908153355,-0.189723223448,-0.0106656476855,-0.0106656476855,0.000425623002229,0.00208053854294,-12.7784729004,-12.7784729004,-1.05838263035,-92.9216003418,2023,2073,2115,2020,2020,2795,3348,3365,3179,3306,3028,2976,3068,3081,3170,2871,3371,3367,3193,3267,2925,3292,3317,3040,0.010002208,1.970000852,1.970434976,0.453785598278,4500.0,0.459723323584,0.00680092675611,0.0,0.0,0.0,6000.0,-0.00864596571773,0.00016018259339,-0.00864596571773,51.8279685974,0.349065840244,0.0265011657029,-0.00516159506515,0.308943301439,-0.00510576413944,-0.00510576413944,-0.00312430062331,0.00648394040763,110.177482605,110.177482605,0.0208922401071,0.881089150906,2028,2032,2550,2028,2028,2934,3428,3427,3242,3362,3086,3061,3162,3156,3245,2872,3415,3418,3253,3365,3146,3362,3393,3198
1508400195019774458,198,1508400195019360720,plot_matl,-0.300000011921,-500.0,-0.189706608653,0.00173363240901,0.110293380916,55.5687141418,0.349065840244,0.109307989478,-0.00865908153355,-0.189723223448,-0.0106656476855,-0.0106656476855,0.000425623002229,0.00208053854294,-12.7784729004,-12.7784729004,-1.05838263035,-92.9216003418,2031,2057,2115,2023,2023,2793,3345,3365,3179,3306,3028,2976,3068,3081,3170,2871,3371,3367,3193,3269,2914,3282,3308,3029,0.01003514,1.980035582,1.98695772,0.453785598278,4500.0,0.459723323584,0.00656727654859,0.0,0.0,0.0,6000.0,-0.00864453148097,0.000131151435198,-0.00864453148097,51.8278694153,0.349065840244,0.0265011657029,-0.00516159506515,0.308943301439,-0.00510576413944,-0.00510576413944,-0.00312430062331,0.00648394040763,110.177482605,110.177482605,0.0208922401071,0.881089150906,2031,2025,2550,2033,2033,2930,3425,3427,3242,3362,3086,3061,3162,3156,3245,2872,3415,3418,3253,3369,3136,3353,3386,3186
1508400195029810268,199,1508400195029341505,plot_matl,-0.300000011921,-500.0,-0.189695894718,0.00151940411888,0.110304102302,55.5242805481,0.349065840244,0.109307989478,-0.00865908153355,-0.189723223448,-0.0106656476855,-0.0106656476855,0.000425623002229,0.00208053854294,-12.7784729004,-12.7784729004,-1.05838263035,-92.9216003418,2024,2059,2115,2023,2023,2793,3345,3360,3174,3305,3026,2974,3067,3078,3168,2868,3367,3367,3193,3269,2914,3282,3308,3029,0.009979492,1.990016037,1.985918908,0.453785598278,4500.0,0.459723323584,0.00686789071187,0.0,0.0,0.0,6000.0,-0.00864335522056,0.000107354186184,-0.00864335522056,51.8277549744,0.349065840244,0.0265011657029,-0.00516159506515,0.308943301439,-0.00510576413944,-0.00510576413944,-0.00312430062331,0.00648394040763,110.177482605,110.177482605,0.0208922401071,0.881089150906,2027,2023,2550,2033,2033,2930,3425,3423,3239,3360,3082,3060,3162,3153,3243,2870,3412,3418,3253,3369,3136,3353,3386,3186
1508400195040014374,200,1508400195039407338,plot_matl,-0.300000011921,-500.0,-0.18969334662,-0.00450862571597,0.1103066504,53.9923171997,0.349065840244,0.109307989478,-0.00865908153355,-0.189723223448,-0.0106656476855,-0.0106656476855,0.000425623002229,0.00208053854294,-12.7784729004,-12.7784729004,-1.05838263035,-92.9216003418,2030,2063,2115,2021,2021,2793,3345,3360,3174,3305,3026,2974,3067,3078,3168,2868,3367,3365,3191,3269,2911,3281,3306,3027,0.010066866,2.00008217,2.0133732,0.453785598278,4500.0,0.458373844624,-0.0186450127512,0.0,0.0,0.0,6000.0,-0.00865322444588,0.000308106478769,-0.00865322444588,51.8202133179,0.349065840244,0.0265011657029,-0.00516159506515,0.308943301439,-0.00510576413944,-0.00510576413944,-0.00312430062331,0.00648394040763,110.177482605,110.177482605,0.0208922401071,0.881089150906,2025,2025,2550,2027,2027,2930,3425,3423,3239,3360,3082,3060,3162,3153,3243,2870,3412,3416,3252,3367,3135,3355,3385,3188
1508400195049959849,201,1508400195049384551,plot_matl,-0.300000011921,-500.0,-0.189701125026,0.00163064117078,0.110298871994,55.5451927185,0.349065840244,0.110657475889,-0.00864752661437,-0.189704716206,0.0034833943937,0.0034833943937,0.000191773622646,0.00168357929215,-12.4821243286,-12.4821243286,-0.837737798691,-92.4876861572,2021,2059,2115,2021,2021,2791,3342,3360,3174,3305,3026,2974,3066,3078,3168,2868,3367,3365,3191,3269,2911,3281,3306,3027,0.009977218,2.010059453,2.005420818,0.453785598278,4500.0,0.458373844624,-0.018728910014,0.0,0.0,0.0,6000.0,-0.00863918382674,2.07146240427e-05,-0.00863918382674,51.8282241821,0.349065840244,0.0265011657029,-0.005178516265,0.309112519026,-0.004752705805,-0.004752705805,-0.00271510239691,0.00310074933805,110.013511658,110.013511658,-0.150311052799,1.02520668507,2019,2021,2550,2027,2027,2929,3424,3423,3240,3361,3082,3061,3159,3154,3242,2870,3412,3416,3252,3367,3135,3355,3385,3188
1508400195059866662,202,1508400195059403783,plot_matl,-0.300000011921,-500.0,-0.189691111445,0.00143419159576,0.110308885574,55.5173339844,0.349065840244,0.110657475889,-0.00864752661437,-0.189704716206,0.0034833943937,0.0034833943937,0.000191773622646,0.00168357929215,-12.4821243286,-12.4821243286,-0.837737798691,-92.4876861572,2023,2054,2116,2021,2021,2791,3342,3360,3174,3305,3026,2974,3066,3078,3168,2869,3368,3365,3191,3270,2912,3279,3307,3028,0.010017033,2.020077916,2.023440666,0.453785598278,4500.0,0.458373844624,-0.018223920837,0.0,0.0,0.0,6000.0,-0.00866371765733,0.000506683951244,-0.00866371765733,51.8193473816,0.349065840244,0.0265011657029,-0.005178516265,0.309112519026,-0.004752705805,-0.004752705805,-0.00271510239691,0.00310074933805,110.013511658,110.013511658,-0.150311052799,1.02520668507,2022,2023,2550,2027,2027,2929,3424,3423,3240,3361,3082,3061,3159,3154,3242,2871,3413,3417,3251,3365,3134,3354,3382,3186
1508400195069742745,203,1508400195069349083,plot_matl,-0.300000011921,-500.0,-0.189704164863,0.00170106091537,0.110295839608,55.5096511841,0.349065840244,0.110657475889,-0.00864752661437,-0.189704716206,0.0034833943937,0.0034833943937,0.000191773622646,0.00168357929215,-12.4821243286,-12.4821243286,-0.837737798691,-92.4876861572,2023,2041,2116,2019,2019,2792,3343,3359,3175,3304,3026,2971,3065,3078,3168,2869,3368,3365,3191,3270,2912,3279,3307,3028,0.009945893,2.030023995,2.019016279,0.453785598278,4500.0,0.459723323584,0.00735902879387,0.0,0.0,0.0,6000.0,-0.00865909550339,0.00041542769759,-0.00865909550339,51.8419532776,0.349065840244,0.0265011657029,-0.005178516265,0.309112519026,-0.004752705805,-0.004752705805,-0.00271510239691,0.00310074933805,110.013511658,110.013511658,-0.150311052799,1.02520668507,2026,2022,2550,2029,2029,2930,3425,3422,3238,3361,3082,3058,3161,3154,3242,2871,3413,3417,3251,3365,3134,3354,3382,3186
1508400195079683870,204,1508400195079333732,plot_matl,-0.300000011921,-500.0,-0.189692735672,0.00147054181434,0.110307261348,55.5086250305,0.349065840244,0.110657475889,-0.00864752661437,-0.189704716206,0.0034833943937,0.0034833943937,0.000191773622646,0.00168357929215,-12.4821243286,-12.4821243286,-0.837737798691,-92.4876861572,2023,2071,2116,2019,2019,2792,3343,3359,3175,3304,3026,2971,3065,3078,3168,2869,3368,3364,3204,3280,2920,3289,3314,3028,0.009982985,2.040007907,2.03652894,0.453785598278,4500.0,0.459723323584,0.00808920245618,0.0,0.0,0.0,6000.0,-0.00865260511637,0.013706038706,-0.00865260511637,47.7918815613,0.349065840244,0.0265011657029,-0.005178516265,0.309112519026,-0.004752705805,-0.004752705805,-0.00271510239691,0.00310074933805,110.013511658,110.013511658,-0.150311052799,1.02520668507,2024,2032,2550,2029,2029,2930,3425,3422,3238,3361,3082,3058,3161,3152,3240,2870,3411,3418,3265,3378,3144,3363,3391,3186
1508400195089806046,205,1508400195089362802,plot_matl,-0.300000011921,-500.0,-0.189692735672,0.00147054181434,0.110307261348,55.5086250305,0.349065840244,0.109307989478,-0.00865295343101,-0.18969732523,-0.00915602222085,-0.00915602222085,0.000302604224999,-0.00442810961977,-12.1726932526,-12.1726932526,-0.416554808617,-92.4320983887,2021,2058,2115,2021,2021,2797,3348,3361,3178,3307,3029,2971,3065,3078,3168,2869,3368,3364,3204,3280,2920,3289,3314,3037,0.010029857,2.050037669,2.056120685,0.453785598278,4500.0,0.459723323584,0.00759100308642,0.0,0.0,0.0,6000.0,-0.00864995270967,0.000222457441851,-0.00864995270967,51.8293266296,0.349065840244,0.0265011657029,-0.00521090254188,0.309194564819,-0.00422952556983,-0.00422952556983,-0.00210134289227,0.00140905217268,110.308708191,110.308708191,-0.12902700901,0.945139408112,2019,2025,2550,2033,2033,2935,3428,3426,3244,3364,3085,3058,3161,3152,3240,2870,3411,3418,3265,3378,3144,3363,3391,3194
1508400195099767804,206,1508400195099340866,plot_matl,-0.300000011921,-500.0,-0.189706429839,0.00174901227001,0.110293567181,55.5674133301,0.349065840244,0.109307989478,-0.00865295343101,-0.18969732523,-0.00915602222085,-0.00915602222085,0.000302604224999,-0.00442810961977,-12.1726932526,-12.1726932526,-0.416554808617,-92.4320983887,2016,2050,2115,2021,2021,2797,3348,3361,3178,3307,3029,2978,3070,3080,3169,2871,3371,3366,3192,3270,2914,3289,3314,3037,0.009977849,2.060015833,2.055436894,0.453785598278,4500.0,0.458373844624,-0.0200413502753,0.0,0.0,0.0,6000.0,-0.00864779669791,0.000182155374205,-0.00864779669791,51.8277206421,0.349065840244,0.0265011657029,-0.00521090254188,0.309194564819,-0.00422952556983,-0.00422952556983,-0.00210134289227,0.00140905217268,110.308708191,110.308708191,-0.12902700901,0.945139408112,2029,2019,2550,2033,2033,2935,3428,3426,3244,3364,3085,3061,3163,3156,3242,2871,3413,3421,3252,3366,3136,3363,3391,3194
1508400195109830364,207,1508400195109383331,plot_matl,-0.300000011921,-500.0,-0.189700931311,0.00163771410007,0.11029907316,55.5446205139,0.349065840244,0.109307989478,-0.00865295343101,-0.18969732523,-0.00915602222085,-0.00915602222085,0.000302604224999,-0.00442810961977,-12.1726932526,-12.1726932526,-0.416554808617,-92.4320983887,2028,2061,2115,2022,2022,2792,3344,3360,3175,3307,3029,2978,3070,3080,3169,2871,3371,3366,3192,3270,2914,3281,3306,3029,0.01004204,2.070058354,2.07870228,0.453785598278,4500.0,0.459723323584,0.00784100778401,0.0,0.0,0.0,6000.0,-0.00864779669791,0.000182155374205,-0.00864779669791,51.8277206421,0.349065840244,0.0265011657029,-0.00521090254188,0.309194564819,-0.00422952556983,-0.00422952556983,-0.00210134289227,0.00140905217268,110.308708191,110.308708191,-0.12902700901,0.945139408112,2028,2022,2550,2029,2029,2930,3424,3424,3240,3364,3085,3061,3163,3156,3242,2871,3413,3421,3252,3366,3136,3356,3386,3188
1508400195119739988,208,1508400195119336845,plot_matl,-0.300000011921,-500.0,-0.189696833491,0.00155210064258,0.110303163528,55.5257797241,0.349065840244,0.109307989478,-0.00865295343101,-0.18969732523,-0.00915602222085,-0.00915602222085,0.000302604224999,-0.00442810961977,-12.1726932526,-12.1726932526,-0.416554808617,-92.4320983887,2016,2051,2115,2022,2022,2792,3344,3360,3175,3305,3025,2974,3066,3078,3168,2867,3369,3366,3190,3270,2914,3281,3306,3029,0.009951825,2.08001117,2.0699796,0.453785598278,4500.0,0.459723323584,0.0064864619635,0.0,0.0,0.0,6000.0,-0.00864458363503,0.000122101861052,-0.00864458363503,51.8279037476,0.349065840244,0.0265011657029,-0.00521090254188,0.309194564819,-0.00422952556983,-0.00422952556983,-0.00210134289227,0.00140905217268,110.308708191,110.308708191,-0.12902700901,0.945139408112,2028,2025,2550,2029,2029,2930,3424,3424,3240,3358,3083,3058,3162,3154,3241,2871,3412,3416,3251,3366,3136,3356,3386,3188
1508400195129829956,209,1508400195129372299,plot_matl,-0.300000011921,-500.0,-0.189693957567,0.00148779724259,0.110306046903,55.5091514587,0.349065840244,0.109307989478,-0.00866808183491,-0.189692661166,-0.00952820014209,-0.00952820014209,0.000594395096414,-0.00450596027076,-12.2051095963,-12.2051095963,0.570028960705,-92.1872558594,2015,2059,2115,2024,2024,2792,3341,3360,3175,3305,3025,2974,3066,3078,3168,2867,3369,3366,3190,3270,2912,3279,3307,3029,0.010035264,2.09004686,2.097370176,0.453785598278,4500.0,0.461072802544,0.0338875427842,0.0,0.0,0.0,6000.0,-0.00864339713007,9.99290059553e-05,-0.00864339713007,51.8283424377,0.349065840244,0.0289103612304,-0.00503883650526,0.309228360653,0.0169012546539,0.0169012546539,-0.0049537261948,0.000728328770492,110.309791565,110.309791565,-0.128510460258,0.711453020573,2025,2029,2550,2030,2030,2931,3424,3424,3240,3358,3083,3058,3162,3154,3241,2871,3412,3416,3251,3367,3134,3354,3385,3187
1508400195139877548,210,1508400195139375695,plot_matl,-0.300000011921,-500.0,-0.189685821533,0.00132577749901,0.110314175487,55.4950370789,0.349065840244,0.109307989478,-0.00866808183491,-0.189692661166,-0.00952820014209,-0.00952820014209,0.000594395096414,-0.00450596027076,-12.2051095963,-12.2051095963,0.570028960705,-92.1872558594,2019,2064,2115,2024,2024,2792,3341,3360,3173,3305,3024,2973,3064,3075,3167,2870,3368,3366,3190,3270,2912,3279,3307,3029,0.010003968,2.100050693,2.10083328,0.453785598278,4500.0,0.461072802544,0.0325689725578,0.0,0.0,0.0,6000.0,-0.00865475833416,0.000343467923813,-0.00865475833416,51.8218650818,0.349065840244,0.0289103612304,-0.00503883650526,0.309228360653,0.0169012546539,0.0169012546539,-0.0049537261948,0.000728328770492,110.309791565,110.309791565,-0.128510460258,0.711453020573,2027,2026,2550,2030,2030,2931,3424,3423,3239,3360,3082,3059,3161,3153,3243,2870,3414,3416,3251,3367,3134,3354,3385,3187
1508400195150008494,211,1508400195149411696,plot_matl,-0.300000011921,-500.0,-0.189678907394,0.00119210395496,0.110321089625,55.4393882751,0.349065840244,0.109307989478,-0.00866808183491,-0.189692661166,-0.00952820014209,-0.00952820014209,0.000594395096414,-0.00450596027076,-12.2051095963,-12.2051095963,0.570028960705,-92.1872558594,2022,2057,2115,2025,2025,2792,3341,3360,3173,3305,3024,2973,3064,3075,3167,2870,3368,3367,3191,3268,2912,3281,3307,3029,0.010036356,2.110086598,2.117671116,0.453785598278,4500.0,0.459723323584,0.00633530598134,0.0,0.0,0.0,6000.0,-0.00867554079741,-0.012656419538,-0.00867554079741,55.7420043945,0.349065840244,0.0289103612304,-0.00503883650526,0.309228360653,0.0169012546539,0.0169012546539,-0.0049537261948,0.000728328770492,110.309791565,110.309791565,-0.128510460258,0.711453020573,2029,2027,2550,2035,2035,2931,3424,3423,3239,3360,3082,3059,3161,3153,3243,2870,3414,3417,3252,3365,3134,3355,3384,3186
1508400195159783934,212,1508400195159371018,plot_matl,-0.300000011921,-500.0,-0.189684659243,-0.00466924346983,0.110315337777,54.053188324,0.349065840244,0.109307989478,-0.00866808183491,-0.189692661166,-0.00952820014209,-0.00952820014209,0.000594395096414,-0.00450596027076,-12.2051095963,-12.2051095963,0.570028960705,-92.1872558594,2007,2042,2115,2025,2025,2791,3344,3360,3172,3304,3024,2972,3067,3076,3169,2870,3368,3367,3191,3268,2912,3281,3307,3029,0.00995837,2.12004612,2.11117444,0.453785598278,4500.0,0.459723323584,0.00570045225322,0.0,0.0,0.0,6000.0,-0.00867972429842,0.000846453302074,-0.00867972429842,51.8290901184,0.349065840244,0.0289103612304,-0.00503883650526,0.309228360653,0.0169012546539,0.0169012546539,-0.0049537261948,0.000728328770492,110.309791565,110.309791565,-0.128510460258,0.711453020573,2023,2025,2550,2035,2035,2930,3425,3425,3239,3360,3083,3057,3160,3152,3242,2870,3414,3417,3252,3365,3134,3355,3384,3186
1508400195169492254,213,1508400195169323363,plot_matl,-0.300000011921,-500.0,-0.189678326249,0.00117261405103,0.110321678221,55.4466133118,0.349065840244,0.110657475889,-0.00864512380213,-0.189703226089,0.00323454407044,0.00323454407044,0.000132203131216,-0.00429410813376,-12.6169157028,-12.6169157028,0.736367821693,-92.4307861328,2031,2061,2115,2025,2025,2791,3344,3360,3172,3304,3024,2972,3067,3076,3169,2868,3368,3365,3191,3268,2912,3278,3308,3028,0.009949368,2.129997077,2.119215384,0.453785598278,4500.0,0.458373844624,-0.0210260059685,0.0,0.0,0.0,6000.0,-0.00868365075439,0.000929371803068,-0.00868365075439,51.8241729736,0.349065840244,0.0265011657029,-0.0051101166755,0.309112280607,-0.00633056554943,-0.00633056554943,-0.00389636936598,0.00298337638378,110.353263855,110.353263855,-0.205300271511,0.16041970253,2025,2025,2550,2035,2035,2930,3425,3425,3239,3360,3083,3057,3160,3152,3242,2869,3411,3414,3251,3366,3134,3351,3382,3188
1508400195179854366,214,1508400195179371662,plot_matl,-0.300000011921,-500.0,-0.189672544599,0.00106252473779,0.110327452421,55.4203186035,0.349065840244,0.110657475889,-0.00864512380213,-0.189703226089,0.00323454407044,0.00323454407044,0.000132203131216,-0.00429410813376,-12.6169157028,-12.6169157028,0.736367821693,-92.4307861328,2004,2042,2115,2024,2024,2792,3342,3357,3173,3304,3025,2972,3066,3076,3169,2868,3368,3365,3191,3268,2912,3278,3308,3028,0.010050258,2.140046564,2.150755212,0.453785598278,4500.0,0.459723323584,0.0069854138419,0.0,0.0,0.0,6000.0,-0.00868629384786,0.000990984844975,-0.00868629384786,51.8251304626,0.349065840244,0.0265011657029,-0.0051101166755,0.309112280607,-0.00633056554943,-0.00633056554943,-0.00389636936598,0.00298337638378,110.353263855,110.353263855,-0.205300271511,0.16041970253,2018,2021,2550,2036,2036,2930,3424,3421,3237,3358,3082,3056,3162,3152,3242,2869,3411,3414,3251,3366,3134,3351,3382,3188
1508400195189873273,215,1508400195189371891,plot_matl,-0.300000011921,-500.0,-0.189679503441,0.00120402639732,0.110320501029,55.4532279968,0.349065840244,0.110657475889,-0.00864512380213,-0.189703226089,0.00323454407044,0.00323454407044,0.000132203131216,-0.00429410813376,-12.6169157028,-12.6169157028,0.736367821693,-92.4307861328,2013,2054,2115,2024,2024,2792,3342,3357,3173,3304,3025,2972,3066,3075,3167,2869,3368,3363,3192,3267,2911,3281,3309,3028,0.010000189,2.150046879,2.150040635,0.453785598278,4500.0,0.459723323584,0.0069854138419,0.0,0.0,0.0,6000.0,-0.00868629384786,0.000990984844975,-0.00868629384786,51.8251304626,0.349065840244,0.0265011657029,-0.0051101166755,0.309112280607,-0.00633056554943,-0.00633056554943,-0.00389636936598,0.00298337638378,110.353263855,110.353263855,-0.205300271511,0.16041970253,2018,2022,2550,2036,2036,2930,3424,3421,3237,3358,3082,3056,3162,3154,3241,2870,3411,3417,3251,3366,3134,3352,3384,3188
1508400195199829527,216,1508400195199343451,plot_matl,-0.300000011921,-500.0,-0.189700990915,-0.00433738110587,0.110299013555,54.1083602905,0.349065840244,0.110657475889,-0.00864512380213,-0.189703226089,0.00323454407044,0.00323454407044,0.000132203131216,-0.00429410813376,-12.6169157028,-12.6169157028,0.736367821693,-92.4307861328,2025,2065,2115,2022,2022,2790,3343,3357,3173,3303,3026,2972,3066,3075,3167,2869,3368,3363,3192,3267,2911,3281,3309,3026,0.009971249,2.160018604,2.153789784,0.453785598278,4500.0,0.459723323584,0.00653029466048,0.0,0.0,0.0,6000.0,-0.00869644060731,-0.0122324135154,-0.00869644060731,55.8558616638,0.349065840244,0.0265011657029,-0.0051101166755,0.309112280607,-0.00633056554943,-0.00633056554943,-0.00389636936598,0.00298337638378,110.353263855,110.353263855,-0.205300271511,0.16041970253,2020,2020,2550,2031,2031,2932,3425,3423,3239,3360,3081,3056,3162,3154,3241,2870,3411,3417,3251,3366,3134,3352,3384,3186
1508400195209700128,217,1508400195209337175,plot_matl,-0.300000011921,-500.0,-0.189722940326,0.0020816528704,0.110277064145,55.6407318115,0.349065840244,0.109307989478,-0.00868313480169,-0.189683720469,-0.0105505418032,-0.0105505418032,0.000915723154321,-0.00468537351117,-12.6783618927,-12.6783618927,0.553558647633,-92.588218689,2005,2040,2115,2022,2022,2790,3343,3357,3173,3303,3026,2973,3064,3076,3169,2870,3368,3363,3192,3269,2912,3281,3309,3026,0.009992432,2.170011671,2.168357744,0.453785598278,4500.0,0.458373844624,-0.0203433092684,0.0,0.0,0.0,6000.0,-0.00868585519493,0.000975581351668,-0.00868585519493,51.8245315552,0.349065840244,0.0265011657029,-0.00510323559865,0.309238731861,-0.00587811227888,-0.00587811227888,-0.00418620882556,0.000427531369496,110.433113098,110.433113098,0.126692086458,0.440138429403,2016,2011,2550,2031,2031,2932,3425,3423,3239,3360,3081,3057,3160,3152,3240,2871,3412,3415,3253,3365,3133,3352,3384,3186
1508400195219491696,218,1508400195219323565,plot_matl,-0.300000011921,-500.0,-0.189722940326,0.0020816528704,0.110277064145,55.6407318115,0.349065840244,0.109307989478,-0.00868313480169,-0.189683720469,-0.0105505418032,-0.0105505418032,0.000915723154321,-0.00468537351117,-12.6783618927,-12.6783618927,0.553558647633,-92.588218689,2018,2043,2115,2023,2023,2791,3343,3359,3173,3303,3026,2973,3064,3076,3169,2870,3368,3363,3192,3269,2912,3281,3306,3029,0.009984171,2.179997377,2.176549278,0.453785598278,4500.0,0.458373844624,-0.0203433092684,0.0,0.0,0.0,6000.0,-0.00868585519493,0.000975581351668,-0.00868585519493,51.8245315552,0.349065840244,0.0265011657029,-0.00510323559865,0.309238731861,-0.00587811227888,-0.00587811227888,-0.00418620882556,0.000427531369496,110.433113098,110.433113098,0.126692086458,0.440138429403,2028,2020,2550,2034,2034,2930,3426,3424,3238,3360,3081,3057,3160,3152,3240,2871,3412,3415,3253,3365,3133,3353,3383,3186
1508400195229500423,219,1508400195229315771,plot_matl,-0.300000011921,-500.0,-0.18972222507,0.0020728346426,0.110277764499,55.6431694031,0.349065840244,0.109307989478,-0.00868313480169,-0.189683720469,-0.0105505418032,-0.0105505418032,0.000915723154321,-0.00468537351117,-12.6783618927,-12.6783618927,0.553558647633,-92.588218689,2024,2061,2115,2023,2023,2791,3343,3359,3173,3303,3024,2971,3066,3076,3166,2869,3366,3365,3190,3269,2912,3281,3306,3029,0.009991825,2.189989232,2.188209675,0.453785598278,4500.0,0.459723323584,0.00637964392081,0.0,0.0,0.0,6000.0,-0.00867008883506,0.00065382104367,-0.00867008883506,51.8236236572,0.349065840244,0.0265011657029,-0.00510323559865,0.309238731861,-0.00587811227888,-0.00587811227888,-0.00418620882556,0.000427531369496,110.433113098,110.433113098,0.126692086458,0.440138429403,2026,2029,2550,2034,2034,2930,3426,3424,3238,3359,3082,3058,3159,3152,3243,2869,3412,3418,3251,3365,3133,3353,3383,3186
1508400195239657679,220,1508400195239359227,plot_matl,-0.300000011921,-500.0,-0.189730197191,0.00222878879867,0.110269799829,55.6685676575,0.349065840244,0.109307989478,-0.00868313480169,-0.189683720469,-0.0105505418032,-0.0105505418032,0.000915723154321,-0.00468537351117,-12.6783618927,-12.6783618927,0.553558647633,-92.588218689,2015,2045,2115,2021,2021,2792,3342,3359,3173,3303,3024,2971,3066,3076,3166,2869,3366,3365,3190,3268,2912,3280,3307,3025,0.010045565,2.200034084,2.2100243,0.453785598278,4500.0,0.459723323584,0.00810577906668,0.0,0.0,0.0,6000.0,-0.00866428855807,0.000535454135388,-0.00866428855807,51.827381134,0.349065840244,0.0265011657029,-0.00510323559865,0.309238731861,-0.00587811227888,-0.00587811227888,-0.00418620882556,0.000427531369496,110.433113098,110.433113098,0.126692086458,0.440138429403,2025,2030,2550,2033,2033,2930,3424,3424,3238,3359,3082,3058,3159,3152,3243,2869,3412,3418,3251,3364,3135,3353,3385,3185
1508400195249828805,221,1508400195249371840,plot_matl,-0.300000011921,-500.0,-0.189737632871,-0.00360405538231,0.1102623716,54.2934112549,0.349065840244,0.110657475889,-0.00867308117449,-0.189689084888,0.00325074582361,0.00325074582361,0.0007195713697,0.00139788188972,-12.6405878067,-12.6405878067,0.681084096432,-92.9605636597,2023,2056,2115,2021,2021,2792,3342,3360,3175,3302,3026,2972,3065,3077,3166,2868,3367,3365,3190,3268,2912,3280,3307,3025,0.01001165,2.210046346,2.21257465,0.453785598278,4500.0,0.459723323584,0.00670126127079,0.0,0.0,0.0,6000.0,-0.00865952949971,0.000438340590335,-0.00865952949971,51.8307151794,0.349065840244,0.0265011657029,-0.00512759014964,0.309398323298,-0.00442328117788,-0.00442328117788,-0.00374959036708,0.0590414255857,110.245704651,110.245704651,0.231677651405,0.37291136384,2036,2030,2550,2033,2033,2930,3424,3423,3239,3359,3084,3058,3161,3153,3241,2870,3411,3418,3251,3364,3135,3353,3385,3185
1508400195259826810,222,1508400195259372154,plot_matl,-0.300000011921,-500.0,-0.189726486802,0.00214492576197,0.110273517668,55.6786766052,0.349065840244,0.110657475889,-0.00867308117449,-0.189689084888,0.00325074582361,0.00325074582361,0.0007195713697,0.00139788188972,-12.6405878067,-12.6405878067,0.681084096432,-92.9605636597,2034,2066,2115,2025,2025,2792,3342,3360,3175,3302,3026,2972,3065,3077,3166,2868,3367,3363,3191,3266,2910,3279,3307,3027,0.009999914,2.220046665,2.219980908,0.453785598278,4500.0,0.458373844624,-0.0186997819692,0.0,0.0,0.0,6000.0,-0.00866735819727,0.000609184498899,-0.00866735819727,51.8182907104,0.349065840244,0.0265011657029,-0.00512759014964,0.309398323298,-0.00442328117788,-0.00442328117788,-0.00374959036708,0.0590414255857,110.245704651,110.245704651,0.231677651405,0.37291136384,2028,2033,2550,2035,2035,2930,3424,3423,3239,3359,3084,3058,3161,3153,3241,2870,3411,3416,3252,3365,3136,3354,3382,3186
1508400195269816776,223,1508400195269390530,plot_matl,-0.300000011921,-500.0,-0.189726486802,0.00214492576197,0.110273517668,55.6786766052,0.349065840244,0.110657475889,-0.00867308117449,-0.189689084888,0.00325074582361,0.00325074582361,0.0007195713697,0.00139788188972,-12.6405878067,-12.6405878067,0.681084096432,-92.9605636597,2034,2066,2115,2025,2025,2792,3342,3360,3175,3302,3026,2972,3065,3077,3166,2868,3367,3363,3191,3266,2910,3279,3307,3027,0.010019248,2.230065697,2.234292304,0.453785598278,4500.0,0.458373844624,-0.0186997819692,0.0,0.0,0.0,6000.0,-0.00866735819727,0.000609184498899,-0.00866735819727,51.8182907104,0.349065840244,0.0265011657029,-0.00512759014964,0.309398323298,-0.00442328117788,-0.00442328117788,-0.00374959036708,0.0590414255857,110.245704651,110.245704651,0.231677651405,0.37291136384,2028,2033,2550,2035,2035,2930,3424,3423,3239,3359,3084,3058,3161,3153,3241,2870,3411,3416,3252,3365,3136,3354,3382,3186
1508400195280031772,224,1508400195279419820,plot_matl,-0.300000011921,-500.0,-0.189707547426,0.00176839693449,0.110292449594,55.5718688965,0.349065840244,0.110657475889,-0.00867308117449,-0.189689084888,0.00325074582361,0.00325074582361,0.0007195713697,0.00139788188972,-12.6405878067,-12.6405878067,0.681084096432,-92.9605636597,2025,2061,2115,2025,2025,2792,3342,3360,3171,3301,3026,2973,3066,3088,3181,2868,3367,3363,3191,3266,2910,3279,3307,3027,0.010029366,2.240094762,2.246577984,0.453785598278,4500.0,0.458373844624,-0.0200822073966,0.0,0.0,0.0,6000.0,-0.008703796193,-0.0121489893645,-0.008703796193,55.8474998474,0.349065840244,0.0265011657029,-0.00512759014964,0.309398323298,-0.00442328117788,-0.00442328117788,-0.00374959036708,0.0590414255857,110.245704651,110.245704651,0.231677651405,0.37291136384,2028,2030,2550,2035,2035,2932,3424,3424,3238,3359,3082,3056,3161,3167,3253,2870,3411,3416,3252,3365,3136,3354,3382,3186
1508400195290023467,225,1508400195289418897,plot_matl,-0.300000011921,-500.0,-0.189708068967,-0.0041928878054,0.110291928053,54.1283226013,0.349065840244,0.110657475889,-0.0086664352566,-0.18973313272,0.00383368716575,0.00383368716575,0.000579262152314,-0.00368397217244,-12.5894002914,-12.5894002914,0.559979200363,-93.221534729,2033,2057,2115,2025,2025,2792,3342,3360,3171,3301,3026,2973,3066,3088,3181,2879,3379,3374,3199,3276,2917,3287,3313,3033,0.009998656,2.250093829,2.2496976,0.453785598278,4500.0,0.458373844624,-0.0194314867258,0.0,0.0,0.0,6000.0,-0.00871602166444,0.00152935343795,-0.00871602166444,51.8179397583,0.349065840244,0.0289103612304,-0.00522909779102,0.309268176556,0.0195477679372,0.0195477679372,-0.00173885026015,-0.000149034676724,110.174659729,110.174659729,0.253231316805,0.661482691765,2028,2025,2550,2035,2035,2932,3424,3424,3238,3359,3082,3056,3161,3167,3253,2878,3420,3426,3258,3372,3140,3358,3387,3192
1508400195299861514,226,1508400195299370877,plot_matl,-0.300000011921,-500.0,-0.189714133739,-0.00407148431987,0.110285870731,54.1914253235,0.349065840244,0.110657475889,-0.0086664352566,-0.18973313272,0.00383368716575,0.00383368716575,0.000579262152314,-0.00368397217244,-12.5894002914,-12.5894002914,0.559979200363,-93.221534729,2019,2042,2115,2025,2025,2793,3348,3362,3177,3304,3028,2973,3067,3088,3181,2879,3379,3374,3199,3276,2917,3287,3313,3033,0.009950827,2.260045849,2.248886902,0.453785598278,4500.0,0.459723323584,0.00738088181242,0.0,0.0,0.0,6000.0,-0.00871333573014,0.00148278824054,-0.00871333573014,51.8353233337,0.349065840244,0.0289103612304,-0.00522909779102,0.309268176556,0.0195477679372,0.0195477679372,-0.00173885026015,-0.000149034676724,110.174659729,110.174659729,0.253231316805,0.661482691765,2026,2018,2550,2031,2031,2933,3428,3425,3243,3360,3084,3061,3162,3167,3253,2878,3420,3426,3258,3372,3140,3358,3387,3192
1508400195309475941,227,1508400195309337920,plot_matl,-0.300000011921,-500.0,-0.189718157053,0.0019884610083,0.110281847417,55.6169891357,0.349065840244,0.110657475889,-0.0086664352566,-0.18973313272,0.00383368716575,0.00383368716575,0.000579262152314,-0.00368397217244,-12.5894002914,-12.5894002914,0.559979200363,-93.221534729,2024,2043,2115,2025,2025,2793,3348,3362,3177,3304,3028,2973,3067,3077,3169,2872,3370,3368,3192,3271,2912,3281,3305,3033,0.009964314,2.27001168,2.261899278,0.453785598278,4500.0,0.459723323584,0.00753903202713,0.0,0.0,0.0,6000.0,-0.00871138367802,0.00144968938548,-0.00871138367802,51.8251914978,0.349065840244,0.0289103612304,-0.00522909779102,0.309268176556,0.0195477679372,0.0195477679372,-0.00173885026015,-0.000149034676724,110.174659729,110.174659729,0.253231316805,0.661482691765,2034,2022,2550,2031,2031,2933,3428,3425,3243,3360,3084,3061,3162,3155,3243,2871,3414,3417,3254,3367,3135,3354,3384,3192
1508400195319798930,228,1508400195319345838,plot_matl,-0.300000011921,-500.0,-0.189727142453,-0.00380563386716,0.110272854567,54.1577606201,0.349065840244,0.110657475889,-0.0086664352566,-0.18973313272,0.00383368716575,0.00383368716575,0.000579262152314,-0.00368397217244,-12.5894002914,-12.5894002914,0.559979200363,-93.221534729,2022,2051,2115,2023,2023,2794,3342,3359,3175,3304,3027,2973,3067,3077,3169,2872,3370,3368,3192,3271,2912,3281,3305,3027,0.010010278,2.28002096,2.282343384,0.453785598278,4500.0,0.458373844624,-0.0200878251344,0.0,0.0,0.0,6000.0,-0.00872274953872,0.00168471119832,-0.00872274953872,51.786365509,0.349065840244,0.0289103612304,-0.00522909779102,0.309268176556,0.0195477679372,0.0195477679372,-0.00173885026015,-0.000149034676724,110.174659729,110.174659729,0.253231316805,0.661482691765,2028,2034,2550,2030,2030,2931,3425,3423,3240,3360,3082,3061,3162,3155,3243,2871,3414,3417,3254,3367,3135,3354,3384,3186
1508400195329760432,229,1508400195329361993,plot_matl,-0.300000011921,-500.0,-0.189745172858,-0.00343985878862,0.110254824162,54.2991523743,0.349065840244,0.109307989478,-0.008703796193,-0.189707547426,-0.0100411036983,-0.0100411036983,-0.0121489893645,0.00176839693449,-12.319861412,-12.319861412,0.345697939396,-93.4621734619,2025,2052,2115,2023,2023,2794,3342,3359,3175,3304,3027,2974,3067,3076,3169,2870,3370,3366,3192,3268,2912,3281,3305,3027,0.010015099,2.290036555,2.293457671,0.453785598278,4500.0,0.459723323584,0.00584264099598,0.0,0.0,0.0,6000.0,-0.00870749168098,0.00138122728094,-0.00870749168098,51.8228225708,0.349065840244,0.0265011657029,-0.00508861150593,0.309176504612,-0.00572779448703,-0.00572779448703,0.0106418458745,0.00447433209047,110.19707489,110.19707489,-0.00310099986382,0.187548488379,2024,2025,2550,2030,2030,2931,3425,3423,3240,3360,3082,3058,3161,3154,3242,2870,3412,3419,3252,3366,3134,3354,3384,3186
1508400195340022980,230,1508400195339419312,plot_matl,-0.300000011921,-500.0,-0.189760953188,-0.00312056904659,0.110239043832,54.3892784119,0.349065840244,0.109307989478,-0.008703796193,-0.189707547426,-0.0100411036983,-0.0100411036983,-0.0121489893645,0.00176839693449,-12.319861412,-12.319861412,0.345697939396,-93.4621734619,2009,2022,2115,2022,2022,2793,3342,3360,3175,3304,3027,2974,3067,3076,3169,2870,3370,3366,3192,3268,2912,3283,3308,3028,0.010058155,2.300094239,2.31337565,0.453785598278,4500.0,0.459723323584,0.00625886488706,0.0,0.0,0.0,6000.0,-0.00873121712357,0.0018700142391,-0.00873121712357,51.8369903564,0.349065840244,0.0265011657029,-0.00508861150593,0.309176504612,-0.00572779448703,-0.00572779448703,0.0106418458745,0.00447433209047,110.19707489,110.19707489,-0.00310099986382,0.187548488379,2025,2019,2550,2034,2034,2930,3424,3423,3238,3360,3082,3058,3161,3154,3242,2870,3412,3419,3252,3366,3134,3354,3385,3187
1508400195350019090,231,1508400195349416179,plot_matl,-0.300000011921,-500.0,-0.189751371741,-0.00331492908299,0.110248632729,54.3141098022,0.349065840244,0.109307989478,-0.008703796193,-0.189707547426,-0.0100411036983,-0.0100411036983,-0.0121489893645,0.00176839693449,-12.319861412,-12.319861412,0.345697939396,-93.4621734619,2022,2054,2115,2022,2022,2793,3342,3360,3175,3304,3025,2972,3066,3077,3168,2870,3367,3365,3192,3268,2912,3283,3308,3028,0.009996441,2.310091116,2.309177871,0.453785598278,4500.0,0.459723323584,0.00758019462228,0.0,0.0,0.0,6000.0,-0.00872536282986,0.00176285102498,-0.00872536282986,51.8133850098,0.349065840244,0.0265011657029,-0.00508861150593,0.309176504612,-0.00572779448703,-0.00572779448703,0.0106418458745,0.00447433209047,110.19707489,110.19707489,-0.00310099986382,0.187548488379,2026,2022,2550,2034,2034,2930,3424,3423,3238,3360,3083,3059,3162,3154,3243,2870,3411,3418,3252,3366,3134,3354,3385,3187
1508400195359912017,232,1508400195359380201,plot_matl,-0.300000011921,-500.0,-0.18976034224,-0.0031309640035,0.110239654779,54.3783874512,0.349065840244,0.109307989478,-0.008703796193,-0.189707547426,-0.0100411036983,-0.0100411036983,-0.0121489893645,0.00176839693449,-12.319861412,-12.319861412,0.345697939396,-93.4621734619,2023,2055,2115,2025,2025,2793,3341,3360,3175,3304,3025,2972,3066,3077,3168,2870,3367,3365,3192,3270,2912,3280,3305,3028,0.009963466,2.320055003,2.311524112,0.453785598278,4500.0,0.459723323584,0.00762216979638,0.0,0.0,0.0,6000.0,-0.00870961602777,0.00144491880201,-0.00870961602777,51.8301773071,0.349065840244,0.0265011657029,-0.00508861150593,0.309176504612,-0.00572779448703,-0.00572779448703,0.0106418458745,0.00447433209047,110.19707489,110.19707489,-0.00310099986382,0.187548488379,2021,2021,2550,2027,2027,2930,3422,3423,3238,3360,3083,3059,3162,3154,3243,2870,3411,3418,3252,3364,3136,3353,3383,3187
1508400195369832230,233,1508400195369377078,plot_matl,-0.300000011921,-500.0,-0.18976213038,-0.00310309138149,0.110237874091,54.4137268066,0.349065840244,0.109307989478,-0.00872274953872,-0.189727142453,-0.0100439125672,-0.0100439125672,0.00168471119832,-0.00380563386716,-12.2853145599,-12.2853145599,0.289988875389,-93.4402923584,2004,2052,2115,2025,2025,2793,3341,3359,3172,3303,3024,2973,3065,3075,3170,2869,3369,3365,3192,3270,2912,3280,3305,3028,0.009996065,2.330052166,2.329083145,0.453785598278,4500.0,0.458373844624,-0.0190267786384,0.0,0.0,0.0,6000.0,-0.0087216226384,-0.0117406677455,-0.0087216226384,55.668598175,0.349065840244,0.0265011657029,-0.0051238508895,0.30907958746,-0.00571299390867,-0.00571299390867,0.0113934380934,0.00489854440093,110.182426453,110.182426453,-0.0655013918877,0.746540427208,2017,2025,2550,2027,2027,2930,3422,3424,3240,3359,3083,3059,3161,3154,3242,2870,3413,3418,3252,3364,3136,3353,3383,3187
1508400195379792900,234,1508400195379332917,plot_matl,-0.300000011921,-500.0,-0.189757630229,-0.00318698189221,0.110242366791,54.3682670593,0.349065840244,0.109307989478,-0.00872274953872,-0.189727142453,-0.0100439125672,-0.0100439125672,0.00168471119832,-0.00380563386716,-12.2853145599,-12.2853145599,0.289988875389,-93.4402923584,2015,2058,2116,2023,2023,2793,3341,3359,3172,3303,3024,2973,3065,3075,3170,2869,3369,3365,3190,3269,2912,3280,3308,3027,0.009954039,2.340007248,2.329245126,0.453785598278,4500.0,0.459723323584,0.00679839262739,0.0,0.0,0.0,6000.0,-0.00870647095144,0.0013754212996,-0.00870647095144,51.8308906555,0.349065840244,0.0265011657029,-0.0051238508895,0.30907958746,-0.00571299390867,-0.00571299390867,0.0113934380934,0.00489854440093,110.182426453,110.182426453,-0.0655013918877,0.746540427208,2025,2022,2550,2032,2032,2930,3422,3424,3240,3359,3083,3059,3161,3154,3242,2870,3413,3416,3249,3364,3136,3354,3382,3186
1508400195389879189,235,1508400195389394530,plot_matl,-0.300000011921,-500.0,-0.18975956738,-0.00314646703191,0.11024043709,54.3626556396,0.349065840244,0.109307989478,-0.00872274953872,-0.189727142453,-0.0100439125672,-0.0100439125672,0.00168471119832,-0.00380563386716,-12.2853145599,-12.2853145599,0.289988875389,-93.4402923584,2026,2064,2116,2023,2023,2792,3343,3358,3172,3301,3024,2974,3065,3078,3167,2869,3369,3365,3190,3269,2912,3280,3308,3027,0.01006234,2.350069272,2.3646499,0.453785598278,4500.0,0.458373844624,-0.0201546456665,0.0,0.0,0.0,6000.0,-0.00871978513896,0.00163662852719,-0.00871978513896,51.8223304749,0.349065840244,0.0265011657029,-0.0051238508895,0.30907958746,-0.00571299390867,-0.00571299390867,0.0113934380934,0.00489854440093,110.182426453,110.182426453,-0.0655013918877,0.746540427208,2023,2024,2550,2032,2032,2931,3423,3421,3238,3360,3083,3058,3161,3153,3241,2870,3413,3416,3249,3364,3136,3354,3382,3186
1508400195399542211,236,1508400195399325000,plot_matl,-0.300000011921,-500.0,-0.189761430025,0.00286544370465,0.110238574445,55.8093223572,0.349065840244,0.109307989478,-0.00872274953872,-0.189727142453,-0.0100439125672,-0.0100439125672,0.00168471119832,-0.00380563386716,-12.2853145599,-12.2853145599,0.289988875389,-93.4402923584,2027,2056,2114,2023,2023,2792,3343,3358,3172,3301,3024,2974,3065,3078,3167,2868,3369,3366,3190,3269,2913,3279,3307,3030,0.009928459,2.359999036,2.343116324,0.453785598278,4500.0,0.459723323584,0.00675036758184,0.0,0.0,0.0,6000.0,-0.00870500039309,0.00134057831019,-0.00870500039309,51.8226318359,0.349065840244,0.0265011657029,-0.0051238508895,0.30907958746,-0.00571299390867,-0.00571299390867,0.0113934380934,0.00489854440093,110.182426453,110.182426453,-0.0655013918877,0.746540427208,2029,2023,2550,2032,2032,2931,3423,3421,3238,3360,3083,3058,3161,3153,3241,2870,3412,3417,3250,3367,3135,3352,3383,3186
1508400195409527975,237,1508400195409325597,plot_matl,-0.300000011921,-500.0,-0.189778581262,-0.00276695284992,0.110221423209,54.4301834106,0.349065840244,0.110657475889,-0.00870961602777,-0.18976034224,0.00381108489819,0.00381108489819,0.00144491880201,-0.0031309640035,-12.1698894501,-12.1698894501,-0.138282269239,-93.1086120605,2018,2052,2114,2024,2024,2792,3342,3359,3174,3305,3024,2973,3065,3078,3167,2868,3369,3366,3190,3269,2913,3279,3307,3030,0.010000232,2.369999432,2.370054984,0.453785598278,4500.0,0.459723323584,0.00653493916616,0.0,0.0,0.0,6000.0,-0.00869166012853,0.00106917822268,-0.00869166012853,51.8168754578,0.349065840244,0.0265011657029,-0.00506679620594,0.309016019106,-0.0039755734615,-0.0039755734615,-0.00508527178317,0.00558988749981,110.29964447,110.29964447,-0.113014146686,1.06239628792,2025,2027,2550,2032,2032,2931,3424,3422,3239,3359,3082,3058,3160,3153,3241,2870,3412,3417,3250,3367,3135,3352,3383,3186
1508400195419523700,238,1508400195419317435,plot_matl,-0.300000011921,-500.0,-0.189760655165,0.00284849409945,0.110239341855,55.8258934021,0.349065840244,0.110657475889,-0.00870961602777,-0.18976034224,0.00381108489819,0.00381108489819,0.00144491880201,-0.0031309640035,-12.1698894501,-12.1698894501,-0.138282269239,-93.1086120605,2031,2063,2114,2024,2024,2792,3342,3359,3174,3305,3024,2973,3065,3078,3169,2869,3368,3365,3190,3267,2912,3280,3307,3030,0.009991396,2.379991282,2.377952248,0.453785598278,4500.0,0.459723323584,0.00631073536351,0.0,0.0,0.0,6000.0,-0.00870804861188,-0.0120200030506,-0.00870804861188,55.9705047607,0.349065840244,0.0265011657029,-0.00506679620594,0.309016019106,-0.0039755734615,-0.0039755734615,-0.00508527178317,0.00558988749981,110.29964447,110.29964447,-0.113014146686,1.06239628792,2026,2029,2550,2032,2032,2931,3424,3422,3239,3359,3082,3058,3160,3153,3241,2869,3411,3417,3250,3364,3133,3352,3385,3186
1508400195429512464,239,1508400195429321997,plot_matl,-0.300000011921,-500.0,-0.189755871892,0.00275690993294,0.110244132578,55.7416763306,0.349065840244,0.110657475889,-0.00870961602777,-0.18976034224,0.00381108489819,0.00381108489819,0.00144491880201,-0.0031309640035,-12.1698894501,-12.1698894501,-0.138282269239,-93.1086120605,2007,2048,2115,2023,2023,2792,3343,3359,3172,3301,3025,2973,3065,3078,3169,2869,3368,3365,3190,3267,2912,3280,3307,3027,0.010004508,2.389995736,2.391077412,0.453785598278,4500.0,0.458373844624,-0.0205520447344,0.0,0.0,0.0,6000.0,-0.00870776362717,-0.012015693821,-0.00870776362717,55.6286888123,0.349065840244,0.0265011657029,-0.00506679620594,0.309016019106,-0.0039755734615,-0.0039755734615,-0.00508527178317,0.00558988749981,110.29964447,110.29964447,-0.113014146686,1.06239628792,2025,2032,2551,2032,2032,2930,3424,3422,3238,3358,3081,3058,3160,3153,3241,2869,3411,3417,3250,3364,3133,3352,3385,3184
1508400195439505284,240,1508400195439316841,plot_matl,-0.300000011921,-500.0,-0.189757615328,0.00279329228215,0.110242381692,55.7757987976,0.349065840244,0.110657475889,-0.00870961602777,-0.18976034224,0.00381108489819,0.00381108489819,0.00144491880201,-0.0031309640035,-12.1698894501,-12.1698894501,-0.138282269239,-93.1086120605,2022,2058,2115,2023,2023,2792,3343,3359,3172,3301,3025,2972,3066,3075,3166,2870,3368,3363,3191,3267,2911,3280,3307,3027,0.009994371,2.399990445,2.39864904,0.453785598278,4500.0,0.459723323584,0.00839170161635,0.0,0.0,0.0,6000.0,-0.00869513209909,0.0011529403273,-0.00869513209909,51.8322105408,0.349065840244,0.0265011657029,-0.00506679620594,0.309016019106,-0.0039755734615,-0.0039755734615,-0.00508527178317,0.00558988749981,110.29964447,110.29964447,-0.113014146686,1.06239628792,2019,2024,2551,2032,2032,2930,3424,3422,3238,3358,3081,3058,3159,3153,3241,2871,3412,3417,3251,3367,3134,3352,3385,3184
1508400195449525755,241,1508400195449320570,plot_matl,-0.300000011921,-500.0,-0.189743354917,0.00250781676732,0.110256649554,55.7062644958,0.349065840244,0.110657475889,-0.00870500039309,-0.189761430025,0.00337518379092,0.00337518379092,0.00134057831019,0.00286544370465,-12.0692157745,-12.0692157745,0.0484105311334,-92.6598815918,2027,2054,2115,2024,2024,2791,3343,3356,3173,3301,3025,2972,3066,3075,3166,2870,3368,3363,3191,3267,2911,3280,3306,3030,0.010003907,2.409994284,2.410941587,0.453785598278,4500.0,0.459723323584,0.0089363111183,0.0,0.0,0.0,6000.0,-0.00868478324264,0.000943907361943,-0.00868478324264,51.8357315063,0.349065840244,0.0240919683129,-0.00514217186719,0.308846145868,-0.0273629296571,-0.0273629296571,-0.0189138017595,-0.0533246546984,110.290969849,110.290969849,0.0848601907492,0.898658752441,2024,2025,2550,2029,2029,2932,3424,3422,3239,3358,3081,3058,3159,3153,3241,2871,3412,3417,3251,3367,3134,3354,3383,3189
1508400195459430852,242,1508400195459319237,plot_matl,-0.300000011921,-500.0,-0.1897328794,0.00230128085241,0.11026712507,55.1335639954,0.349065840244,0.110657475889,-0.00870500039309,-0.189761430025,0.00337518379092,0.00337518379092,0.00134057831019,0.00286544370465,-12.0692157745,-12.0692157745,0.0484105311334,-92.6598815918,2011,2047,2115,2024,2024,2791,3343,3356,3173,3302,3023,2972,3067,3077,3166,2869,3368,3365,3192,3267,2911,3280,3306,3030,0.009997728,2.419992757,2.419450176,0.453785598278,4500.0,0.459723323584,0.00990202184767,0.0,0.0,0.0,6000.0,-0.00867698527873,0.000786404241808,-0.00867698527873,52.0619125366,0.349065840244,0.0240919683129,-0.00514217186719,0.308846145868,-0.0273629296571,-0.0273629296571,-0.0189138017595,-0.0533246546984,110.290969849,110.290969849,0.0848601907492,0.898658752441,2022,2027,2550,2029,2029,2932,3424,3422,3239,3360,3082,3058,3161,3153,3242,2870,3411,3416,3251,3367,3134,3354,3383,3189
1508400195469414104,243,1508400195469311981,plot_matl,-0.300000011921,-500.0,-0.189726457,0.00217304332182,0.11027354002,55.6670951843,0.349065840244,0.110657475889,-0.00870500039309,-0.189761430025,0.00337518379092,0.00337518379092,0.00134057831019,0.00286544370465,-12.0692157745,-12.0692157745,0.0484105311334,-92.6598815918,2029,2053,2115,2023,2023,2792,3345,3359,3173,3302,3023,2972,3067,3077,3166,2869,3368,3365,3192,3269,2911,3279,3309,3029,0.009992236,2.429985342,2.428113348,0.453785598278,4500.0,0.459723323584,0.00892481394112,0.0,0.0,0.0,6000.0,-0.00866937544197,0.000632696144748,-0.00866937544197,51.8218078613,0.349065840244,0.0240919683129,-0.00514217186719,0.308846145868,-0.0273629296571,-0.0273629296571,-0.0189138017595,-0.0533246546984,110.290969849,110.290969849,0.0848601907492,0.898658752441,2028,2024,2551,2032,2032,2930,3423,3423,3239,3360,3082,3058,3161,3153,3242,2870,3411,3416,3251,3367,3134,3352,3384,3185
1508400195479457468,244,1508400195479316778,plot_matl,-0.300000011921,-500.0,-0.189726457,0.00217304332182,0.11027354002,55.6670951843,0.349065840244,0.110657475889,-0.00870500039309,-0.189761430025,0.00337518379092,0.00337518379092,0.00134057831019,0.00286544370465,-12.0692157745,-12.0692157745,0.0484105311334,-92.6598815918,2023,2061,2115,2023,2023,2792,3345,3359,3175,3303,3025,2974,3066,3075,3168,2869,3366,3366,3192,3269,2911,3279,3309,3029,0.010004806,2.439990217,2.441172664,0.453785598278,4500.0,0.459723323584,0.00892481394112,0.0,0.0,0.0,6000.0,-0.00866365898401,0.000517230422702,-0.00866365898401,51.8325614929,0.349065840244,0.0240919683129,-0.00514217186719,0.308846145868,-0.0273629296571,-0.0273629296571,-0.0189138017595,-0.0533246546984,110.290969849,110.290969849,0.0848601907492,0.898658752441,2023,2028,2551,2032,2032,2930,3423,3423,3237,3359,3084,3058,3161,3152,3242,2870,3410,3416,3251,3367,3134,3352,3384,3185
1508400195489449951,245,1508400195489317731,plot_matl,-0.300000011921,-500.0,-0.189739465714,0.0024247248657,0.110260538757,55.6981658936,0.349065840244,0.110657475889,-0.00869513209909,-0.189757615328,0.00419585080817,0.00419585080817,0.0011529403273,0.00279329228215,-11.9863033295,-11.9863033295,0.621406972408,-92.8638534546,2016,2057,2115,2021,2021,2791,3345,3359,3175,3303,3025,2974,3066,3075,3168,2869,3366,3366,3193,3267,2911,3281,3306,3025,0.010000931,2.449991204,2.450228095,0.453785598278,4500.0,0.459723323584,0.00707863736898,0.0,0.0,0.0,6000.0,-0.00866365898401,0.000517230422702,-0.00866365898401,51.8325614929,0.349065840244,0.0265011657029,-0.00510376133025,0.30911308527,-0.00309105380438,-0.00309105380438,-0.0043401052244,0.00301146553829,110.152145386,110.152145386,0.0338658168912,0.57073456049,2025,2026,2550,2029,2029,2930,3423,3423,3237,3359,3084,3058,3161,3152,3242,2870,3410,3416,3252,3365,3134,3354,3383,3186
1508400195499402211,246,1508400195499319608,plot_matl,-0.300000011921,-500.0,-0.189739242196,0.0024204866495,0.110260754824,55.7135734558,0.349065840244,0.110657475889,-0.00869513209909,-0.189757615328,0.00419585080817,0.00419585080817,0.0011529403273,0.00279329228215,-11.9863033295,-11.9863033295,0.621406972408,-92.8638534546,2020,2052,2115,2021,2021,2791,3342,3357,3172,3302,3024,2974,3067,3076,3168,2871,3366,3366,3193,3267,2911,3281,3306,3025,0.010001618,2.459992964,2.460398028,0.453785598278,4500.0,0.459723323584,0.00626514619216,0.0,0.0,0.0,6000.0,-0.00866437517107,0.000527146388777,-0.00866437517107,51.8257675171,0.349065840244,0.0265011657029,-0.00510376133025,0.30911308527,-0.00309105380438,-0.00309105380438,-0.0043401052244,0.00301146553829,110.152145386,110.152145386,0.0338658168912,0.57073456049,2027,2027,2550,2029,2029,2930,3425,3422,3238,3358,3081,3056,3161,3153,3242,2870,3410,3416,3252,3365,3134,3354,3383,3186
1508400195509716532,247,1508400195509323932,plot_matl,-0.300000011921,-500.0,-0.189743995667,-0.00346059002914,0.110256008804,54.2897911072,0.349065840244,0.110657475889,-0.00869513209909,-0.189757615328,0.00419585080817,0.00419585080817,0.0011529403273,0.00279329228215,-11.9863033295,-11.9863033295,0.621406972408,-92.8638534546,2034,2062,2115,2019,2019,2791,3342,3357,3172,3302,3024,2974,3067,3076,3168,2871,3370,3364,3193,3268,2913,3279,3306,3027,0.010005743,2.469998103,2.471418521,0.453785598278,4500.0,0.458373844624,-0.0210911650211,0.0,0.0,0.0,6000.0,-0.00868365168571,0.000917732773814,-0.00868365168571,51.8233070374,0.349065840244,0.0265011657029,-0.00510376133025,0.30911308527,-0.00309105380438,-0.00309105380438,-0.0043401052244,0.00301146553829,110.152145386,110.152145386,0.0338658168912,0.57073456049,2034,2025,2549,2031,2031,2930,3425,3422,3238,3358,3081,3056,3161,3153,3242,2870,3410,3417,3251,3364,3133,3354,3384,3184
1508400195519657808,248,1508400195519359978,plot_matl,-0.300000011921,-500.0,-0.189742848277,-0.00348609546199,0.110257141292,54.2821807861,0.349065840244,0.110657475889,-0.00869513209909,-0.189757615328,0.00419585080817,0.00419585080817,0.0011529403273,0.00279329228215,-11.9863033295,-11.9863033295,0.621406972408,-92.8638534546,2026,2045,2115,2019,2019,2793,3344,3359,3175,3303,3027,2971,3066,3076,3168,2871,3370,3364,3193,3268,2913,3279,3306,3027,0.010036361,2.480034629,2.489017528,0.453785598278,4500.0,0.459723323584,0.0069363610819,0.0,0.0,0.0,6000.0,-0.00866325292736,0.000506174867041,-0.00866325292736,51.8250656128,0.349065840244,0.0265011657029,-0.00510376133025,0.30911308527,-0.00309105380438,-0.00309105380438,-0.0043401052244,0.00301146553829,110.152145386,110.152145386,0.0338658168912,0.57073456049,2031,2029,2549,2031,2031,2931,3424,3422,3240,3358,3083,3056,3160,3152,3242,2870,3410,3417,3251,3364,3133,3354,3384,3184
1508400195529421644,249,1508400195529324367,plot_matl,-0.300000011921,-500.0,-0.189752340317,0.00267780339345,0.110247664154,55.7234992981,0.349065840244,0.110657475889,-0.00867020431906,-0.189739465714,0.00353931868449,0.00353931868449,0.00064385792939,0.0024247248657,-11.913151741,-11.913151741,0.280337512493,-93.691947937,2011,2050,2115,2019,2019,2793,3344,3359,3175,3303,3027,2971,3066,3076,3166,2870,3367,3364,3193,3267,2910,3282,3307,3027,0.009962383,2.489998133,2.480633367,0.453785598278,4500.0,0.458373844624,-0.0210593491793,0.0,0.0,0.0,6000.0,-0.00867115799338,0.000667562242597,-0.00867115799338,51.8398895264,0.349065840244,0.0289103612304,-0.00512358685955,0.309537708759,0.0175261646509,0.0175261646509,0.0113997394219,0.0562972798944,110.188018799,110.188018799,-0.0679615214467,0.615940093994,2030,2036,2549,2031,2031,2931,3424,3422,3240,3358,3083,3056,3160,3152,3242,2870,3412,3418,3251,3366,3133,3353,3383,3187
1508400195539468198,250,1508400195539317274,plot_matl,-0.300000011921,-500.0,-0.189754605293,-0.00324342539534,0.110245391726,54.4110717773,0.349065840244,0.110657475889,-0.00867020431906,-0.189739465714,0.00353931868449,0.00353931868449,0.00064385792939,0.0024247248657,-11.913151741,-11.913151741,0.280337512493,-93.691947937,2029,2070,2116,2021,2021,2791,3343,3358,3174,3303,3025,2972,3066,3076,3166,2870,3367,3364,3193,3267,2910,3282,3307,3027,0.009993019,2.499991018,2.49825475,0.453785598278,4500.0,0.458373844624,-0.0202618967742,0.0,0.0,0.0,6000.0,-0.00866515841335,0.000546585128177,-0.00866515841335,51.8410682678,0.349065840244,0.0289103612304,-0.00512358685955,0.309537708759,0.0175261646509,0.0175261646509,0.0113997394219,0.0562972798944,110.188018799,110.188018799,-0.0679615214467,0.615940093994,2028,2035,2550,2030,2030,2930,3424,3424,3240,3361,3085,3058,3160,3152,3242,2870,3412,3418,3251,3366,3133,3353,3383,3187
1508400195549463051,251,1508400195549318623,plot_matl,-0.300000011921,-500.0,-0.189756378531,0.00276905647479,0.110243625939,55.8113746643,0.349065840244,0.110657475889,-0.00867020431906,-0.189739465714,0.00353931868449,0.00353931868449,0.00064385792939,0.0024247248657,-11.913151741,-11.913151741,0.280337512493,-93.691947937,2014,2054,2116,2021,2021,2791,3343,3358,3174,3303,3025,2972,3066,3075,3168,2869,3366,3365,3190,3269,2911,3279,3307,3027,0.010001116,2.50999239,2.510280116,0.453785598278,4500.0,0.459723323584,0.00712188426405,0.0,0.0,0.0,6000.0,-0.00866019912064,0.000446595891844,-0.00866019912064,51.8215446472,0.349065840244,0.0289103612304,-0.00512358685955,0.309537708759,0.0175261646509,0.0175261646509,0.0113997394219,0.0562972798944,110.188018799,110.188018799,-0.0679615214467,0.615940093994,2028,2033,2550,2030,2030,2930,3424,3424,3240,3361,3085,3058,3160,3153,3241,2871,3410,3418,3252,3367,3134,3354,3383,3187
1508400195559455959,252,1508400195559320653,plot_matl,-0.300000011921,-500.0,-0.189751833677,0.00268673943356,0.110248163342,55.7603492737,0.349065840244,0.110657475889,-0.00867020431906,-0.189739465714,0.00353931868449,0.00353931868449,0.00064385792939,0.0024247248657,-11.913151741,-11.913151741,0.280337512493,-93.691947937,2021,2055,2116,2022,2022,2792,3345,3359,3174,3305,3025,2972,3066,3075,3168,2869,3366,3365,3190,3269,2911,3279,3306,3027,0.010001762,2.519994303,2.520444024,0.453785598278,4500.0,0.459723323584,0.00683494284749,0.0,0.0,0.0,6000.0,-0.00870248768479,0.00133397663012,-0.00870248768479,51.827167511,0.349065840244,0.0289103612304,-0.00512358685955,0.309537708759,0.0175261646509,0.0175261646509,0.0113997394219,0.0562972798944,110.188018799,110.188018799,-0.0679615214467,0.615940093994,2032,2022,2549,2029,2029,2930,3426,3424,3240,3360,3085,3058,3160,3153,3241,2871,3410,3418,3252,3367,3134,3354,3385,3186
1508400195569474906,253,1508400195569315566,plot_matl,-0.300000011921,-500.0,-0.189738154411,0.00240893359296,0.110261850059,55.6717071533,0.349065840244,0.110657475889,-0.00870248768479,-0.189751833677,0.00341747142375,0.00341747142375,0.00133397663012,0.00268673943356,-12.1125640869,-12.1125640869,0.412448525429,-93.520904541,2035,2061,2116,2022,2022,2792,3345,3359,3174,3305,3025,2971,3064,3078,3168,2870,3367,3365,3191,3270,2911,3279,3306,3027,0.009994755,2.52998928,2.528673015,0.453785598278,4500.0,0.459723323584,0.00751747330651,0.0,0.0,0.0,6000.0,-0.00870194565505,0.00133060279768,-0.00870194565505,51.8471221924,0.349065840244,0.0289103612304,-0.0051998551935,0.309399485588,0.0191727653146,0.0191727653146,-0.00239974656142,-0.00289372913539,110.111175537,110.111175537,0.152152597904,1.47694540024,2024,2025,2549,2029,2029,2930,3426,3424,3240,3360,3083,3060,3161,3153,3243,2869,3411,3417,3251,3365,3134,3354,3385,3186
1508400195579490876,254,1508400195579320144,plot_matl,-0.300000011921,-500.0,-0.18974339962,0.00250518461689,0.1102565974,55.7124176025,0.349065840244,0.110657475889,-0.00870248768479,-0.189751833677,0.00341747142375,0.00341747142375,0.00133397663012,0.00268673943356,-12.1125640869,-12.1125640869,0.412448525429,-93.520904541,2012,2049,2116,2021,2021,2791,3343,3358,3174,3305,3025,2971,3064,3078,3168,2870,3367,3365,3191,3270,2911,3280,3306,3027,0.010004607,2.53999391,2.541170178,0.453785598278,4500.0,0.459723323584,0.00608590198681,0.0,0.0,0.0,6000.0,-0.00869030691683,0.00108823226765,-0.00869030691683,51.833480835,0.349065840244,0.0289103612304,-0.0051998551935,0.309399485588,0.0191727653146,0.0191727653146,-0.00239974656142,-0.00289372913539,110.111175537,110.111175537,0.152152597904,1.47694540024,2017,2021,2550,2027,2027,2930,3426,3423,3240,3360,3083,3060,3161,3153,3243,2869,3411,3417,3251,3365,3135,3354,3384,3188
