%time,field.header.seq,field.header.stamp,field.header.frame_id,field.FFJ4_set_point,field.FFJ4_position_gain,field.FFJ4_process_value,field.FFJ4_process_value_dot,field.FFJ4_error,field.FFJ4_command,field.FFJ1,field.FFJ2,field.FFJ3,field.FFJ4,field.FFJ1_dot,field.FFJ2_dot,field.FFJ3_dot,field.FFJ4_dot,field.FFJ1_tao,field.FFJ2_tao,field.FFJ3_tao,field.FFJ4_tao,field.pac0,field.pac1,field.pdc0,field.tac0,field.tdc0,field.el0,field.el1,field.el2,field.el3,field.el4,field.el5,field.el6,field.el7,field.el8,field.el9,field.el10,field.el11,field.el12,field.el13,field.el14,field.el15,field.el16,field.el17,field.el18,field.dt,field.time,field.test_time2,field.FFJ0_set_point,field.FFJ0_position_gain,field.FFJ0_process_value,field.FFJ0_process_value_dot,field.FFJ0_error,field.FFJ0_command,field.FFJ3_set_point,field.FFJ3_position_gain,field.FFJ3_process_value,field.FFJ3_process_value_dot,field.FFJ3_error,field.FFJ3_command,field.MFJ1,field.MFJ2,field.MFJ3,field.MFJ4,field.MFJ1_dot,field.MFJ2_dot,field.MFJ3_dot,field.MFJ4_dot,field.MFJ1_tao,field.MFJ2_tao,field.MFJ3_tao,field.MFJ4_tao,field.Mpac0,field.Mpac1,field.Mpdc0,field.Mtac0,field.Mtdc0,field.Mel0,field.Mel1,field.Mel2,field.Mel3,field.Mel4,field.Mel5,field.Mel6,field.Mel7,field.Mel8,field.Mel9,field.Mel10,field.Mel11,field.Mel12,field.Mel13,field.Mel14,field.Mel15,field.Mel16,field.Mel17,field.Mel18
1508400768993615568,129,1508400768993165242,plot_matl,0.349065840244,-500.0,0.119081065059,-0.00637721177191,-0.229984790087,-116.495117188,0.349065840244,0.0890657678246,-0.009291713126,0.119023554027,0.0125553887337,0.0125553887337,-0.0136233847588,-0.00527392886579,-0.752904653549,-0.752904653549,-0.555439412594,107.560165405,2032,2066,2117,2028,2028,2679,3312,3335,3140,3285,3000,2970,3052,3084,3166,2949,3389,3383,3225,3280,2939,3274,3302,3023,0.009967862,1.289975429,1.285854198,0.453785598278,4500.0,0.436782151461,-0.00140990933869,-0.0170034654438,76.5155944824,0.0,6000.0,-0.00930387154222,4.74020562251e-05,-0.00930387154222,55.8151741028,0.349065840244,0.0240919683129,-0.0026385190431,0.313653737307,-0.0166075211018,-0.0166075211018,0.00729171838611,0.0346095263958,109.519203186,109.519203186,0.419406652451,0.0456668660045,2029,2026,2549,2030,2030,2939,3425,3422,3240,3360,3082,3061,3162,3154,3242,2865,3410,3416,3251,3366,3136,3353,3386,3187
1508400769003451345,130,1508400769003167208,plot_matl,0.349065840244,-500.0,0.119062624872,0.0148508623242,-0.230003222823,-111.509002686,0.349065840244,0.0890657678246,-0.009291713126,0.119023554027,0.0125553887337,0.0125553887337,-0.0136233847588,-0.00527392886579,-0.752904653549,-0.752904653549,-0.555439412594,107.560165405,2024,2069,2118,2027,2027,2680,3313,3335,3140,3285,3000,2970,3052,3084,3166,2949,3389,3383,3225,3280,2941,3275,3305,3024,0.00999943,1.299976322,1.2999259,0.453785598278,4500.0,0.436782151461,-0.00115430878941,-0.0170034654438,76.5155944824,0.0,6000.0,-0.00930362567306,3.8808600948e-05,-0.00930362567306,55.8151664734,0.349065840244,0.0240919683129,-0.0026385190431,0.313653737307,-0.0166075211018,-0.0166075211018,0.00729171838611,0.0346095263958,109.519203186,109.519203186,0.419406652451,0.0456668660045,2027,2026,2550,2030,2030,2938,3426,3422,3240,3360,3082,3061,3162,3154,3242,2865,3410,3416,3251,3366,3134,3357,3387,3187
1508400769013467077,131,1508400769013170364,plot_matl,0.349065840244,-500.0,0.119064629078,0.0148100964725,-0.230001226068,-111.532043457,0.349065840244,0.0877162888646,-0.00930346176028,0.119055956602,-0.000502041832078,-0.000502041832078,3.30726288666e-05,-0.00587239442393,-0.752209663391,-0.752209663391,-0.449639797211,107.517753601,2029,2068,2118,2027,2027,2680,3313,3336,3139,3286,2998,2969,3049,3086,3166,2948,3388,3383,3225,3280,2941,3275,3305,3024,0.010004054,1.309979747,1.310531074,0.453785598278,4500.0,0.435432672501,-0.0276929885149,-0.0183529462665,82.5882568359,0.0,6000.0,-0.00929057877511,0.0131922224537,-0.00929057877511,51.88438797,0.349065840244,0.0265011657029,-0.00266367918812,0.313649088144,0.00760986050591,0.00760986050591,-0.00753124058247,-0.0269427802414,109.626441956,109.626441956,0.258466005325,0.261510938406,2024,2025,2550,2030,2030,2938,3426,3423,3240,3361,3083,3060,3162,3156,3243,2866,3412,3416,3251,3366,3134,3357,3387,3187
1508400769023503202,132,1508400769023176580,plot_matl,0.349065840244,-500.0,0.119064711034,0.0148118082434,-0.230001136661,-111.461380005,0.349065840244,0.0877162888646,-0.00930346176028,0.119055956602,-0.000502041832078,-0.000502041832078,3.30726288666e-05,-0.00587239442393,-0.752209663391,-0.752209663391,-0.449639797211,107.517753601,2044,2073,2117,2027,2027,2680,3313,3336,3139,3286,2998,2969,3049,3086,3166,2948,3388,3383,3225,3281,2940,3276,3306,3021,0.010007485,1.319987007,1.32098802,0.453785598278,4500.0,0.438131630421,0.0263576749712,-0.0156539846212,70.4429244995,0.0,6000.0,-0.00929274596274,-0.000183224823559,-0.00929274596274,55.8154411316,0.349065840244,0.0265011657029,-0.00266367918812,0.313649088144,0.00760986050591,0.00760986050591,-0.00753124058247,-0.0269427802414,109.626441956,109.626441956,0.258466005325,0.261510938406,2030,2028,2550,2032,2032,2938,3426,3423,3240,3361,3083,3060,3162,3156,3243,2866,3412,3416,3251,3365,3134,3353,3384,3187
1508400769033559015,133,1508400769033189704,plot_matl,0.349065840244,-500.0,0.119104683399,-0.00683857128024,-0.229961171746,-116.571029663,0.349065840244,0.0877162888646,-0.00930346176028,0.119055956602,-0.000502041832078,-0.000502041832078,3.30726288666e-05,-0.00587239442393,-0.752209663391,-0.752209663391,-0.449639797211,107.517753601,2040,2063,2117,2027,2027,2681,3312,3334,3138,3287,3001,2970,3053,3083,3164,2948,3388,3383,3225,3281,2940,3276,3306,3021,0.010021327,1.329999723,1.332836491,0.453785598278,4500.0,0.436782151461,-0.000725666002836,-0.0170034654438,76.5155944824,0.0,6000.0,-0.00929451361299,-0.000150083375047,-0.00929451361299,55.8139190674,0.349065840244,0.0265011657029,-0.00266367918812,0.313649088144,0.00760986050591,0.00760986050591,-0.00753124058247,-0.0269427802414,109.626441956,109.626441956,0.258466005325,0.261510938406,2035,2025,2550,2032,2032,2937,3427,3426,3242,3359,3082,3060,3163,3155,3242,2866,3412,3416,3251,3365,3134,3353,3384,3187
1508400769043412357,134,1508400769043179592,plot_matl,0.349065840244,-500.0,0.119100868702,0.0141118420288,-0.229964986444,-111.604042053,0.349065840244,0.0877162888646,-0.00930346176028,0.119055956602,-0.000502041832078,-0.000502041832078,3.30726288666e-05,-0.00587239442393,-0.752209663391,-0.752209663391,-0.449639797211,107.517753601,2041,2076,2117,2027,2027,2681,3312,3334,3138,3287,3001,2970,3053,3083,3164,2949,3391,3383,3225,3280,2938,3274,3303,3025,0.009978676,1.33998885,1.337142584,0.453785598278,4500.0,0.436782151461,-9.3712566013e-05,-0.0170034654438,76.5155944824,0.0,6000.0,-0.00929595623165,-0.000123027988593,-0.00929595623165,55.8154907227,0.349065840244,0.0265011657029,-0.00266367918812,0.313649088144,0.00760986050591,0.00760986050591,-0.00753124058247,-0.0269427802414,109.626441956,109.626441956,0.258466005325,0.261510938406,2033,2026,2549,2032,2032,2937,3427,3426,3242,3359,3082,3060,3163,3155,3242,2864,3412,3419,3251,3365,3134,3353,3384,3185
1508400769053422733,135,1508400769053168684,plot_matl,0.349065840244,-500.0,0.119114764035,0.0138195380569,-0.22995108366,-111.55039978,0.349065840244,0.0877162888646,-0.00928472168744,0.119107164443,0.000216952888877,0.000216952888877,-0.000353115552571,-0.00689590955153,-0.679713368416,-0.679713368416,-0.316978901625,107.220581055,2026,2063,2117,2027,2027,2679,3313,3335,3141,3286,2998,2969,3052,3083,3164,2949,3391,3383,3225,3280,2938,3274,3303,3025,0.009990518,1.349978925,1.34871993,0.453785598278,4500.0,0.436782151461,0.000950434536207,-0.0170034654438,76.5155944824,0.0,6000.0,-0.0092854257673,-0.00033914775122,-0.0092854257673,55.8196907043,0.349065840244,0.0265011657029,-0.00269877980463,0.313793808222,0.00441128201783,0.00441128201783,0.00852646678686,0.0320235639811,109.68775177,109.68775177,0.439972728491,0.293313443661,2028,2032,2549,2030,2030,2937,3426,3425,3241,3360,3084,3059,3162,3155,3242,2864,3412,3419,3251,3365,3134,3353,3384,3185
1508400769063594047,136,1508400769063222176,plot_matl,0.349065840244,-500.0,0.119105659425,-0.00687111821026,-0.22996018827,-116.72668457,0.349065840244,0.0877162888646,-0.00928472168744,0.119107164443,0.000216952888877,0.000216952888877,-0.000353115552571,-0.00689590955153,-0.679713368416,-0.679713368416,-0.316978901625,107.220581055,2033,2070,2117,2027,2027,2679,3313,3335,3141,3286,2998,2969,3052,3086,3164,2946,3387,3383,3224,3284,2940,3275,3302,3025,0.010052416,1.360031569,1.367128576,0.453785598278,4500.0,0.436782151461,0.00080911203986,-0.0170034654438,76.5155944824,0.0,6000.0,-0.00928852707148,-0.000277615123196,-0.00928852707148,55.8208198547,0.349065840244,0.0265011657029,-0.00269877980463,0.313793808222,0.00441128201783,0.00441128201783,0.00852646678686,0.0320235639811,109.68775177,109.68775177,0.439972728491,0.293313443661,2031,2030,2549,2030,2030,2937,3426,3425,3241,3360,3084,3059,3162,3154,3244,2865,3410,3415,3250,3366,3135,3354,3385,3185
1508400769073611460,137,1508400769073191062,plot_matl,0.349065840244,-500.0,0.119099915028,-0.00675314012915,-0.229965940118,-116.593292236,0.349065840244,0.0877162888646,-0.00928472168744,0.119107164443,0.000216952888877,0.000216952888877,-0.000353115552571,-0.00689590955153,-0.679713368416,-0.679713368416,-0.316978901625,107.220581055,2034,2066,2117,2025,2025,2680,3313,3334,3138,3286,3000,2969,3052,3086,3164,2946,3387,3383,3224,3284,2940,3275,3302,3022,0.009970829,1.370001479,1.366003573,0.453785598278,4500.0,0.436782151461,0.000192010222236,-0.0170034654438,76.5155944824,0.0,6000.0,-0.00929104723036,-0.000227596843615,-0.00929104723036,55.8152160645,0.349065840244,0.0265011657029,-0.00269877980463,0.313793808222,0.00441128201783,0.00441128201783,0.00852646678686,0.0320235639811,109.68775177,109.68775177,0.439972728491,0.293313443661,2024,2023,2550,2032,2032,2938,3428,3424,3240,3359,3083,3059,3162,3154,3244,2865,3410,3415,3250,3366,3135,3354,3385,3187
1508400769083546318,138,1508400769083177896,plot_matl,0.349065840244,-500.0,0.119074456394,-0.00626154663041,-0.229991391301,-116.500587463,0.349065840244,0.0877162888646,-0.00928472168744,0.119107164443,0.000216952888877,0.000216952888877,-0.000353115552571,-0.00689590955153,-0.679713368416,-0.679713368416,-0.316978901625,107.220581055,2028,2065,2117,2025,2025,2680,3313,3334,3138,3286,3000,2970,3050,3084,3162,2948,3391,3382,3223,3280,2939,3275,3302,3022,0.009985637,1.379988058,1.378017906,0.453785598278,4500.0,0.438131630421,0.0268779080361,-0.0156539846212,70.4429244995,0.0,6000.0,-0.00929312687367,-0.000186325472896,-0.00929312687367,55.8158378601,0.349065840244,0.0265011657029,-0.00269877980463,0.313793808222,0.00441128201783,0.00441128201783,0.00852646678686,0.0320235639811,109.68775177,109.68775177,0.439972728491,0.293313443661,2027,2029,2550,2032,2032,2938,3428,3424,3240,3359,3083,3061,3162,3155,3243,2865,3412,3416,3250,3365,3133,3354,3385,3187
1508400769093688077,139,1508400769093222932,plot_matl,0.349065840244,-500.0,0.119074068964,0.0146059775725,-0.229991778731,-111.419898987,0.349065840244,0.0877162888646,-0.00929451454431,0.119065232575,-0.000183753683814,-0.000183753683814,-0.000158782480867,-0.00608296412975,-0.903445541859,-0.903445541859,-0.329915821552,107.572662354,2017,2066,2116,2027,2027,2680,3310,3332,3138,3286,3000,2970,3050,3084,3162,2948,3391,3382,3223,3280,2939,3276,3302,3022,0.010043363,1.390032612,1.396027457,0.453785598278,4500.0,0.436782151461,0.00018671725411,-0.0170034654438,76.5155944824,0.0,6000.0,-0.00929483491927,-0.000152434076881,-0.00929483491927,55.8164558411,0.349065840244,0.0265011657029,-0.00274097360671,0.313474863768,0.0033598667942,0.0033598667942,-0.00600499752909,-0.0235011205077,109.504837036,109.504837036,0.398033350706,0.636573374271,2019,2022,2549,2027,2027,2936,3427,3422,3243,3359,3083,3061,3162,3155,3243,2865,3412,3416,3250,3365,3133,3355,3384,3188
1508400769103565432,140,1508400769103176997,plot_matl,0.349065840244,-500.0,0.119074895978,-0.00628078496084,-0.229990959167,-116.602432251,0.349065840244,0.0877162888646,-0.00929451454431,0.119065232575,-0.000183753683814,-0.000183753683814,-0.000158782480867,-0.00608296412975,-0.903445541859,-0.903445541859,-0.329915821552,107.572662354,2012,2070,2116,2027,2027,2680,3310,3332,3138,3285,2997,2970,3051,3086,3165,2949,3390,3382,3223,3280,2939,3276,3302,3022,0.009953669,1.399986687,1.39351366,0.453785598278,4500.0,0.436782151461,0.00067252269946,-0.0170034654438,76.5155944824,0.0,6000.0,-0.00929623190314,-0.00012471563241,-0.00929623190314,55.8181266785,0.349065840244,0.0265011657029,-0.00274097360671,0.313474863768,0.0033598667942,0.0033598667942,-0.00600499752909,-0.0235011205077,109.504837036,109.504837036,0.398033350706,0.636573374271,2025,2034,2549,2027,2027,2936,3427,3422,3243,3360,3082,3059,3163,3153,3244,2864,3413,3416,3250,3365,3133,3355,3384,3188
1508400769113719866,141,1508400769113231364,plot_matl,0.349065840244,-500.0,0.11909621954,0.0142104038969,-0.229969635606,-111.813835144,0.349065840244,0.0877162888646,-0.00929451454431,0.119065232575,-0.000183753683814,-0.000183753683814,-0.000158782480867,-0.00608296412975,-0.903445541859,-0.903445541859,-0.329915821552,107.572662354,2026,2073,2116,2024,2024,2679,3312,3332,3138,3285,2997,2970,3051,3086,3165,2949,3390,3382,3223,3281,2939,3275,3302,3022,0.010055871,1.410041806,1.417877811,0.453785598278,4500.0,0.438131630421,0.0272903684527,-0.0156539846212,70.4429244995,0.0,6000.0,-0.00928508397192,0.0130639206618,-0.00928508397192,52.0546760559,0.349065840244,0.0265011657029,-0.00274097360671,0.313474863768,0.0033598667942,0.0033598667942,-0.00600499752909,-0.0235011205077,109.504837036,109.504837036,0.398033350706,0.636573374271,2028,2032,2549,2028,2028,2937,3425,3422,3243,3360,3082,3059,3163,3153,3244,2864,3413,3416,3250,3365,3134,3354,3383,3186
1508400769123359780,142,1508400769123174764,plot_matl,0.349065840244,-500.0,0.119107440114,-0.00691450852901,-0.229958415031,-116.567367554,0.349065840244,0.0877162888646,-0.00929451454431,0.119065232575,-0.000183753683814,-0.000183753683814,-0.000158782480867,-0.00608296412975,-0.903445541859,-0.903445541859,-0.329915821552,107.572662354,2027,2065,2116,2024,2024,2679,3312,3336,3136,3287,2999,2971,3050,3086,3164,2948,3389,3382,3223,3281,2939,3275,3302,3022,0.009940127,1.419984122,1.411498034,0.453785598278,4500.0,0.436782151461,-0.00146116432734,-0.0170034654438,76.5155944824,0.0,6000.0,-0.00928822718561,-0.000290232303087,-0.00928822718561,55.8122024536,0.349065840244,0.0265011657029,-0.00274097360671,0.313474863768,0.0033598667942,0.0033598667942,-0.00600499752909,-0.0235011205077,109.504837036,109.504837036,0.398033350706,0.636573374271,2027,2027,2549,2028,2028,2937,3425,3423,3241,3360,3083,3061,3161,3154,3243,2867,3411,3416,3250,3365,3134,3354,3383,3186
1508400769133450769,143,1508400769133164769,plot_matl,0.349065840244,-500.0,0.119138464332,0.0133190974593,-0.229927390814,-111.673561096,0.349065840244,0.0877162888646,-0.00926627870649,0.119132295251,-0.000373571412638,-0.000373571412638,-0.000728320213966,0.0134453158826,-1.21566939354,-1.21566939354,-0.642476201057,107.734062195,2015,2065,2116,2027,2027,2679,3312,3336,3136,3287,2999,2971,3050,3086,3164,2948,3389,3381,3223,3281,2938,3276,3303,3023,0.009990768,1.42997449,1.428679824,0.453785598278,4500.0,0.436782151461,-0.000716898066457,-0.0170034654438,76.5155944824,0.0,6000.0,-0.00926774553955,-0.000698837393429,-0.00926774553955,55.8233757019,0.349065840244,0.0265011657029,-0.00273144571111,0.31360706687,0.00502136303112,0.00502136303112,0.0091601498425,0.0357291102409,109.639671326,109.639671326,0.367053389549,0.358147352934,2025,2024,2549,2031,2031,2937,3425,3423,3241,3360,3083,3061,3161,3154,3243,2867,3411,3418,3250,3366,3133,3354,3386,3185
1508400769143586702,144,1508400769143242776,plot_matl,0.349065840244,-500.0,0.119089476764,-0.00655137328431,-0.229976370931,-116.623344421,0.349065840244,0.0877162888646,-0.00926627870649,0.119132295251,-0.000373571412638,-0.000373571412638,-0.000728320213966,0.0134453158826,-1.21566939354,-1.21566939354,-0.642476201057,107.734062195,2012,2055,2116,2027,2027,2681,3310,3335,3137,3286,2999,2971,3053,3085,3164,2948,3389,3381,3223,3281,2938,3276,3303,3023,0.010079579,1.440052923,1.451459376,0.453785598278,4500.0,0.436782151461,-0.000161072573974,-0.0170034654438,76.5155944824,0.0,6000.0,-0.00927405711263,-0.00057197699789,-0.00927405711263,55.8236198425,0.349065840244,0.0265011657029,-0.00273144571111,0.31360706687,0.00502136303112,0.00502136303112,0.0091601498425,0.0357291102409,109.639671326,109.639671326,0.367053389549,0.358147352934,2020,2022,2549,2031,2031,2938,3425,3425,3243,3360,3085,3060,3162,3154,3242,2867,3411,3418,3250,3366,3133,3354,3386,3185
1508400769153458350,145,1508400769153158101,plot_matl,0.349065840244,-500.0,0.119068078697,0.014720859006,-0.229997768998,-111.453804016,0.349065840244,0.0877162888646,-0.00926627870649,0.119132295251,-0.000373571412638,-0.000373571412638,-0.000728320213966,0.0134453158826,-1.21566939354,-1.21566939354,-0.642476201057,107.734062195,2034,2074,2116,2027,2027,2681,3310,3335,3137,3286,2999,2971,3053,3085,3164,2947,3387,3381,3224,3281,2936,3277,3302,3022,0.009912701,1.449967413,1.437341645,0.453785598278,4500.0,0.439481109381,0.052846711129,-0.0143045028672,64.370262146,0.0,6000.0,-0.00927920173854,-0.000468585640192,-0.00927920173854,55.8168029785,0.349065840244,0.0265011657029,-0.00273144571111,0.31360706687,0.00502136303112,0.00502136303112,0.0091601498425,0.0357291102409,109.639671326,109.639671326,0.367053389549,0.358147352934,2028,2028,2549,2031,2031,2938,3425,3425,3243,3360,3085,3060,3162,3154,3242,2865,3412,3417,3250,3365,3133,3354,3384,3186
1508400769163456966,146,1508400769163168972,plot_matl,0.349065840244,-500.0,0.119087271392,-0.0065265041776,-0.229978576303,-116.585113525,0.349065840244,0.0877162888646,-0.00926627870649,0.119132295251,-0.000373571412638,-0.000373571412638,-0.000728320213966,0.0134453158826,-1.21566939354,-1.21566939354,-0.642476201057,107.734062195,2008,2030,2116,2030,2030,2678,3311,3333,3137,3286,2998,2969,3050,3085,3164,2947,3387,3381,3224,3281,2936,3277,3302,3022,0.010021416,1.459988966,1.463126736,0.453785598278,4500.0,0.436782151461,-0.00132442940958,-0.0170034654438,76.5155944824,0.0,6000.0,-0.00927107967436,-0.000637292454485,-0.00927107967436,55.8210678101,0.349065840244,0.0265011657029,-0.00273144571111,0.31360706687,0.00502136303112,0.00502136303112,0.0091601498425,0.0357291102409,109.639671326,109.639671326,0.367053389549,0.358147352934,2018,2017,2549,2032,2032,2937,3425,3425,3242,3360,3083,3060,3163,3154,3242,2865,3412,3417,3250,3365,3133,3354,3384,3186
1508400769173782288,147,1508400769173241711,plot_matl,0.349065840244,-500.0,0.119162209332,0.0128148971125,-0.229903638363,-111.870750427,0.349065840244,0.0877162888646,-0.00926395133138,0.119134813547,-0.00106175732799,-0.00106175732799,-0.000780158443376,0.0133672598749,-0.886396944523,-0.886396944523,-0.558183610439,107.643226624,2049,2071,2116,2030,2030,2678,3311,3333,3137,3286,2998,2969,3050,3085,3162,2947,3388,3380,3224,3280,2937,3277,3303,3022,0.010063039,1.470051432,1.479266733,0.453785598278,4500.0,0.436782151461,-0.00203576660715,-0.0170034654438,76.5155944824,0.0,6000.0,-0.0092655448243,-0.000747920654248,-0.0092655448243,55.8173141479,0.349065840244,0.0240919683129,-0.00274262856692,0.313616007566,-0.0202006176114,-0.0202006176114,0.00932552944869,0.0356591455638,109.787155151,109.787155151,0.58111000061,0.665224671364,2037,2024,2549,2032,2032,2937,3425,3425,3242,3360,3083,3060,3163,3154,3245,2864,3410,3417,3250,3365,3135,3354,3383,3186
1508400769183550359,148,1508400769183165286,plot_matl,0.349065840244,-500.0,0.119182243943,-0.00843888241798,-0.229883611202,-116.715431213,0.349065840244,0.0877162888646,-0.00926395133138,0.119134813547,-0.00106175732799,-0.00106175732799,-0.000780158443376,0.0133672598749,-0.886396944523,-0.886396944523,-0.558183610439,107.643226624,2021,2047,2115,2029,2029,2680,3311,3335,3138,3284,2997,2969,3050,3085,3162,2947,3388,3380,3224,3280,2937,3277,3303,3022,0.009922092,1.479974891,1.468469616,0.453785598278,4500.0,0.436782151461,-0.00324348104186,-0.0170034654438,76.5155944824,0.0,6000.0,-0.00927220098674,-0.000613266252913,-0.00927220098674,55.79429245,0.349065840244,0.0240919683129,-0.00274262856692,0.313616007566,-0.0202006176114,-0.0202006176114,0.00932552944869,0.0356591455638,109.787155151,109.787155151,0.58111000061,0.665224671364,2027,2024,2549,2030,2030,2937,3424,3424,3240,3358,3084,3060,3163,3154,3245,2864,3410,3417,3250,3365,3135,3354,3383,3188
1508400769193347514,149,1508400769193155141,plot_matl,0.349065840244,-500.0,0.119125440717,-0.00728497607633,-0.229940399528,-116.772727966,0.349065840244,0.0877162888646,-0.00926395133138,0.119134813547,-0.00106175732799,-0.00106175732799,-0.000780158443376,0.0133672598749,-0.886396944523,-0.886396944523,-0.558183610439,107.643226624,2013,2046,2115,2029,2029,2680,3311,3335,3138,3284,2997,2971,3052,3085,3165,2946,3387,3381,3224,3282,2935,3277,3303,3022,0.00998934,1.489964388,1.48841166,0.453785598278,4500.0,0.436782151461,-0.00416599400342,-0.0170034654438,76.5155944824,0.0,6000.0,-0.00925476662815,-0.000958916149102,-0.00925476662815,55.827091217,0.349065840244,0.0240919683129,-0.00274262856692,0.313616007566,-0.0202006176114,-0.0202006176114,0.00932552944869,0.0356591455638,109.787155151,109.787155151,0.58111000061,0.665224671364,2028,2026,2549,2030,2030,2937,3424,3424,3240,3358,3084,3060,3163,3153,3242,2866,3412,3416,3249,3365,3133,3354,3383,3188
1508400769203553304,150,1508400769203168100,plot_matl,0.349065840244,-500.0,0.119081906974,-0.00638421718031,-0.229983940721,-116.508293152,0.349065840244,0.0877162888646,-0.00926395133138,0.119134813547,-0.00106175732799,-0.00106175732799,-0.000780158443376,0.0133672598749,-0.886396944523,-0.886396944523,-0.558183610439,107.643226624,2025,2071,2116,2030,2030,2680,3312,3334,3137,3284,2997,2971,3052,3085,3165,2946,3387,3381,3224,3282,2935,3276,3301,3024,0.010013993,1.499978593,1.50209895,0.453785598278,4500.0,0.436782151461,-0.00293092359789,-0.0170034654438,76.5155944824,0.0,6000.0,-0.00925177428871,-0.00102125131525,-0.00925177428871,55.8141403198,0.349065840244,0.0240919683129,-0.00274262856692,0.313616007566,-0.0202006176114,-0.0202006176114,0.00932552944869,0.0356591455638,109.787155151,109.787155151,0.58111000061,0.665224671364,2026,2032,2550,2028,2028,2937,3428,3424,3242,3358,3084,3060,3163,3153,3242,2866,3412,3416,3249,3365,3133,3354,3385,3186
1508400769213668243,151,1508400769213220714,plot_matl,0.349065840244,-500.0,0.119057953358,0.0147918565199,-0.230007901788,-111.217826843,0.349065840244,0.0877162888646,-0.00926000624895,0.119050212204,-0.00122770841699,-0.00122770841699,-0.000855565769598,-0.00593401771039,-0.986442506313,-0.986442506313,-0.394780874252,107.571601868,2020,2053,2116,2030,2030,2680,3312,3334,3137,3285,2998,2971,3050,3085,3165,2951,3391,3383,3226,3282,2935,3276,3301,3024,0.010052272,1.510030915,1.517893072,0.453785598278,4500.0,0.438131630421,0.0243704151362,-0.0156539846212,70.4429244995,0.0,6000.0,-0.00926206633449,-0.000814117840491,-0.00926206633449,55.8311691284,0.349065840244,0.0265011657029,-0.00269445078447,0.313466101885,0.00511582940817,0.00511582940817,0.00850600097328,0.0394357591867,109.780815125,109.780815125,0.876919031143,0.985944449902,2027,2025,2550,2028,2028,2937,3428,3424,3242,3359,3083,3060,3163,3154,3245,2869,3415,3422,3255,3365,3133,3354,3385,3186
1508400769223569663,152,1508400769223196748,plot_matl,0.349065840244,-500.0,0.119005195796,-0.00496871955693,-0.230060651898,-116.198379517,0.349065840244,0.0877162888646,-0.00926000624895,0.119050212204,-0.00122770841699,-0.00122770841699,-0.000855565769598,-0.00593401771039,-0.986442506313,-0.986442506313,-0.394780874252,107.571601868,2010,2039,2116,2027,2027,2681,3311,3334,3137,3285,2998,2971,3050,3085,3165,2951,3391,3383,3226,3284,2939,3279,3304,3024,0.009975197,1.520006905,1.516229944,0.453785598278,4500.0,0.436782151461,-0.00287274946459,-0.0170034654438,76.5155944824,0.0,6000.0,-0.00926935113966,-0.000667488086037,-0.00926935113966,55.8177146912,0.349065840244,0.0265011657029,-0.00269445078447,0.313466101885,0.00511582940817,0.00511582940817,0.00850600097328,0.0394357591867,109.780815125,109.780815125,0.876919031143,0.985944449902,2033,2026,2549,2030,2030,2937,3427,3424,3242,3359,3083,3060,3163,3154,3245,2869,3415,3422,3255,3368,3136,3355,3385,3188
1508400769233575645,153,1508400769233169530,plot_matl,0.349065840244,-500.0,0.119020543993,0.0156142674387,-0.230045303702,-111.197631836,0.349065840244,0.0877162888646,-0.00926000624895,0.119050212204,-0.00122770841699,-0.00122770841699,-0.000855565769598,-0.00593401771039,-0.986442506313,-0.986442506313,-0.394780874252,107.571601868,2035,2060,2116,2027,2027,2681,3311,3336,3137,3285,2998,2971,3050,3086,3165,2947,3390,3383,3226,3284,2939,3279,3304,3024,0.009971971,1.529979115,1.525711563,0.453785598278,4500.0,0.436782151461,-0.00187995540909,-0.0170034654438,76.5155944824,0.0,6000.0,-0.00926263909787,-0.000790424121078,-0.00926263909787,55.8211555481,0.349065840244,0.0265011657029,-0.00269445078447,0.313466101885,0.00511582940817,0.00511582940817,0.00850600097328,0.0394357591867,109.780815125,109.780815125,0.876919031143,0.985944449902,2028,2022,2549,2030,2030,2937,3427,3423,3242,3360,3084,3059,3165,3154,3244,2865,3412,3422,3255,3368,3136,3355,3385,3188
1508400769243375851,154,1508400769243153334,plot_matl,0.349065840244,-500.0,0.119025982916,-0.00536119984463,-0.230039864779,-116.285140991,0.349065840244,0.0877162888646,-0.00926000624895,0.119050212204,-0.00122770841699,-0.00122770841699,-0.000855565769598,-0.00593401771039,-0.986442506313,-0.986442506313,-0.394780874252,107.571601868,1991,2036,2115,2027,2027,2681,3311,3336,3137,3285,2998,2971,3050,3086,3165,2947,3390,3382,3225,3281,2938,3274,3304,3022,0.009982322,1.539962359,1.537277588,0.453785598278,4500.0,0.436782151461,-0.00301638292149,-0.0170034654438,76.5155944824,0.0,6000.0,-0.00926979910582,-0.000648491492029,-0.00926979910582,55.8170585632,0.349065840244,0.0265011657029,-0.00269445078447,0.313466101885,0.00511582940817,0.00511582940817,0.00850600097328,0.0394357591867,109.780815125,109.780815125,0.876919031143,0.985944449902,2024,2023,2549,2032,2032,2937,3427,3423,3242,3360,3084,3059,3165,3154,3244,2865,3412,3417,3250,3365,3134,3356,3386,3186
1508400769253353530,155,1508400769253170715,plot_matl,0.349065840244,-500.0,0.119031541049,-0.00549845676869,-0.230034306645,-116.434806824,0.349065840244,0.0877162888646,-0.00927411485463,0.119028940797,-0.0015536705032,-0.0015536705032,-0.000562960456591,-0.00541190244257,-1.03554487228,-1.03554487228,-0.282044351101,107.386672974,1996,2047,2115,2027,2027,2680,3309,3336,3137,3284,2997,2970,3053,3085,3165,2947,3390,3382,3225,3281,2938,3274,3304,3022,0.010018025,1.549980145,1.552793875,0.453785598278,4500.0,0.438131630421,0.0237713996321,-0.0156539846212,70.4429244995,0.0,6000.0,-0.00927578471601,-0.000529847457074,-0.00927578471601,55.8324394226,0.349065840244,0.0265011657029,-0.00268366839737,0.313348025084,0.00559216039255,0.00559216039255,-0.00716388924047,0.0412667691708,109.945106506,109.945106506,1.35000622272,0.734121799469,2017,2021,2549,2032,2032,2938,3427,3424,3242,3360,3084,3059,3162,3153,3242,2865,3412,3417,3250,3365,3134,3356,3386,3186
1508400769263551448,156,1508400769263163448,plot_matl,0.349065840244,-500.0,0.119056582451,-0.00598759017885,-0.230009257793,-116.375648499,0.349065840244,0.0877162888646,-0.00927411485463,0.119028940797,-0.0015536705032,-0.0015536705032,-0.000562960456591,-0.00541190244257,-1.03554487228,-1.03554487228,-0.282044351101,107.386672974,2006,2041,2117,2027,2027,2680,3309,3336,3137,3284,2997,2970,3053,3085,3165,2948,3387,3383,3223,3282,2940,3276,3305,3023,0.009992492,1.559972878,1.558828752,0.453785598278,4500.0,0.436782151461,-0.00183675333392,-0.0170034654438,76.5155944824,0.0,6000.0,-0.0092433122918,0.0122287636623,-0.0092433122918,51.9023971558,0.349065840244,0.0265011657029,-0.00268366839737,0.313348025084,0.00559216039255,0.00559216039255,-0.00716388924047,0.0412667691708,109.945106506,109.945106506,1.35000622272,0.734121799469,2027,2029,2550,2032,2032,2938,3427,3424,3242,3360,3084,3059,3162,3153,3242,2865,3413,3419,3251,3366,3135,3356,3385,3187
1508400769273673403,157,1508400769273220131,plot_matl,0.349065840244,-500.0,0.119060330093,0.0148206483573,-0.230005517602,-111.301193237,0.349065840244,0.0877162888646,-0.00927411485463,0.119028940797,-0.0015536705032,-0.0015536705032,-0.000562960456591,-0.00541190244257,-1.03554487228,-1.03554487228,-0.282044351101,107.386672974,2007,2027,2117,2027,2027,2678,3311,3334,3141,3285,2999,2970,3050,3085,3165,2948,3387,3383,3223,3282,2940,3276,3305,3023,0.010058627,1.570030397,1.579204439,0.453785598278,4500.0,0.436782151461,-0.00401188014075,-0.0170034654438,76.5155944824,0.0,6000.0,-0.00926522351801,-0.000746137695387,-0.00926522351801,55.8253364563,0.349065840244,0.0265011657029,-0.00268366839737,0.313348025084,0.00559216039255,0.00559216039255,-0.00716388924047,0.0412667691708,109.945106506,109.945106506,1.35000622272,0.734121799469,2033,2018,2550,2032,2032,2938,3426,3424,3240,3360,3083,3061,3163,3153,3242,2865,3413,3419,3251,3366,3135,3356,3385,3187
1508400769283415319,158,1508400769283171930,plot_matl,0.349065840244,-500.0,0.11904245615,0.0151894260198,-0.230023398995,-111.476127625,0.349065840244,0.0877162888646,-0.00927411485463,0.119028940797,-0.0015536705032,-0.0015536705032,-0.000562960456591,-0.00541190244257,-1.03554487228,-1.03554487228,-0.282044351101,107.386672974,1999,2017,2117,2027,2027,2678,3311,3334,3141,3285,2999,2970,3050,3086,3164,2948,3388,3381,3224,3280,2940,3275,3304,3023,0.009950226,1.579982142,1.572135708,0.453785598278,4500.0,0.436782151461,-0.00371872307733,-0.0170034654438,76.5155944824,0.0,6000.0,-0.00925884675235,-0.000869660638273,-0.00925884675235,55.8086051941,0.349065840244,0.0265011657029,-0.00268366839737,0.313348025084,0.00559216039255,0.00559216039255,-0.00716388924047,0.0412667691708,109.945106506,109.945106506,1.35000622272,0.734121799469,2029,2023,2550,2032,2032,2938,3426,3424,3240,3360,3083,3061,3163,3155,3244,2866,3410,3418,3253,3364,3135,3353,3382,3187
1508400769293409245,159,1508400769293167015,plot_matl,0.349065840244,-500.0,0.119028031826,-0.0262319464236,-0.230037823319,-121.155532837,0.349065840244,0.0890657678246,-0.0092645874247,0.119045957923,0.0112608494237,0.0112608494237,-0.000755333632696,0.0151334572583,-0.836679816246,-0.836679816246,-0.0887764915824,107.328971863,2029,2054,2117,2027,2027,2679,3312,3336,3138,3285,2999,2970,3050,3086,3164,2948,3388,3381,3224,3280,2940,3275,3304,3023,0.009993629,1.58997641,1.588987011,0.453785598278,4500.0,0.436782151461,-0.00496024778113,-0.0170034654438,76.5155944824,0.0,6000.0,-0.0092539023608,0.0124482503161,-0.0092539023608,51.8776435852,0.349065840244,0.0265011657029,-0.00272591877729,0.313281327486,0.00791362207383,0.00791362207383,0.00903417635709,-0.0195417497307,109.619255066,109.619255066,1.39311659336,0.425168156624,2030,2026,2549,2032,2032,2937,3424,3424,3241,3358,3083,3061,3163,3155,3244,2866,3410,3418,3253,3364,3135,3353,3382,3187
1508400769303523665,160,1508400769303177380,plot_matl,0.349065840244,-500.0,0.119057141244,-0.00594782736152,-0.23000870645,-116.382064819,0.349065840244,0.0890657678246,-0.0092645874247,0.119045957923,0.0112608494237,0.0112608494237,-0.000755333632696,0.0151334572583,-0.836679816246,-0.836679816246,-0.0887764915824,107.328971863,2010,2025,2117,2027,2027,2679,3312,3336,3138,3285,2999,2971,3049,3085,3163,2947,3390,3381,3225,3281,2939,3275,3304,3023,0.010012543,1.599987793,1.60200688,0.453785598278,4500.0,0.436782151461,-0.00503745349124,-0.0170034654438,76.5155944824,0.0,6000.0,-0.00926272757351,-0.000794113380834,-0.00926272757351,55.81092453,0.349065840244,0.0265011657029,-0.00272591877729,0.313281327486,0.00791362207383,0.00791362207383,0.00903417635709,-0.0195417497307,109.619255066,109.619255066,1.39311659336,0.425168156624,2022,2017,2549,2032,2032,2937,3424,3424,3241,3358,3083,3060,3163,3154,3241,2865,3411,3416,3253,3368,3136,3353,3382,3187
1508400769313496148,161,1508400769313202071,plot_matl,0.349065840244,-500.0,0.119062379003,-0.00605141744018,-0.230003476143,-116.497207642,0.349065840244,0.0890657678246,-0.0092645874247,0.119045957923,0.0112608494237,0.0112608494237,-0.000755333632696,0.0151334572583,-0.836679816246,-0.836679816246,-0.0887764915824,107.328971863,2007,2048,2118,2027,2027,2680,3310,3334,3138,3285,2999,2971,3049,3085,3163,2947,3390,3381,3225,3281,2939,3276,3303,3026,0.01002223,1.610011821,1.61357903,0.453785598278,4500.0,0.436782151461,-0.00505396304652,-0.0170034654438,76.5155944824,0.0,6000.0,-0.00926995463669,-0.000649867637549,-0.00926995463669,55.8244171143,0.349065840244,0.0265011657029,-0.00272591877729,0.313281327486,0.00791362207383,0.00791362207383,0.00903417635709,-0.0195417497307,109.619255066,109.619255066,1.39311659336,0.425168156624,2022,2023,2549,2032,2032,2937,3427,3423,3241,3358,3083,3060,3163,3154,3241,2865,3411,3416,3253,3368,3136,3354,3385,3185
1508400769323461738,162,1508400769323194367,plot_matl,0.349065840244,-500.0,0.119062334299,-0.00604643300176,-0.230003520846,-116.396690369,0.349065840244,0.0890657678246,-0.0092645874247,0.119045957923,0.0112608494237,0.0112608494237,-0.000755333632696,0.0151334572583,-0.836679816246,-0.836679816246,-0.0887764915824,107.328971863,2045,2073,2118,2027,2027,2680,3310,3334,3138,3285,2999,2971,3053,3085,3163,2946,3388,3381,3224,3281,2939,3276,3303,3026,0.009993218,1.620004794,1.618901316,0.453785598278,4500.0,0.436782151461,-0.00370686361566,-0.0170034654438,76.5155944824,0.0,6000.0,-0.00926343630999,-0.00077862344915,-0.00926343630999,55.8097991943,0.349065840244,0.0265011657029,-0.00272591877729,0.313281327486,0.00791362207383,0.00791362207383,0.00903417635709,-0.0195417497307,109.619255066,109.619255066,1.39311659336,0.425168156624,2032,2027,2549,2032,2032,2937,3427,3423,3241,3360,3084,3061,3163,3154,3243,2866,3411,3418,3251,3368,3136,3354,3385,3185
1508400769333553156,163,1508400769333205857,plot_matl,0.349065840244,-500.0,0.119066886604,-0.00611812714487,-0.229998961091,-116.584335327,0.349065840244,0.0877162888646,-0.00926853716373,0.119064681232,-0.000844750204124,-0.000844750204124,-0.000676996714901,0.0147743849084,-0.970269203186,-0.970269203186,-0.450374990702,107.323806763,2030,2054,2117,2029,2029,2680,3311,3334,3138,3285,2999,2971,3053,3085,3163,2946,3388,3381,3224,3283,2937,3275,3303,3023,0.010013114,1.630017161,1.632137582,0.453785598278,4500.0,0.436782151461,-0.00159025378525,-0.0170034654438,76.5155944824,0.0,6000.0,-0.00925778411329,-0.000885370071046,-0.00925778411329,55.8402557373,0.349065840244,0.0240919683129,-0.00266164285131,0.313254147768,-0.0167501252145,-0.0167501252145,0.00771903432906,0.0429880395532,109.46647644,109.46647644,1.48132193089,-0.288091629744,2031,2019,2549,2032,2032,2938,3424,3423,3241,3360,3084,3061,3163,3154,3243,2866,3411,3418,3251,3365,3135,3354,3383,3185
1508400769343400046,164,1508400769343169929,plot_matl,0.349065840244,-500.0,0.119049623609,-0.00574805215001,-0.230016231537,-116.358680725,0.349065840244,0.0877162888646,-0.00926853716373,0.119064681232,-0.000844750204124,-0.000844750204124,-0.000676996714901,0.0147743849084,-0.970269203186,-0.970269203186,-0.450374990702,107.323806763,2021,2045,2117,2029,2029,2680,3311,3338,3137,3283,2999,2970,3050,3086,3163,2948,3390,3381,3224,3283,2937,3275,3303,3023,0.009960043,1.639979394,1.633447052,0.453785598278,4500.0,0.436782151461,-0.00179057614878,-0.0170034654438,76.5155944824,0.0,6000.0,-0.00925299338996,0.0124348606914,-0.00925299338996,51.8703918457,0.349065840244,0.0240919683129,-0.00266164285131,0.313254147768,-0.0167501252145,-0.0167501252145,0.00771903432906,0.0429880395532,109.46647644,109.46647644,1.48132193089,-0.288091629744,2033,2023,2549,2032,2032,2938,3424,3422,3242,3357,3083,3061,3164,3154,3242,2865,3411,3418,3251,3365,3135,3354,3383,3185
1508400769353345406,165,1508400769353196994,plot_matl,0.349065840244,-500.0,0.11897688359,-0.0251480005682,-0.230088964105,-121.267311096,0.349065840244,0.0877162888646,-0.00926853716373,0.119064681232,-0.000844750204124,-0.000844750204124,-0.000676996714901,0.0147743849084,-0.970269203186,-0.970269203186,-0.450374990702,107.323806763,2041,2082,2117,2027,2027,2680,3311,3338,3137,3283,2999,2970,3050,3086,3163,2948,3390,3383,3224,3283,2939,3276,3302,3022,0.010025144,1.650005692,1.65414876,0.453785598278,4500.0,0.438131630421,0.0257837958634,-0.0156539846212,70.4429244995,0.0,6000.0,-0.00926198251545,-0.000805323885288,-0.00926198251545,55.8252220154,0.349065840244,0.0240919683129,-0.00266164285131,0.313254147768,-0.0167501252145,-0.0167501252145,0.00771903432906,0.0429880395532,109.46647644,109.46647644,1.48132193089,-0.288091629744,2026,2029,2549,2033,2033,2938,3424,3422,3242,3357,3083,3061,3164,3154,3242,2865,3411,3418,3250,3366,3134,3354,3384,3188
1508400769363307099,166,1508400769363151925,plot_matl,0.349065840244,-500.0,0.118975192308,-0.00426134932786,-0.230090662837,-116.050048828,0.349065840244,0.0877162888646,-0.00926853716373,0.119064681232,-0.000844750204124,-0.000844750204124,-0.000676996714901,0.0147743849084,-0.970269203186,-0.970269203186,-0.450374990702,107.323806763,2041,2082,2117,2027,2027,2680,3311,3338,3137,3283,2999,2970,3050,3086,3163,2948,3390,3383,3224,3283,2939,3276,3302,3022,0.009955774,1.659961244,1.652658484,0.453785598278,4500.0,0.436782151461,-0.000719029631,-0.0170034654438,76.5155944824,0.0,6000.0,-0.00926932692528,-0.000659409619402,-0.00926932692528,55.8142776489,0.349065840244,0.0240919683129,-0.00266164285131,0.313254147768,-0.0167501252145,-0.0167501252145,0.00771903432906,0.0429880395532,109.46647644,109.46647644,1.48132193089,-0.288091629744,2026,2029,2549,2033,2033,2938,3424,3422,3242,3357,3083,3061,3164,3154,3242,2865,3411,3418,3250,3366,3134,3354,3384,3188
1508400769373635065,167,1508400769373191134,plot_matl,0.349065840244,-500.0,0.118970669806,-0.00418798718601,-0.230095177889,-116.044639587,0.349065840244,0.0890657678246,-0.00926079414785,0.119004294276,0.0130511438474,0.0130511438474,0.0125865694135,0.0159932859242,-1.36518776417,-1.36518776417,-0.399262011051,107.08644104,2009,2051,2117,2027,2027,2679,3310,3336,3138,3285,2998,2969,3053,3085,3166,2948,3388,3381,3226,3281,2938,3278,3303,3025,0.010041628,1.670001576,1.676951876,0.453785598278,4500.0,0.436782151461,-0.000561852764804,-0.0170034654438,76.5155944824,0.0,6000.0,-0.00926322676241,-0.000787885859609,-0.00926322676241,55.8174552917,0.349065840244,0.0265011657029,-0.00261756684631,0.313092321157,0.00819259230047,0.00819259230047,-0.00850344356149,0.0463472157717,109.340156555,109.340156555,0.982624650002,-0.470744460821,2019,2028,2549,2033,2033,2936,3426,3422,3240,3359,3084,3059,3164,3154,3244,2864,3413,3418,3250,3366,3133,3353,3382,3187
1508400769383579107,168,1508400769383182704,plot_matl,0.349065840244,-500.0,0.118968240917,-0.00414155004546,-0.230097606778,-115.981414795,0.349065840244,0.0890657678246,-0.00926079414785,0.119004294276,0.0130511438474,0.0130511438474,0.0125865694135,0.0159932859242,-1.36518776417,-1.36518776417,-0.399262011051,107.08644104,2039,2058,2117,2028,2028,2679,3309,3336,3139,3284,3000,2970,3050,3085,3166,2948,3388,3381,3226,3281,2938,3278,3303,3025,0.009989686,1.679992499,1.678267248,0.453785598278,4500.0,0.435432672501,-0.0271956659853,-0.0183529462665,82.5882568359,0.0,6000.0,-0.0092587871477,-0.000871033291332,-0.0092587871477,55.8035583496,0.349065840244,0.0265011657029,-0.00261756684631,0.313092321157,0.00819259230047,0.00819259230047,-0.00850344356149,0.0463472157717,109.340156555,109.340156555,0.982624650002,-0.470744460821,2024,2027,2549,2033,2033,2937,3426,3424,3241,3358,3082,3058,3162,3154,3244,2864,3413,3418,3250,3366,3133,3353,3382,3187
1508400769393552210,169,1508400769393171086,plot_matl,0.349065840244,-500.0,0.118989929557,0.0162860006094,-0.230075925589,-111.002822876,0.349065840244,0.0890657678246,-0.00926079414785,0.119004294276,0.0130511438474,0.0130511438474,0.0125865694135,0.0159932859242,-1.36518776417,-1.36518776417,-0.399262011051,107.08644104,2021,2044,2117,2028,2028,2679,3309,3336,3139,3284,3000,2970,3050,3084,3163,2947,3390,3384,3224,3282,2941,3278,3303,3025,0.00998736,1.689980606,1.68786384,0.453785598278,4500.0,0.436782151461,-8.80196057551e-06,-0.0170034654438,76.5155944824,0.0,6000.0,-0.00929145608097,-0.000205914620892,-0.00929145608097,55.8177947998,0.349065840244,0.0265011657029,-0.00261756684631,0.313092321157,0.00819259230047,0.00819259230047,-0.00850344356149,0.0463472157717,109.340156555,109.340156555,0.982624650002,-0.470744460821,2025,2025,2549,2033,2033,2937,3426,3424,3241,3358,3082,3058,3162,3155,3243,2864,3412,3416,3249,3365,3134,3353,3385,3187
1508400769403534018,170,1508400769403170083,plot_matl,0.349065840244,-500.0,0.11897020787,-0.00414373353124,-0.230095639825,-116.024642944,0.349065840244,0.0890657678246,-0.00926079414785,0.119004294276,0.0130511438474,0.0130511438474,0.0125865694135,0.0159932859242,-1.36518776417,-1.36518776417,-0.399262011051,107.08644104,2001,2036,2117,2029,2029,2680,3312,3336,3140,3284,2999,2970,3050,3084,3163,2947,3390,3384,3224,3282,2941,3278,3303,3023,0.009999337,1.699980224,1.69988729,0.453785598278,4500.0,0.436782151461,0.00104067788925,-0.0170034654438,76.5155944824,0.0,6000.0,-0.00929345749319,-0.000168649770785,-0.00929345749319,55.8146514893,0.349065840244,0.0265011657029,-0.00261756684631,0.313092321157,0.00819259230047,0.00819259230047,-0.00850344356149,0.0463472157717,109.340156555,109.340156555,0.982624650002,-0.470744460821,2026,2020,2550,2029,2029,2938,3425,3424,3240,3358,3084,3058,3162,3155,3243,2864,3412,3416,3249,3365,3134,3353,3385,3187
1508400769413434084,171,1508400769413159491,plot_matl,0.349065840244,-500.0,0.11899022758,-0.00456891302019,-0.230075627565,-116.041389465,0.349065840244,0.0877162888646,-0.00929463934153,0.118982233107,0.000703555007931,0.000703555007931,-0.000146652120748,-0.00441553071141,-0.873546659946,-0.873546659946,-0.502204060555,107.420097351,2034,2064,2117,2029,2029,2680,3312,3336,3140,3284,2999,2970,3053,3083,3165,2949,3388,3381,3222,3282,2939,3278,3303,3023,0.009989019,1.709969221,1.708122249,0.453785598278,4500.0,0.436782151461,0.0013258040417,-0.0170034654438,76.5155944824,0.0,6000.0,-0.00929509475827,-0.00013817823492,-0.00929509475827,55.8119049072,0.349065840244,0.0265011657029,-0.00265717692673,0.313065588474,0.00721423234791,0.00721423234791,0.00765605410561,-0.015032440424,109.458740234,109.458740234,0.579640209675,-0.645957887173,2025,2028,2550,2029,2029,2938,3425,3424,3240,3358,3084,3060,3162,3153,3242,2865,3412,3418,3251,3364,3135,3353,3385,3187
1508400769423409899,172,1508400769423160950,plot_matl,0.349065840244,-500.0,0.119045436382,0.0151951340958,-0.230020418763,-111.311187744,0.349065840244,0.0877162888646,-0.00929463934153,0.118982233107,0.000703555007931,0.000703555007931,-0.000146652120748,-0.00441553071141,-0.873546659946,-0.873546659946,-0.502204060555,107.420097351,2043,2063,2117,2028,2028,2680,3311,3335,3139,3284,2999,2970,3053,3083,3165,2949,3388,3381,3222,3282,2939,3275,3304,3024,0.010000471,1.719970415,1.720081012,0.453785598278,4500.0,0.436782151461,0.000600097468123,-0.0170034654438,76.5155944824,0.0,6000.0,-0.00929644145072,-0.00011310113041,-0.00929644145072,55.8159866333,0.349065840244,0.0265011657029,-0.00265717692673,0.313065588474,0.00721423234791,0.00721423234791,0.00765605410561,-0.015032440424,109.458740234,109.458740234,0.579640209675,-0.645957887173,2030,2026,2550,2032,2032,2937,3425,3423,3240,3358,3084,3060,3162,3153,3242,2865,3412,3418,3251,3364,3135,3355,3384,3186
1508400769433625592,173,1508400769433172981,plot_matl,0.349065840244,-500.0,0.119072273374,0.0146779743955,-0.229993581772,-111.671043396,0.349065840244,0.0877162888646,-0.00929463934153,0.118982233107,0.000703555007931,0.000703555007931,-0.000146652120748,-0.00441553071141,-0.873546659946,-0.873546659946,-0.502204060555,107.420097351,2027,2045,2117,2028,2028,2680,3311,3335,3139,3286,2998,2972,3050,3084,3165,2949,3387,3384,3223,3282,2939,3275,3304,3024,0.010011786,1.729982526,1.732038978,0.453785598278,4500.0,0.436782151461,6.72799142194e-05,-0.0170034654438,76.5155944824,0.0,6000.0,-0.00928558874875,-0.00032699413714,-0.00928558874875,55.8105316162,0.349065840244,0.0265011657029,-0.00265717692673,0.313065588474,0.00721423234791,0.00721423234791,0.00765605410561,-0.015032440424,109.458740234,109.458740234,0.579640209675,-0.645957887173,2027,2021,2550,2032,2032,2937,3425,3423,3240,3360,3082,3061,3162,3155,3243,2865,3413,3416,3251,3364,3135,3355,3384,3186
1508400769443440146,174,1508400769443171858,plot_matl,0.349065840244,-500.0,0.1190687567,0.0147145306692,-0.229997083545,-111.439758301,0.349065840244,0.0877162888646,-0.00929463934153,0.118982233107,0.000703555007931,0.000703555007931,-0.000146652120748,-0.00441553071141,-0.873546659946,-0.873546659946,-0.502204060555,107.420097351,2051,2084,2117,2027,2027,2679,3311,3335,3139,3286,2998,2972,3050,3084,3165,2949,3387,3384,3223,3282,2939,3276,3305,3023,0.009999046,1.739981708,1.739834004,0.453785598278,4500.0,0.436782151461,0.000512857863214,-0.0170034654438,76.5155944824,0.0,6000.0,-0.0092645175755,0.0126554360613,-0.0092645175755,51.7642288208,0.349065840244,0.0265011657029,-0.00265717692673,0.313065588474,0.00721423234791,0.00721423234791,0.00765605410561,-0.015032440424,109.458740234,109.458740234,0.579640209675,-0.645957887173,2030,2032,2549,2030,2030,2938,3427,3423,3240,3360,3082,3061,3162,3155,3243,2865,3413,3416,3251,3366,3133,3357,3385,3185
1508400769453365058,175,1508400769453149659,plot_matl,0.349065840244,-500.0,0.119012132287,-0.00499776517972,-0.230053707957,-116.252914429,0.349065840244,0.0877162888646,-0.00926953367889,0.119027480483,0.000230237244978,0.000230237244978,-0.00066679099109,-0.00530807720497,-0.891049027443,-0.891049027443,-0.915890038013,107.325080872,2051,2080,2117,2027,2027,2679,3311,3336,3139,3284,3000,2970,3053,3085,3165,2947,3388,3384,3223,3282,2939,3276,3305,3023,0.009976084,1.749958624,1.7458147,0.453785598278,4500.0,0.436782151461,0.000972262874711,-0.0170034654438,76.5155944824,0.0,6000.0,-0.00927146151662,-0.000627810135484,-0.00927146151662,55.8213577271,0.349065840244,0.0265011657029,-0.00264451443218,0.313171356916,0.0067846858874,0.0067846858874,-0.00793067924678,-0.0171879120171,109.438728333,109.438728333,0.198233440518,-0.478967994452,2035,2035,2549,2030,2030,2938,3427,3425,3242,3358,3083,3061,3163,3154,3242,2863,3411,3416,3251,3366,3133,3357,3385,3185
1508400769463738239,176,1508400769463223212,plot_matl,0.349065840244,-500.0,0.119062252343,0.0148502271622,-0.230003595352,-111.150840759,0.349065840244,0.0877162888646,-0.00926953367889,0.119027480483,0.000230237244978,0.000230237244978,-0.00066679099109,-0.00530807720497,-0.891049027443,-0.891049027443,-0.915890038013,107.325080872,2027,2067,2116,2024,2024,2679,3311,3336,3139,3284,3000,2970,3053,3085,3165,2947,3388,3380,3223,3282,2937,3278,3304,3023,0.010075692,1.760033388,1.773321792,0.453785598278,4500.0,0.436782151461,0.000737716502044,-0.0170034654438,76.5155944824,0.0,6000.0,-0.00925519410521,-0.000967310508713,-0.00925519410521,55.8408813477,0.349065840244,0.0265011657029,-0.00264451443218,0.313171356916,0.0067846858874,0.0067846858874,-0.00793067924678,-0.0171879120171,109.438728333,109.438728333,0.198233440518,-0.478967994452,2034,2032,2549,2028,2028,2938,3427,3425,3242,3358,3083,3061,3163,3154,3242,2863,3411,3417,3249,3365,3134,3354,3385,3187
1508400769473790137,177,1508400769473216360,plot_matl,0.349065840244,-500.0,0.119042269886,-0.00560878124088,-0.230023577809,-116.305786133,0.349065840244,0.0877162888646,-0.00926953367889,0.119027480483,0.000230237244978,0.000230237244978,-0.00066679099109,-0.00530807720497,-0.891049027443,-0.891049027443,-0.915890038013,107.325080872,2060,2093,2116,2024,2024,2680,3312,3336,3136,3285,2998,2967,3049,3083,3164,2947,3388,3380,3223,3282,2937,3278,3304,3023,0.009993585,1.770026612,1.768864545,0.453785598278,4500.0,0.436782151461,0.000605031906161,-0.0170034654438,76.5155944824,0.0,6000.0,-0.00922928284854,-0.00148257357068,-0.00922928284854,55.8029289246,0.349065840244,0.0265011657029,-0.00264451443218,0.313171356916,0.0067846858874,0.0067846858874,-0.00793067924678,-0.0171879120171,109.438728333,109.438728333,0.198233440518,-0.478967994452,2040,2033,2549,2028,2028,2936,3425,3424,3241,3359,3084,3058,3162,3153,3245,2863,3411,3417,3249,3365,3134,3354,3385,3187
1508400769483630708,178,1508400769483226281,plot_matl,0.349065840244,-500.0,0.119047917426,-0.00572179676965,-0.230017930269,-116.268287659,0.349065840244,0.0877162888646,-0.00926953367889,0.119027480483,0.000230237244978,0.000230237244978,-0.00066679099109,-0.00530807720497,-0.891049027443,-0.891049027443,-0.915890038013,107.325080872,2055,2081,2115,2024,2024,2680,3312,3336,3136,3285,2998,2967,3049,3083,3164,2948,3388,3383,3224,3281,2937,3277,3303,3022,0.01000951,1.780037189,1.78169278,0.453785598278,4500.0,0.436782151461,-0.00102290266659,-0.0170034654438,76.5155944824,0.0,6000.0,-0.0092304572463,0.011954090558,-0.0092304572463,52.0864982605,0.349065840244,0.0265011657029,-0.00264451443218,0.313171356916,0.0067846858874,0.0067846858874,-0.00793067924678,-0.0171879120171,109.438728333,109.438728333,0.198233440518,-0.478967994452,2032,2028,2550,2028,2028,2936,3425,3424,3241,3359,3084,3058,3162,3153,3245,2865,3412,3417,3249,3365,3133,3354,3384,3188
1508400769493558165,179,1508400769493177698,plot_matl,0.349065840244,-500.0,0.119012832642,-0.00499757286161,-0.230053022504,-116.20249176,0.349065840244,0.0890657678246,-0.00922843813896,0.119049318135,0.013162237592,0.013162237592,-0.00151534925681,0.0151314297691,-0.925442159176,-0.925442159176,-0.826241672039,107.255470276,2029,2051,2115,2026,2026,2678,3312,3333,3136,3284,2997,2971,3051,3083,3164,2948,3388,3383,3224,3281,2937,3277,3303,3022,0.009949941,1.789988229,1.781039439,0.453785598278,4500.0,0.436782151461,-0.000880274455994,-0.0170034654438,76.5155944824,0.0,6000.0,-0.00923271197826,-0.00142793206032,-0.00923271197826,55.8103218079,0.349065840244,0.0240919683129,-0.00266716396436,0.313399553299,-0.0167907793075,-0.0167907793075,-0.00750100566074,0.0400808751583,109.527252197,109.527252197,0.201070174575,-0.230417922139,2024,2021,2550,2029,2029,2937,3426,3423,3241,3357,3082,3059,3162,3153,3245,2865,3412,3417,3249,3365,3133,3354,3384,3188
1508400769503667425,180,1508400769503229041,plot_matl,0.349065840244,-500.0,0.119026310742,0.0155877871439,-0.230039536953,-111.37802124,0.349065840244,0.0890657678246,-0.00922843813896,0.119049318135,0.013162237592,0.013162237592,-0.00151534925681,0.0151314297691,-0.925442159176,-0.925442159176,-0.826241672039,107.255470276,2036,2069,2115,2026,2026,2678,3312,3333,3136,3284,2997,2971,3051,3085,3165,2948,3389,3381,3225,3278,2939,3276,3301,3022,0.010051518,1.800039923,1.80927324,0.453785598278,4500.0,0.438131630421,0.0235867071897,-0.0156539846212,70.4429244995,0.0,6000.0,-0.00924536213279,-0.00116915907711,-0.00924536213279,55.8094367981,0.349065840244,0.0240919683129,-0.00266716396436,0.313399553299,-0.0167907793075,-0.0167907793075,-0.00750100566074,0.0400808751583,109.527252197,109.527252197,0.201070174575,-0.230417922139,2028,2029,2550,2029,2029,2937,3426,3423,3241,3357,3082,3059,3162,3155,3244,2864,3410,3418,3251,3366,3134,3354,3382,3188
1508400769513481943,181,1508400769513168081,plot_matl,0.349065840244,-500.0,0.118959076703,-0.0247740522027,-0.230106770992,-120.683105469,0.349065840244,0.0890657678246,-0.00922843813896,0.119049318135,0.013162237592,0.013162237592,-0.00151534925681,0.0151314297691,-0.925442159176,-0.925442159176,-0.826241672039,107.255470276,2023,2056,2115,2030,2030,2680,3310,3335,3139,3285,2996,2971,3051,3085,3165,2948,3389,3381,3225,3278,2939,3276,3301,3023,0.009936696,1.809977546,1.798541976,0.453785598278,4500.0,0.436782151461,-0.00357396458276,-0.0170034654438,76.5155944824,0.0,6000.0,-0.00924453418702,-0.00118152273353,-0.00924453418702,55.7997970581,0.349065840244,0.0240919683129,-0.00266716396436,0.313399553299,-0.0167907793075,-0.0167907793075,-0.00750100566074,0.0400808751583,109.527252197,109.527252197,0.201070174575,-0.230417922139,2027,2030,2550,2027,2027,2937,3428,3423,3241,3358,3082,3059,3162,3155,3244,2864,3410,3418,3251,3366,3134,3354,3382,3186
1508400769523504728,182,1508400769523176715,plot_matl,0.349065840244,-500.0,0.118983358145,0.0165297668427,-0.230082497001,-111.100708008,0.349065840244,0.0890657678246,-0.00922843813896,0.119049318135,0.013162237592,0.013162237592,-0.00151534925681,0.0151314297691,-0.925442159176,-0.925442159176,-0.826241672039,107.255470276,2019,2040,2115,2030,2030,2680,3310,3335,3139,3285,2996,2971,3051,3086,3164,2948,3389,3382,3225,3282,2935,3276,3301,3023,0.010008723,1.819986515,1.821587586,0.453785598278,4500.0,0.436782151461,-0.00337090017274,-0.0170034654438,76.5155944824,0.0,6000.0,-0.00922867655754,0.0119372839108,-0.00922867655754,51.7997894287,0.349065840244,0.0240919683129,-0.00266716396436,0.313399553299,-0.0167907793075,-0.0167907793075,-0.00750100566074,0.0400808751583,109.527252197,109.527252197,0.201070174575,-0.230417922139,2025,2018,2550,2027,2027,2937,3428,3423,3241,3358,3082,3060,3161,3155,3243,2865,3410,3416,3252,3365,3134,3354,3382,3186
1508400769533286962,183,1508400769533150496,plot_matl,0.349065840244,-500.0,0.118941955268,-0.00351914088242,-0.230123892426,-115.886955261,0.349065840244,0.0890657678246,-0.0092246113345,0.118952870369,0.011636659503,0.011636659503,0.0118613112718,-0.00373621936888,-1.03040444851,-1.03040444851,-0.570050776005,107.494819641,2024,2050,2115,2027,2027,2679,3313,3334,3138,3285,2996,2971,3051,3086,3164,2948,3389,3382,3225,3282,2935,3275,3306,3023,0.009973014,1.829960023,1.825061562,0.453785598278,4500.0,0.436782151461,-0.00376144750044,-0.0170034654438,76.5155944824,0.0,6000.0,-0.00921647530049,0.0116887083277,-0.00921647530049,51.9277954102,0.349065840244,0.0265011657029,-0.00270594703034,0.313109308481,0.00462879659608,0.00462879659608,0.00860984344035,-0.0157622117549,109.406768799,109.406768799,0.391640871763,0.0572816766798,2030,2022,2549,2030,2030,2936,3425,3421,3242,3358,3082,3060,3161,3155,3243,2865,3410,3416,3252,3365,3134,3354,3382,3187
1508400769543459571,184,1508400769543153405,plot_matl,0.349065840244,-500.0,0.119023039937,-0.00515145622194,-0.230042815208,-116.303977966,0.349065840244,0.0890657678246,-0.0092246113345,0.118952870369,0.011636659503,0.011636659503,0.0118613112718,-0.00373621936888,-1.03040444851,-1.03040444851,-0.570050776005,107.494819641,2021,2052,2115,2027,2027,2679,3313,3334,3138,3285,2997,2969,3050,3084,3164,2948,3386,3380,3223,3282,2935,3275,3306,3023,0.010002365,1.839962778,1.84043516,0.453785598278,4500.0,0.436782151461,-0.00356095610186,-0.0170034654438,76.5155944824,0.0,6000.0,-0.009232128039,-0.00141136616003,-0.009232128039,55.8301086426,0.349065840244,0.0265011657029,-0.00270594703034,0.313109308481,0.00462879659608,0.00462879659608,0.00860984344035,-0.0157622117549,109.406768799,109.406768799,0.391640871763,0.0572816766798,2028,2028,2549,2030,2030,2936,3425,3421,3242,3360,3084,3061,3164,3155,3241,2865,3412,3418,3251,3365,3134,3354,3382,3187
1508400769553623740,185,1508400769553178485,plot_matl,0.349065840244,-500.0,0.119033291936,-0.00537570007145,-0.23003256321,-116.379898071,0.349065840244,0.0890657678246,-0.0092246113345,0.118952870369,0.011636659503,0.011636659503,0.0118613112718,-0.00373621936888,-1.03040444851,-1.03040444851,-0.570050776005,107.494819641,2008,2058,2116,2028,2028,2679,3309,3334,3138,3285,2997,2969,3050,3084,3164,2948,3386,3380,3223,3280,2937,3277,3303,3020,0.010027548,1.849988857,1.85509638,0.453785598278,4500.0,0.436782151461,-0.00283320737071,-0.0170034654438,76.5155944824,0.0,6000.0,-0.00923326611519,-0.00140104291495,-0.00923326611519,55.8395729065,0.349065840244,0.0265011657029,-0.00270594703034,0.313109308481,0.00462879659608,0.00462879659608,0.00860984344035,-0.0157622117549,109.406768799,109.406768799,0.391640871763,0.0572816766798,2028,2029,2549,2034,2034,2936,3427,3421,3242,3360,3084,3061,3164,3155,3241,2865,3412,3418,3251,3365,3133,3354,3386,3186
1508400769563542078,186,1508400769563181566,plot_matl,0.349065840244,-500.0,0.119080200791,0.0145272025838,-0.229985654354,-111.756126404,0.349065840244,0.0890657678246,-0.0092246113345,0.118952870369,0.011636659503,0.011636659503,0.0118613112718,-0.00373621936888,-1.03040444851,-1.03040444851,-0.570050776005,107.494819641,2025,2069,2116,2028,2028,2679,3309,3335,3135,3284,2997,2970,3051,3086,3165,2946,3387,3380,3223,3280,2937,3277,3303,3020,0.010001929,1.859991753,1.860358794,0.453785598278,4500.0,0.436782151461,-0.00283320737071,-0.0170034654438,76.5155944824,0.0,6000.0,-0.00923343375325,0.012016701512,-0.00923343375325,52.043548584,0.349065840244,0.0265011657029,-0.00270594703034,0.313109308481,0.00462879659608,0.00462879659608,0.00860984344035,-0.0157622117549,109.406768799,109.406768799,0.391640871763,0.0572816766798,2029,2032,2549,2034,2034,2936,3427,3424,3242,3361,3084,3059,3162,3153,3243,2865,3413,3418,3251,3365,3133,3354,3386,3186
1508400769573522723,187,1508400769573200388,plot_matl,0.349065840244,-500.0,0.119078464806,0.0145458374172,-0.229987382889,-111.446998596,0.349065840244,0.0877162888646,-0.00925435498357,0.119075909257,-0.00101061735768,-0.00101061735768,-0.000988548155874,-0.00626794202253,-1.12803471088,-1.12803471088,-0.752111315727,107.595581055,2025,2070,2115,2028,2028,2679,3309,3335,3135,3284,2997,2970,3051,3086,3165,2946,3387,3381,3223,3281,2938,3275,3303,3022,0.010018822,1.870010559,1.873519714,0.453785598278,4500.0,0.436782151461,-0.00190269143786,-0.0170034654438,76.5155944824,0.0,6000.0,-0.00925717968494,-0.000930570822675,-0.00925717968494,55.8225135803,0.349065840244,0.0240919683129,-0.00273142219521,0.313201248646,-0.0167096368968,-0.0167096368968,0.00909785367548,-0.0176862180233,109.509819031,109.509819031,0.393014848232,0.00591130042449,2034,2033,2549,2031,2031,2936,3427,3424,3242,3361,3084,3059,3162,3153,3243,2865,3413,3417,3251,3364,3134,3353,3385,3185
1508400769583344193,188,1508400769583145466,plot_matl,0.349065840244,-500.0,0.119039818645,-0.00553864846006,-0.2300260216,-116.335998535,0.349065840244,0.0877162888646,-0.00925435498357,0.119075909257,-0.00101061735768,-0.00101061735768,-0.000988548155874,-0.00626794202253,-1.12803471088,-1.12803471088,-0.752111315727,107.595581055,2039,2061,2115,2028,2028,2680,3311,3335,3139,3287,2999,2971,3052,3085,3163,2946,3387,3381,3223,3281,2938,3275,3303,3022,0.009940858,1.879954059,1.868881304,0.453785598278,4500.0,0.436782151461,-0.00155566935427,-0.0170034654438,76.5155944824,0.0,6000.0,-0.00925352796912,-0.00100061949342,-0.00925352796912,55.8159637451,0.349065840244,0.0240919683129,-0.00273142219521,0.313201248646,-0.0167096368968,-0.0167096368968,0.00909785367548,-0.0176862180233,109.509819031,109.509819031,0.393014848232,0.00591130042449,2038,2026,2549,2031,2031,2936,3427,3425,3239,3361,3083,3060,3162,3152,3244,2865,3413,3417,3251,3364,3134,3353,3385,3185
