%time,field.header.seq,field.header.stamp,field.header.frame_id,field.FFJ4_set_point,field.FFJ4_position_gain,field.FFJ4_process_value,field.FFJ4_process_value_dot,field.FFJ4_error,field.FFJ4_command,field.FFJ1,field.FFJ2,field.FFJ3,field.FFJ4,field.FFJ1_dot,field.FFJ2_dot,field.FFJ3_dot,field.FFJ4_dot,field.FFJ1_tao,field.FFJ2_tao,field.FFJ3_tao,field.FFJ4_tao,field.pac0,field.pac1,field.pdc0,field.tac0,field.tdc0,field.el0,field.el1,field.el2,field.el3,field.el4,field.el5,field.el6,field.el7,field.el8,field.el9,field.el10,field.el11,field.el12,field.el13,field.el14,field.el15,field.el16,field.el17,field.el18,field.dt,field.time,field.test_time2,field.FFJ0_set_point,field.FFJ0_position_gain,field.FFJ0_process_value,field.FFJ0_process_value_dot,field.FFJ0_error,field.FFJ0_command,field.FFJ3_set_point,field.FFJ3_position_gain,field.FFJ3_process_value,field.FFJ3_process_value_dot,field.FFJ3_error,field.FFJ3_command,field.MFJ1,field.MFJ2,field.MFJ3,field.MFJ4,field.MFJ1_dot,field.MFJ2_dot,field.MFJ3_dot,field.MFJ4_dot,field.MFJ1_tao,field.MFJ2_tao,field.MFJ3_tao,field.MFJ4_tao,field.Mpac0,field.Mpac1,field.Mpdc0,field.Mtac0,field.Mtdc0,field.Mel0,field.Mel1,field.Mel2,field.Mel3,field.Mel4,field.Mel5,field.Mel6,field.Mel7,field.Mel8,field.Mel9,field.Mel10,field.Mel11,field.Mel12,field.Mel13,field.Mel14,field.Mel15,field.Mel16,field.Mel17,field.Mel18
1508400005895863136,114,1508400005895258858,plot_matl,-0.300000011921,-1000.0,-0.250851869583,-4.13702327933e-05,0.0491481311619,49.1373062134,0.349065840244,0.12010384351,-0.0066370726563,-0.250844240189,0.0152601702139,0.0152601702139,-0.000143643803312,-0.000196509965463,0.00763463648036,0.00763463648036,-0.090205296874,-101.768592834,2005,2057,2105,2023,2023,2777,3339,3356,3171,3303,3025,2975,3067,3079,3166,2873,3369,3366,3191,3267,2912,3282,3307,3027,0.010009704,1.140034151,1.141106256,0.453785598278,4500.0,0.467820197344,0.00279240403324,0.0140346065164,-63.1557273865,0.0,6000.0,-0.00661494350061,-0.000573445460759,-0.00661494350061,39.8695335388,0.349065840244,0.0240919683129,-0.0056263115257,0.308626294136,-0.0258069634438,-0.0258069634438,-0.00908113643527,0.0127859255299,111.209495544,111.209495544,-0.239329844713,1.08919346333,2021,2031,2550,2045,2045,2930,3424,3421,3238,3356,3081,3057,3159,3152,3239,2869,3410,3416,3253,3363,3133,3350,3382,3184
1508400005905536791,115,1508400005905223737,plot_matl,-0.300000011921,-1000.0,-0.250857591629,7.58447786211e-05,0.049142409116,49.1596641541,0.349065840244,0.12010384351,-0.0066370726563,-0.250844240189,0.0152601702139,0.0152601702139,-0.000143643803312,-0.000196509965463,0.00763463648036,0.00763463648036,-0.090205296874,-101.768592834,2027,2070,2105,2023,2023,2777,3339,3356,3171,3303,3026,2974,3067,3078,3168,2872,3368,3365,3191,3268,2912,3282,3307,3027,0.009964408,1.14999896,1.14590692,0.453785598278,4500.0,0.467820197344,0.00328816007823,0.0140346065164,-63.1557273865,0.0,6000.0,-0.00662037264556,-0.000468663231004,-0.00662037264556,39.8723602295,0.349065840244,0.0240919683129,-0.0056263115257,0.308626294136,-0.0258069634438,-0.0258069634438,-0.00908113643527,0.0127859255299,111.209495544,111.209495544,-0.239329844713,1.08919346333,2027,2035,2550,2045,2045,2930,3424,3421,3238,3356,3079,3056,3158,3152,3240,2869,3409,3414,3252,3364,3133,3350,3382,3184
1508400005915646535,116,1508400005915220594,plot_matl,-0.300000011921,-1000.0,-0.250862240791,-0.00580311380327,0.0491377525032,47.8317375183,0.349065840244,0.12010384351,-0.0066370726563,-0.250844240189,0.0152601702139,0.0152601702139,-0.000143643803312,-0.000196509965463,0.00763463648036,0.00763463648036,-0.090205296874,-101.768592834,2011,2056,2104,2020,2020,2780,3341,3358,3171,3303,3026,2974,3067,3078,3168,2872,3368,3365,3191,3268,2909,3281,3305,3029,0.010007022,1.160006473,1.160814552,0.453785598278,4500.0,0.467820197344,0.00413558678702,0.0140346065164,-63.1557273865,0.0,6000.0,-0.00662475405261,-0.000384093495086,-0.00662475405261,39.8614578247,0.349065840244,0.0240919683129,-0.0056263115257,0.308626294136,-0.0258069634438,-0.0258069634438,-0.00908113643527,0.0127859255299,111.209495544,111.209495544,-0.239329844713,1.08919346333,2030,2029,2550,2045,2045,2930,3423,3422,3238,3356,3079,3056,3158,3152,3240,2869,3409,3414,3252,3364,3134,3350,3381,3185
1508400005925359459,117,1508400005925207867,plot_matl,-0.300000011921,-1000.0,-0.250860780478,0.000139831696288,0.0491392239928,49.1698875427,0.349065840244,0.12010384351,-0.0066370726563,-0.250844240189,0.0152601702139,0.0152601702139,-0.000143643803312,-0.000196509965463,0.00763463648036,0.00763463648036,-0.090205296874,-101.768592834,2024,2058,2104,2020,2020,2780,3341,3358,3172,3305,3027,2973,3069,3079,3168,2871,3369,3368,3191,3268,2909,3281,3305,3029,0.009974638,1.169982111,1.167032646,0.453785598278,4500.0,0.467820197344,0.00384161900729,0.0140346065164,-63.1557273865,0.0,6000.0,-0.00662475405261,-0.000384093495086,-0.00662475405261,39.8614578247,0.349065840244,0.0240919683129,-0.0056263115257,0.308626294136,-0.0258069634438,-0.0258069634438,-0.00908113643527,0.0127859255299,111.209495544,111.209495544,-0.239329844713,1.08919346333,2028,2027,2550,2045,2045,2930,3423,3422,3237,3355,3079,3055,3159,3150,3242,2868,3410,3417,3252,3364,3134,3350,3381,3185
1508400005935600665,118,1508400005935249054,plot_matl,-0.300000011921,-1000.0,-0.250859856606,0.000121512399346,0.0491401404142,49.1701927185,0.349065840244,0.117404878139,-0.00662626931444,-0.250861614943,-0.0111967837438,-0.0111967837438,-0.000354852585588,0.000157675720402,0.0365389734507,0.0365389734507,0.446473389864,-102.285514832,2024,2055,2105,2023,2023,2776,3341,3358,3172,3305,3027,2973,3069,3079,3168,2871,3369,3368,3191,3269,2910,3281,3308,3028,0.010041855,1.180023696,1.18493889,0.453785598278,4500.0,0.467820197344,0.00462949369103,0.0140346065164,-63.1557273865,0.0,6000.0,-0.00662834988907,-0.000314694218105,-0.00662834988907,39.8637428284,0.349065840244,0.0265011657029,-0.00564720341936,0.30857989192,0.000447576283477,0.000447576283477,-0.0086861802265,0.0758376196027,110.960037231,110.960037231,-0.0157234612852,1.0408513546,2030,2031,2550,2049,2049,2929,3423,3422,3237,3355,3079,3055,3159,3150,3242,2868,3410,3417,3250,3364,3132,3350,3382,3184
1508400005945599514,119,1508400005945227215,plot_matl,-0.300000011921,-1000.0,-0.250854223967,4.7928474487e-06,0.049145784229,49.1463279724,0.349065840244,0.117404878139,-0.00662626931444,-0.250861614943,-0.0111967837438,-0.0111967837438,-0.000354852585588,0.000157675720402,0.0365389734507,0.0365389734507,0.446473389864,-102.285514832,1998,2033,2105,2023,2023,2776,3342,3357,3171,3303,3025,2975,3065,3079,3167,2872,3369,3368,3191,3269,2910,3281,3308,3028,0.009979447,1.19000288,1.187554193,0.453785598278,4500.0,0.467820197344,0.00428463565186,0.0140346065164,-63.1557273865,0.0,6000.0,-0.00661152647808,-0.000660144374706,-0.00661152647808,39.8699150085,0.349065840244,0.0265011657029,-0.00564720341936,0.30857989192,0.000447576283477,0.000447576283477,-0.0086861802265,0.0758376196027,110.960037231,110.960037231,-0.0157234612852,1.0408513546,2020,2021,2550,2049,2049,2929,3421,3421,3236,3356,3079,3057,3160,3151,3240,2868,3410,3417,3250,3364,3132,3350,3382,3184
1508400005955633866,120,1508400005955229570,plot_matl,-0.300000011921,-1000.0,-0.250854223967,4.7928474487e-06,0.049145784229,49.1463279724,0.349065840244,0.117404878139,-0.00662626931444,-0.250861614943,-0.0111967837438,-0.0111967837438,-0.000354852585588,0.000157675720402,0.0365389734507,0.0365389734507,0.446473389864,-102.285514832,2002,2052,2105,2019,2019,2776,3342,3357,3171,3303,3025,2975,3065,3079,3167,2872,3370,3364,3191,3271,2910,3281,3307,3029,0.010001378,1.200004768,1.20016536,0.453785598278,4500.0,0.467820197344,0.00428463565186,0.0140346065164,-63.1557273865,0.0,6000.0,-0.00661753164604,-0.000540480599739,-0.00661753164604,39.8692359924,0.349065840244,0.0265011657029,-0.00564720341936,0.30857989192,0.000447576283477,0.000447576283477,-0.0086861802265,0.0758376196027,110.960037231,110.960037231,-0.0157234612852,1.0408513546,2018,2027,2550,2049,2049,2929,3421,3421,3236,3356,3079,3057,3160,3151,3240,2868,3411,3414,3250,3364,3133,3351,3381,3184
1508400005965558249,121,1508400005965242603,plot_matl,-0.300000011921,-1000.0,-0.250854194164,3.92405218008e-06,0.0491458065808,49.1462478638,0.349065840244,0.117404878139,-0.00662626931444,-0.250861614943,-0.0111967837438,-0.0111967837438,-0.000354852585588,0.000157675720402,0.0365389734507,0.0365389734507,0.446473389864,-102.285514832,2012,2054,2105,2019,2019,2778,3339,3360,3172,3303,3028,2976,3068,3079,3167,2872,3370,3364,3191,3271,2910,3281,3307,3029,0.010012628,1.210017826,1.211527988,0.453785598278,4500.0,0.466470718384,-0.0223973691463,0.0126851247624,-57.0830612183,0.0,6000.0,-0.00661753164604,-0.000540480599739,-0.00661753164604,39.8692359924,0.349065840244,0.0265011657029,-0.00564720341936,0.30857989192,0.000447576283477,0.000447576283477,-0.0086861802265,0.0758376196027,110.960037231,110.960037231,-0.0157234612852,1.0408513546,2017,2018,2550,2049,2049,2931,3421,3421,3237,3356,3079,3057,3160,3152,3240,2868,3411,3414,3250,3364,3133,3351,3381,3184
1508400005975664142,122,1508400005975226320,plot_matl,-0.300000011921,-1000.0,-0.250858664513,9.36470241868e-05,0.0491413399577,49.1628074646,0.349065840244,0.11875436455,-0.00661962106824,-0.250854194164,0.00184639671352,0.00184639671352,-0.000498846115079,3.6217734305e-06,0.0377602986991,0.0377602986991,0.631443679333,-102.055503845,1998,2024,2105,2019,2019,2778,3339,3360,3172,3303,3028,2976,3068,3079,3169,2871,3369,3366,3190,3267,2911,3279,3309,3028,0.009983546,1.220001458,1.217992612,0.453785598278,4500.0,0.466470718384,-0.0212866067886,0.0126851247624,-57.0830612183,0.0,6000.0,-0.00657604634762,-0.00136512320023,-0.00657604634762,39.8603286743,0.349065840244,0.0265011657029,-0.00566495908424,0.308893412352,0.000948718225118,0.000948718225118,0.00702525116503,0.00742214825004,110.984779358,110.984779358,0.00630435440689,1.19930267334,2022,2015,2550,2049,2049,2931,3421,3421,3237,3356,3079,3057,3160,3152,3240,2867,3411,3415,3249,3364,3133,3350,3381,3184
1508400005985519588,123,1508400005985246064,plot_matl,-0.300000011921,-1000.0,-0.250857830048,7.65997247072e-05,0.0491421706975,49.1598548889,0.349065840244,0.11875436455,-0.00661962106824,-0.250854194164,0.00184639671352,0.00184639671352,-0.000498846115079,3.6217734305e-06,0.0377602986991,0.0377602986991,0.631443679333,-102.055503845,2015,2047,2106,2020,2020,2777,3342,3359,3170,3301,3025,2974,3068,3079,3169,2871,3369,3366,3190,3267,2911,3279,3309,3028,0.010018553,1.23002091,1.232282019,0.453785598278,4500.0,0.466470718384,-0.0208454336971,0.0126851247624,-57.0830612183,0.0,6000.0,-0.00657568313181,-0.00137398089282,-0.00657568313181,39.8632049561,0.349065840244,0.0265011657029,-0.00566495908424,0.308893412352,0.000948718225118,0.000948718225118,0.00702525116503,0.00742214825004,110.984779358,110.984779358,0.00630435440689,1.19930267334,2022,2020,2550,2046,2046,2931,3424,3420,3237,3357,3078,3055,3160,3152,3240,2867,3411,3415,3249,3364,3133,3350,3381,3184
1508400005995326981,124,1508400005995203718,plot_matl,-0.300000011921,-1000.0,-0.250862836838,0.000172484607901,0.0491371527314,49.1835784912,0.349065840244,0.11875436455,-0.00661962106824,-0.250854194164,0.00184639671352,0.00184639671352,-0.000498846115079,3.6217734305e-06,0.0377602986991,0.0377602986991,0.631443679333,-102.055503845,2008,2043,2106,2020,2020,2777,3342,3359,3170,3301,3025,2974,3067,3080,3168,2872,3370,3363,3190,3269,2909,3282,3309,3028,0.009956497,1.239978136,1.234605628,0.453785598278,4500.0,0.467820197344,0.00717706279829,0.0140346065164,-63.1557273865,0.0,6000.0,-0.00657544611022,-0.00137044419535,-0.00657544611022,39.9119110107,0.349065840244,0.0265011657029,-0.00566495908424,0.308893412352,0.000948718225118,0.000948718225118,0.00702525116503,0.00742214825004,110.984779358,110.984779358,0.00630435440689,1.19930267334,2022,2022,2550,2046,2046,2931,3424,3420,3237,3357,3078,3055,3160,3150,3240,2869,3410,3416,3250,3365,3132,3352,3381,3184
1508400006005354576,125,1508400006005199796,plot_matl,-0.300000011921,-1000.0,-0.250872462988,0.000363501952961,0.0491275452077,49.2167053223,0.349065840244,0.11875436455,-0.00661962106824,-0.250854194164,0.00184639671352,0.00184639671352,-0.000498846115079,3.6217734305e-06,0.0377602986991,0.0377602986991,0.631443679333,-102.055503845,2002,2041,2105,2021,2021,2777,3339,3357,3172,3303,3025,2974,3067,3080,3168,2872,3370,3363,3190,3269,2909,3282,3307,3029,0.009995326,1.249973698,1.24941575,0.453785598278,4500.0,0.467820197344,0.00679155951366,0.0140346065164,-63.1557273865,0.0,6000.0,-0.00658793142065,-0.00112321344204,-0.00658793142065,39.8720741272,0.349065840244,0.0265011657029,-0.00566495908424,0.308893412352,0.000948718225118,0.000948718225118,0.00702525116503,0.00742214825004,110.984779358,110.984779358,0.00630435440689,1.19930267334,2026,2028,2550,2047,2047,2931,3423,3421,3236,3356,3078,3055,3160,3150,3240,2869,3410,3416,3250,3365,3132,3352,3382,3186
1508400006015833342,126,1508400006015287745,plot_matl,-0.300000011921,-1000.0,-0.250869125128,0.000297383317957,0.0491308830678,49.2089805603,0.349065840244,0.11875436455,-0.00658068293706,-0.250862181187,0.00381975690834,0.00381975690834,-0.00126674678177,0.000159433213412,0.0560163408518,0.0560163408518,1.69674789906,-102.315696716,2016,2057,2105,2021,2021,2777,3339,3357,3172,3303,3024,2974,3067,3079,3169,2873,3370,3367,3192,3266,2909,3282,3307,3029,0.010091046,1.260062823,1.271471796,0.453785598278,4500.0,0.467820197344,0.00709891505539,0.0140346065164,-63.1557273865,0.0,6000.0,-0.00659799436107,-0.000913862779271,-0.00659799436107,39.8913726807,0.349065840244,0.0265011657029,-0.00567646883428,0.309017896652,0.00174182758201,0.00174182758201,0.00730229122564,0.00485249375924,110.854698181,110.854698181,0.0427397787571,1.03570640087,2027,2032,2550,2047,2047,2931,3423,3421,3236,3356,3079,3056,3159,3151,3240,2869,3411,3415,3252,3362,3132,3352,3382,3186
1508400006025670446,127,1508400006025226269,plot_matl,-0.300000011921,-1000.0,-0.250869125128,0.000297383317957,0.0491308830678,49.2089805603,0.349065840244,0.11875436455,-0.00658068293706,-0.250862181187,0.00381975690834,0.00381975690834,-0.00126674678177,0.000159433213412,0.0560163408518,0.0560163408518,1.69674789906,-102.315696716,2027,2063,2106,2018,2018,2777,3342,3357,3172,3303,3024,2974,3067,3079,3169,2873,3370,3367,3192,3266,2912,3281,3306,3028,0.009937527,1.270001543,1.262065929,0.453785598278,4500.0,0.467820197344,0.00709891505539,0.0140346065164,-63.1557273865,0.0,6000.0,-0.00659799436107,-0.000913862779271,-0.00659799436107,39.8913726807,0.349065840244,0.0265011657029,-0.00567646883428,0.309017896652,0.00174182758201,0.00174182758201,0.00730229122564,0.00485249375924,110.854698181,110.854698181,0.0427397787571,1.03570640087,2038,2032,2550,2048,2048,2930,3423,3421,3236,3356,3079,3056,3159,3151,3240,2869,3411,3415,3252,3362,3133,3351,3382,3182
1508400006035320926,128,1508400006035230121,plot_matl,-0.300000011921,-1000.0,-0.250860750675,0.000131053995574,0.0491392612457,49.1716995239,0.349065840244,0.11875436455,-0.00658068293706,-0.250862181187,0.00381975690834,0.00381975690834,-0.00126674678177,0.000159433213412,0.0560163408518,0.0560163408518,1.69674789906,-102.315696716,2032,2061,2106,2018,2018,2777,3342,3357,3171,3302,3025,2973,3064,3079,3169,2873,3370,3369,3192,3266,2912,3281,3306,3028,0.01000064,1.280003966,1.28008192,0.453785598278,4500.0,0.467820197344,0.00673148175701,0.0140346065164,-63.1557273865,0.0,6000.0,-0.00660641863942,-0.00074886798393,-0.00660641863942,39.8721160889,0.349065840244,0.0265011657029,-0.00567646883428,0.309017896652,0.00174182758201,0.00174182758201,0.00730229122564,0.00485249375924,110.854698181,110.854698181,0.0427397787571,1.03570640087,2031,2026,2550,2048,2048,2930,3423,3421,3238,3356,3079,3056,3158,3150,3239,2869,3410,3415,3252,3362,3133,3351,3382,3182
1508400006045502338,129,1508400006045269956,plot_matl,-0.300000011921,-1000.0,-0.250873714685,0.000389684049878,0.0491262823343,49.2226066589,0.349065840244,0.11875436455,-0.00658068293706,-0.250862181187,0.00381975690834,0.00381975690834,-0.00126674678177,0.000159433213412,0.0560163408518,0.0560163408518,1.69674789906,-102.315696716,2041,2062,2105,2017,2017,2777,3342,3357,3171,3302,3025,2973,3064,3079,3169,2873,3370,3369,3191,3270,2911,3277,3306,3028,0.01004285,1.2900453,1.29552765,0.453785598278,4500.0,0.466470718384,-0.0194670520723,0.0126851247624,-57.0830612183,0.0,6000.0,-0.00661333231255,-0.000613463518675,-0.00661333231255,39.8708114624,0.349065840244,0.0265011657029,-0.00567646883428,0.309017896652,0.00174182758201,0.00174182758201,0.00730229122564,0.00485249375924,110.854698181,110.854698181,0.0427397787571,1.03570640087,2037,2029,2550,2046,2046,2931,3423,3421,3238,3356,3079,3056,3158,3150,3239,2869,3410,3415,3250,3363,3132,3352,3381,3184
1508400006055542944,130,1508400006055214254,plot_matl,-0.300000011921,-1000.0,-0.250873714685,0.000389684049878,0.0491262823343,49.2226066589,0.349065840244,0.117404878139,-0.00661573652178,-0.250869840384,-0.0101172979921,-0.0101172979921,-0.000566377129871,0.000310588307912,0.0251838285476,0.0251838285476,1.39653658867,-102.353431702,2039,2057,2105,2017,2017,2777,3341,3358,3171,3303,3027,2974,3067,3077,3167,2872,3370,3369,3191,3270,2911,3277,3306,3028,0.009942359,1.299988781,1.29250667,0.453785598278,4500.0,0.466470718384,-0.0194670520723,0.0126851247624,-57.0830612183,0.0,6000.0,-0.00661901710555,-0.000502122682519,-0.00661901710555,39.8714866638,0.349065840244,0.0265011657029,-0.00572584010661,0.308893173933,-0.000883030181285,-0.000883030181285,-0.00706169987097,0.00744984624907,110.785140991,110.785140991,-0.0870417952538,1.16383290291,2034,2026,2550,2046,2046,2931,3422,3420,3239,3356,3079,3055,3160,3151,3240,2868,3410,3415,3250,3363,3132,3352,3381,3184
1508400006065488630,131,1508400006065205596,plot_matl,-0.300000011921,-1000.0,-0.250862777233,0.000171464678715,0.0491372123361,49.1792297363,0.349065840244,0.117404878139,-0.00661573652178,-0.250869840384,-0.0101172979921,-0.0101172979921,-0.000566377129871,0.000310588307912,0.0251838285476,0.0251838285476,1.39653658867,-102.353431702,2034,2061,2106,2017,2017,2777,3341,3358,3171,3303,3027,2974,3067,3077,3167,2872,3370,3365,3192,3269,2908,3280,3306,3027,0.009991662,1.309980417,1.308907722,0.453785598278,4500.0,0.467820197344,0.0055828532204,0.0140346065164,-63.1557273865,0.0,6000.0,-0.00662725605071,-0.000338674028171,-0.00662725605071,39.8687667847,0.349065840244,0.0265011657029,-0.00572584010661,0.308893173933,-0.000883030181285,-0.000883030181285,-0.00706169987097,0.00744984624907,110.785140991,110.785140991,-0.0870417952538,1.16383290291,2035,2029,2550,2046,2046,2931,3422,3420,3239,3356,3079,3055,3160,3151,3240,2868,3411,3414,3251,3363,3133,3350,3383,3183
1508400006075591609,132,1508400006075217203,plot_matl,-0.300000011921,-1000.0,-0.250871866941,0.00036023449502,0.049128126353,49.2140235901,0.349065840244,0.117404878139,-0.00661573652178,-0.250869840384,-0.0101172979921,-0.0101172979921,-0.000566377129871,0.000310588307912,0.0251838285476,0.0251838285476,1.39653658867,-102.353431702,2033,2053,2106,2017,2017,2777,3340,3355,3170,3303,3027,2975,3068,3079,3167,2872,3370,3365,3192,3269,2908,3280,3306,3027,0.010011753,1.319992226,1.321551396,0.453785598278,4500.0,0.466470718384,-0.022632425651,0.0126851247624,-57.0830612183,0.0,6000.0,-0.0066304099746,-0.000277277606074,-0.0066304099746,39.8685302734,0.349065840244,0.0265011657029,-0.00572584010661,0.308893173933,-0.000883030181285,-0.000883030181285,-0.00706169987097,0.00744984624907,110.785140991,110.785140991,-0.0870417952538,1.16383290291,2040,2024,2550,2046,2046,2930,3424,3421,3236,3356,3078,3056,3158,3151,3240,2868,3411,3414,3251,3363,3133,3350,3383,3183
1508400006085459780,133,1508400006085220901,plot_matl,-0.300000011921,-1000.0,-0.25086838007,0.000291655771434,0.0491316318512,49.1945838928,0.349065840244,0.117404878139,-0.00661573652178,-0.250869840384,-0.0101172979921,-0.0101172979921,-0.000566377129871,0.000310588307912,0.0251838285476,0.0251838285476,1.39653658867,-102.353431702,2021,2051,2106,2017,2017,2777,3340,3355,3170,3303,3027,2975,3068,3079,3167,2872,3370,3366,3191,3267,2911,3280,3307,3030,0.010003747,1.329996014,1.330498351,0.453785598278,4500.0,0.466470718384,-0.0209081415087,0.0126851247624,-57.0830612183,0.0,6000.0,-0.00661981618032,-0.000477816007333,-0.00661981618032,39.8559074402,0.349065840244,0.0265011657029,-0.00572584010661,0.308893173933,-0.000883030181285,-0.000883030181285,-0.00706169987097,0.00744984624907,110.785140991,110.785140991,-0.0870417952538,1.16383290291,2027,2024,2550,2046,2046,2930,3424,3421,3236,3356,3078,3056,3158,3151,3240,2870,3410,3414,3251,3363,3133,3352,3383,3184
1508400006095513590,134,1508400006095264972,plot_matl,-0.300000011921,-1000.0,-0.25086838007,0.000291655771434,0.0491316318512,49.1945838928,0.349065840244,0.11875436455,-0.00663150520995,-0.250870496035,0.00213677366264,0.00213677366264,-0.000255959748756,0.00033253870788,0.0113165341318,0.0113165341318,1.05496191978,-102.173095703,2023,2049,2105,2018,2018,2778,3341,3358,3170,3303,3026,2974,3068,3079,3167,2872,3370,3366,3191,3267,2911,3280,3307,3030,0.010041225,1.340039018,1.34552415,0.453785598278,4500.0,0.466470718384,-0.0195830054581,0.0126851247624,-57.0830612183,0.0,6000.0,-0.0066243680194,-0.000390248809708,-0.0066243680194,39.8855667114,0.349065840244,0.0240919683129,-0.00578033784404,0.30883488059,-0.0247091446072,-0.0247091446072,-0.00599073665217,-0.053201328963,110.736839294,110.736839294,-0.385431885719,0.836614429951,2031,2028,2550,2049,2049,2930,3422,3421,3237,3357,3080,3056,3158,3151,3240,2870,3410,3414,3251,3363,3133,3352,3383,3184
1508400006105347392,135,1508400006105209558,plot_matl,-0.300000011921,-1000.0,-0.2508636415,0.000195255910512,0.0491363480687,49.1827468872,0.349065840244,0.11875436455,-0.00663150520995,-0.250870496035,0.00213677366264,0.00213677366264,-0.000255959748756,0.00033253870788,0.0113165341318,0.0113165341318,1.05496191978,-102.173095703,2015,2056,2105,2018,2018,2778,3341,3358,3170,3303,3026,2974,3066,3076,3169,2873,3370,3367,3191,3270,2910,3283,3307,3030,0.009944471,1.349983674,1.342503585,0.453785598278,4500.0,0.467820197344,0.00727552687749,0.0140346065164,-63.1557273865,0.0,6000.0,-0.00662802578881,-0.00031988529372,-0.00662802578881,39.869140625,0.349065840244,0.0240919683129,-0.00578033784404,0.30883488059,-0.0247091446072,-0.0247091446072,-0.00599073665217,-0.053201328963,110.736839294,110.736839294,-0.385431885719,0.836614429951,2025,2021,2550,2049,2049,2930,3422,3421,3237,3357,3080,3056,3158,3151,3239,2869,3412,3416,3251,3365,3133,3350,3383,3184
1508400006115541568,136,1508400006115219494,plot_matl,-0.300000011921,-1000.0,-0.250856697559,5.59088512091e-05,0.0491432994604,49.1564178467,0.349065840244,0.11875436455,-0.00663150520995,-0.250870496035,0.00213677366264,0.00213677366264,-0.000255959748756,0.00033253870788,0.0113165341318,0.0113165341318,1.05496191978,-102.173095703,1997,2045,2105,2019,2019,2779,3341,3358,3170,3302,3026,2974,3066,3076,3169,2873,3370,3367,3191,3270,2910,3283,3309,3027,0.010010924,1.359994106,1.361485664,0.453785598278,4500.0,0.467820197344,0.00792438257486,0.0140346065164,-63.1557273865,0.0,6000.0,-0.00664331018925,-2.19038975047e-05,-0.00664331018925,39.868347168,0.349065840244,0.0240919683129,-0.00578033784404,0.30883488059,-0.0247091446072,-0.0247091446072,-0.00599073665217,-0.053201328963,110.736839294,110.736839294,-0.385431885719,0.836614429951,2013,2021,2549,2048,2048,2930,3423,3421,3237,3356,3080,3056,3158,3151,3239,2869,3412,3416,3251,3365,3133,3350,3382,3182
1508400006125575124,137,1508400006125227837,plot_matl,-0.300000011921,-1000.0,-0.250856697559,5.59088512091e-05,0.0491432994604,49.1564178467,0.349065840244,0.11875436455,-0.00663150520995,-0.250870496035,0.00213677366264,0.00213677366264,-0.000255959748756,0.00033253870788,0.0113165341318,0.0113165341318,1.05496191978,-102.173095703,2012,2053,2105,2019,2019,2779,3341,3358,3170,3302,3028,2975,3068,3079,3170,2873,3369,3367,3191,3267,2910,3283,3309,3027,0.010008744,1.370003,1.371197928,0.453785598278,4500.0,0.467820197344,0.00792438257486,0.0140346065164,-63.1557273865,0.0,6000.0,-0.00664331018925,-2.19038975047e-05,-0.00664331018925,39.868347168,0.349065840244,0.0240919683129,-0.00578033784404,0.30883488059,-0.0247091446072,-0.0247091446072,-0.00599073665217,-0.053201328963,110.736839294,110.736839294,-0.385431885719,0.836614429951,2022,2024,2549,2048,2048,2930,3423,3421,3237,3356,3079,3055,3159,3153,3239,2869,3410,3415,3252,3363,3133,3350,3382,3182
1508400006135526700,138,1508400006135258517,plot_matl,-0.300000011921,-1000.0,-0.250850737095,-6.74721159157e-05,0.0491492524743,49.1330223083,0.349065840244,0.11875436455,-0.00664341310039,-0.250856488943,0.00339686009102,0.00339686009102,-2.02222781809e-05,5.16165819135e-05,0.00508351717144,0.00508351717144,0.890068650246,-102.058807373,2026,2070,2106,2020,2020,2779,3342,3357,3170,3302,3028,2975,3068,3079,3170,2873,3369,3367,3191,3267,2910,3284,3305,3030,0.010029706,1.380033272,1.384099428,0.453785598278,4500.0,0.467820197344,0.00602548429742,0.0140346065164,-63.1557273865,0.0,6000.0,-0.00664330041036,-3.45508160535e-05,-0.00664330041036,39.8680496216,0.349065840244,0.0265011657029,-0.00577800022438,0.308820962906,-0.000316255580401,-0.000316255580401,-0.00604659644887,0.00882203876972,110.796508789,110.796508789,-0.37127199769,0.576505303383,2028,2030,2550,2046,2046,2930,3423,3422,3237,3356,3079,3055,3159,3153,3239,2869,3410,3415,3252,3363,3133,3353,3381,3184
1508400006145548763,139,1508400006145217878,plot_matl,-0.300000011921,-1000.0,-0.250856041908,3.67065003957e-05,0.0491439625621,49.1533622742,0.349065840244,0.11875436455,-0.00664341310039,-0.250856488943,0.00339686009102,0.00339686009102,-2.02222781809e-05,5.16165819135e-05,0.00508351717144,0.00508351717144,0.890068650246,-102.058807373,2022,2054,2106,2020,2020,2779,3342,3357,3173,3304,3024,2975,3069,3079,3168,2873,3370,3366,3191,3267,2910,3284,3305,3030,0.009958716,1.38999246,1.384261524,0.453785598278,4500.0,0.467820197344,0.0049694981426,0.0140346065164,-63.1557273865,0.0,6000.0,-0.00665473612025,0.000197085289983,-0.00665473612025,39.8671913147,0.349065840244,0.0265011657029,-0.00577800022438,0.308820962906,-0.000316255580401,-0.000316255580401,-0.00604659644887,0.00882203876972,110.796508789,110.796508789,-0.37127199769,0.576505303383,2027,2021,2550,2046,2046,2930,3423,3422,3235,3358,3081,3055,3159,3151,3241,2868,3411,3415,3252,3363,3133,3353,3381,3184
1508400006155615562,140,1508400006155219745,plot_matl,-0.300000011921,-1000.0,-0.250856041908,3.67065003957e-05,0.0491439625621,49.1533622742,0.349065840244,0.11875436455,-0.00664341310039,-0.250856488943,0.00339686009102,0.00339686009102,-2.02222781809e-05,5.16165819135e-05,0.00508351717144,0.00508351717144,0.890068650246,-102.058807373,2042,2063,2106,2022,2022,2780,3342,3357,3173,3304,3024,2975,3069,3079,3168,2873,3370,3366,3191,3269,2909,3282,3307,3028,0.010002634,1.399994948,1.40036876,0.453785598278,4500.0,0.467820197344,0.0049694981426,0.0140346065164,-63.1557273865,0.0,6000.0,-0.00665473612025,0.000197085289983,-0.00665473612025,39.8671913147,0.349065840244,0.0265011657029,-0.00577800022438,0.308820962906,-0.000316255580401,-0.000316255580401,-0.00604659644887,0.00882203876972,110.796508789,110.796508789,-0.37127199769,0.576505303383,2035,2027,2550,2047,2047,2932,3423,3422,3235,3358,3081,3055,3159,3151,3241,2868,3411,3415,3251,3363,3134,3352,3383,3185
1508400006165677256,141,1508400006165243658,plot_matl,-0.300000011921,-1000.0,-0.250860363245,0.000125218444737,0.0491396412253,49.1699676514,0.349065840244,0.11875436455,-0.00664341310039,-0.250856488943,0.00339686009102,0.00339686009102,-2.02222781809e-05,5.16165819135e-05,0.00508351717144,0.00508351717144,0.890068650246,-102.058807373,2052,2060,2106,2022,2022,2780,3340,3358,3172,3304,3027,2974,3066,3077,3169,2871,3370,3366,3191,3269,2909,3282,3307,3028,0.010022882,1.410018509,1.413226362,0.453785598278,4500.0,0.467820197344,0.00286712846719,0.0140346065164,-63.1557273865,0.0,6000.0,-0.00664189085364,-4.96921747981e-05,-0.00664189085364,39.8680915833,0.349065840244,0.0265011657029,-0.00577800022438,0.308820962906,-0.000316255580401,-0.000316255580401,-0.00604659644887,0.00882203876972,110.796508789,110.796508789,-0.37127199769,0.576505303383,2030,2022,2550,2047,2047,2932,3422,3421,3237,3357,3080,3058,3159,3150,3239,2869,3411,3415,3251,3363,3134,3352,3383,3185
1508400006175687814,142,1508400006175265465,plot_matl,-0.300000011921,-1000.0,-0.250870257616,0.000319231097819,0.0491297505796,49.2097854614,0.349065840244,0.11875436455,-0.00664153927937,-0.250861167908,0.00161614012904,0.00161614012904,-5.60208718525e-05,0.000141166019603,0.00228426023386,0.00228426023386,1.03081166744,-102.266059875,2023,2057,2105,2021,2021,2780,3340,3358,3172,3304,3027,2974,3066,3077,3169,2871,3369,3365,3191,3266,2911,3281,3305,3027,0.010021806,1.420040468,1.423096452,0.453785598278,4500.0,0.467820197344,0.00478361872956,0.0140346065164,-63.1557273865,0.0,6000.0,-0.00663120253012,-0.000274525227724,-0.00663120253012,39.8705596924,0.349065840244,0.0265011657029,-0.0057730153203,0.308495432138,-0.00155109434854,-0.00155109434854,0.00919868145138,-0.0464705862105,110.513038635,110.513038635,-0.438994139433,0.38935905695,2026,2024,2550,2049,2049,2932,3422,3421,3237,3357,3080,3058,3159,3150,3239,2869,3409,3416,3251,3363,3133,3353,3381,3184
1508400006185316440,143,1508400006185197567,plot_matl,-0.300000011921,-1000.0,-0.250872671604,0.000373858987587,0.0491273216903,49.2090988159,0.349065840244,0.11875436455,-0.00664153927937,-0.250861167908,0.00161614012904,0.00161614012904,-5.60208718525e-05,0.000141166019603,0.00228426023386,0.00228426023386,1.03081166744,-102.266059875,2028,2057,2105,2021,2021,2780,3341,3358,3172,3303,3026,2975,3068,3078,3169,2871,3369,3365,3191,3266,2911,3281,3305,3027,0.009929279,1.429971345,1.419886897,0.453785598278,4500.0,0.467820197344,0.00389211578295,0.0140346065164,-63.1557273865,0.0,6000.0,-0.00663364958018,-0.000224587653065,-0.00663364958018,39.8624572754,0.349065840244,0.0265011657029,-0.0057730153203,0.308495432138,-0.00155109434854,-0.00155109434854,0.00919868145138,-0.0464705862105,110.513038635,110.513038635,-0.438994139433,0.38935905695,2025,2025,2550,2049,2049,2930,3422,3423,3237,3356,3079,3057,3159,3150,3239,2869,3409,3416,3251,3363,3133,3353,3381,3184
1508400006195517763,144,1508400006195211572,plot_matl,-0.300000011921,-1000.0,-0.250872671604,0.000373858987587,0.0491273216903,49.2090988159,0.349065840244,0.11875436455,-0.00664153927937,-0.250861167908,0.00161614012904,0.00161614012904,-5.60208718525e-05,0.000141166019603,0.00228426023386,0.00228426023386,1.03081166744,-102.266059875,2028,2061,2105,2021,2021,2780,3341,3358,3172,3303,3026,2975,3068,3078,3169,2871,3370,3364,3190,3269,2909,3279,3305,3028,0.010015901,1.439986391,1.442289744,0.453785598278,4500.0,0.467820197344,0.00363033870235,0.0140346065164,-63.1557273865,0.0,6000.0,-0.00663364958018,-0.000224587653065,-0.00663364958018,39.8624572754,0.349065840244,0.0265011657029,-0.0057730153203,0.308495432138,-0.00155109434854,-0.00155109434854,0.00919868145138,-0.0464705862105,110.513038635,110.513038635,-0.438994139433,0.38935905695,2028,2028,2550,2049,2049,2930,3422,3423,3237,3356,3079,3057,3159,3150,3241,2868,3411,3415,3252,3364,3132,3351,3381,3182
1508400006205501358,145,1508400006205216141,plot_matl,-0.300000011921,-1000.0,-0.25086247921,0.000163248580066,0.0491375140846,49.1777954102,0.349065840244,0.11875436455,-0.00664153927937,-0.250861167908,0.00161614012904,0.00161614012904,-5.60208718525e-05,0.000141166019603,0.00228426023386,0.00228426023386,1.03081166744,-102.266059875,2016,2039,2106,2023,2023,2778,3341,3359,3170,3304,3027,2975,3068,3078,3169,2871,3370,3364,3190,3269,2909,3279,3305,3028,0.010004551,1.449991039,1.450659895,0.453785598278,4500.0,0.467820197344,0.00442499388009,0.0140346065164,-63.1557273865,0.0,6000.0,-0.00660925824195,-0.00071407854557,-0.00660925824195,39.8681373596,0.349065840244,0.0265011657029,-0.0057730153203,0.308495432138,-0.00155109434854,-0.00155109434854,0.00919868145138,-0.0464705862105,110.513038635,110.513038635,-0.438994139433,0.38935905695,2026,2019,2550,2049,2049,2931,3424,3421,3236,3356,3077,3056,3159,3150,3241,2868,3411,3415,3252,3364,3132,3351,3381,3182
1508400006215523482,146,1508400006215221187,plot_matl,-0.300000011921,-1000.0,-0.250850111246,-9.00943268789e-05,0.0491498894989,49.1290397644,0.349065840244,0.11875436455,-0.00663450267166,-0.250863581896,0.00193918729201,0.00193918729201,-0.000200318187126,0.000184335571248,0.0228104051203,0.0228104051203,0.65252584219,-102.329528809,2019,2045,2106,2023,2023,2778,3341,3359,3170,3304,3027,2975,3066,3080,3168,2873,3369,3364,3190,3270,2910,3280,3305,3028,0.010002828,1.459995159,1.460412888,0.453785598278,4500.0,0.467820197344,0.00409768987447,0.0140346065164,-63.1557273865,0.0,6000.0,-0.00660265656188,-0.000842804205604,-0.00660265656188,39.8900108337,0.349065840244,0.0265011657029,-0.00567856105044,0.308397531509,-0.000879435974639,-0.000879435974639,0.00731083797291,0.0173369720578,110.639312744,110.639312744,-0.404557168484,0.175541311502,2033,2022,2550,2049,2049,2931,3424,3421,3236,3356,3077,3056,3158,3151,3240,2869,3410,3417,3251,3362,3133,3352,3381,3182
1508400006225437116,147,1508400006225202707,plot_matl,-0.300000011921,-1000.0,-0.250856071711,3.55050542566e-05,0.0491439290345,49.1532249451,0.349065840244,0.11875436455,-0.00663450267166,-0.250863581896,0.00193918729201,0.00193918729201,-0.000200318187126,0.000184335571248,0.0228104051203,0.0228104051203,0.65252584219,-102.329528809,2016,2053,2106,2023,2023,2779,3341,3358,3171,3304,3027,2975,3066,3080,3168,2873,3369,3364,3190,3270,2910,3280,3307,3029,0.009981863,1.469976931,1.467333861,0.453785598278,4500.0,0.467820197344,0.00409768987447,0.0140346065164,-63.1557273865,0.0,6000.0,-0.00660265656188,-0.000842804205604,-0.00660265656188,39.8900108337,0.349065840244,0.0265011657029,-0.00567856105044,0.308397531509,-0.000879435974639,-0.000879435974639,0.00731083797291,0.0173369720578,110.639312744,110.639312744,-0.404557168484,0.175541311502,2021,2025,2550,2047,2047,2930,3424,3422,3239,3357,3077,3056,3158,3151,3240,2869,3410,3417,3251,3362,3133,3352,3380,3185
1508400006235371389,148,1508400006235228276,plot_matl,-0.300000011921,-1000.0,-0.250861436129,0.000144887904753,0.0491385683417,49.1741485596,0.349065840244,0.11875436455,-0.00663450267166,-0.250863581896,0.00193918729201,0.00193918729201,-0.000200318187126,0.000184335571248,0.0228104051203,0.0228104051203,0.65252584219,-102.329528809,2018,2056,2106,2023,2023,2779,3341,3358,3171,3304,3027,2972,3066,3077,3170,2872,3369,3364,3189,3268,2910,3280,3307,3029,0.010025278,1.480002488,1.483741144,0.453785598278,4500.0,0.467820197344,0.00331802619621,0.0140346065164,-63.1557273865,0.0,6000.0,-0.00662443554029,-0.000390150700696,-0.00662443554029,39.8692855835,0.349065840244,0.0265011657029,-0.00567856105044,0.308397531509,-0.000879435974639,-0.000879435974639,0.00731083797291,0.0173369720578,110.639312744,110.639312744,-0.404557168484,0.175541311502,2022,2029,2550,2047,2047,2930,3424,3422,3239,3357,3077,3057,3158,3151,3241,2870,3410,3413,3251,3365,3133,3352,3380,3185
1508400006245397087,149,1508400006245197492,plot_matl,-0.300000011921,-1000.0,-0.250865310431,0.000223470211495,0.0491346940398,49.1888961792,0.349065840244,0.11875436455,-0.00663450267166,-0.250863581896,0.00193918729201,0.00193918729201,-0.000200318187126,0.000184335571248,0.0228104051203,0.0228104051203,0.65252584219,-102.329528809,2025,2077,2106,2024,2024,2778,3341,3358,3171,3304,3027,2972,3066,3077,3170,2872,3369,3364,3189,3268,2908,3280,3306,3028,0.009969224,1.48997179,1.485414376,0.453785598278,4500.0,0.467820197344,0.00317397527397,0.0140346065164,-63.1557273865,0.0,6000.0,-0.00662810122594,-0.000319416256389,-0.00662810122594,39.868724823,0.349065840244,0.0265011657029,-0.00567856105044,0.308397531509,-0.000879435974639,-0.000879435974639,0.00731083797291,0.0173369720578,110.639312744,110.639312744,-0.404557168484,0.175541311502,2024,2030,2550,2047,2047,2931,3425,3421,3239,3357,3077,3057,3158,3151,3241,2870,3410,3413,3251,3365,3133,3352,3382,3182
1508400006255593985,150,1508400006255215339,plot_matl,-0.300000011921,-1000.0,-0.250873148441,0.000382092344807,0.0491268374026,49.2247314453,0.349065840244,0.11875436455,-0.00662599271163,-0.250866740942,0.00178914587013,0.00178914587013,-0.000360105041182,-0.00572381773964,0.0102485530078,0.0102485530078,0.491328060627,-102.144607544,2025,2055,2106,2024,2024,2778,3341,3358,3172,3303,3026,2973,3067,3079,3168,2871,3371,3366,3189,3268,2908,3280,3306,3028,0.010018355,1.499989796,1.50275325,0.453785598278,4500.0,0.467820197344,0.00356891332194,0.0140346065164,-63.1557273865,0.0,6000.0,-0.00662810122594,-0.000319416256389,-0.00662810122594,39.868724823,0.349065840244,0.0265011657029,-0.0056829508394,0.308750480413,-0.00239214114845,-0.00239214114845,0.00740643125027,-0.0516589507461,110.474868774,110.474868774,-0.223632991314,0.828778326511,2025,2024,2550,2047,2047,2931,3425,3421,3238,3357,3079,3056,3160,3150,3240,2869,3411,3415,3251,3365,3133,3352,3382,3182
1508400006265442857,151,1508400006265224814,plot_matl,-0.300000011921,-1000.0,-0.250869721174,0.000313150201691,0.0491302795708,49.2095222473,0.349065840244,0.11875436455,-0.00662599271163,-0.250866740942,0.00178914587013,0.00178914587013,-0.000360105041182,-0.00572381773964,0.0102485530078,0.0102485530078,0.491328060627,-102.144607544,2020,2048,2105,2021,2021,2777,3341,3358,3172,3303,3026,2973,3067,3079,3168,2871,3371,3366,3191,3268,2908,3282,3306,3029,0.010010172,1.509999717,1.511535972,0.453785598278,4500.0,0.467820197344,0.0038648545742,0.0140346065164,-63.1557273865,0.0,6000.0,-0.00663112848997,-0.000261003937339,-0.00663112848997,39.8736152649,0.349065840244,0.0265011657029,-0.0056829508394,0.308750480413,-0.00239214114845,-0.00239214114845,0.00740643125027,-0.0516589507461,110.474868774,110.474868774,-0.223632991314,0.828778326511,2027,2025,2550,2048,2048,2931,3425,3421,3238,3357,3079,3056,3160,3150,3240,2869,3411,3415,3250,3363,3133,3353,3379,3184
1508400006275521629,152,1508400006275219191,plot_matl,-0.300000011921,-1000.0,-0.250857263803,5.78579092689e-05,0.0491427481174,49.1569023132,0.349065840244,0.11875436455,-0.00662599271163,-0.250866740942,0.00178914587013,0.00178914587013,-0.000360105041182,-0.00572381773964,0.0102485530078,0.0102485530078,0.491328060627,-102.144607544,2041,2044,2105,2021,2021,2777,3341,3359,3172,3303,3027,2976,3066,3077,3169,2871,3371,3366,3191,3268,2908,3282,3306,3029,0.009994191,1.519994289,1.519117032,0.453785598278,4500.0,0.467820197344,0.00464924937114,0.0140346065164,-63.1557273865,0.0,6000.0,-0.00661239027977,-0.000627450295724,-0.00661239027977,39.8556518555,0.349065840244,0.0265011657029,-0.0056829508394,0.308750480413,-0.00239214114845,-0.00239214114845,0.00740643125027,-0.0516589507461,110.474868774,110.474868774,-0.223632991314,0.828778326511,2034,2017,2550,2048,2048,2931,3422,3421,3237,3355,3077,3056,3158,3153,3240,2868,3411,3415,3250,3363,3133,3353,3379,3184
1508400006285478477,153,1508400006285272586,plot_matl,-0.300000011921,-1000.0,-0.250851392746,-5.48929165234e-05,0.0491486117244,49.1349754333,0.349065840244,0.11875436455,-0.00662599271163,-0.250866740942,0.00178914587013,0.00178914587013,-0.000360105041182,-0.00572381773964,0.0102485530078,0.0102485530078,0.491328060627,-102.144607544,2010,2035,2106,2023,2023,2777,3341,3359,3172,3303,3027,2976,3066,3077,3169,2871,3370,3367,3190,3267,2909,3282,3307,3027,0.010053915,1.53004825,1.538248995,0.453785598278,4500.0,0.466470718384,-0.0219402313232,0.0126851247624,-57.0830612183,0.0,6000.0,-0.00661828322336,-0.000512851460371,-0.00661828322336,39.8753204346,0.349065840244,0.0265011657029,-0.0056829508394,0.308750480413,-0.00239214114845,-0.00239214114845,0.00740643125027,-0.0516589507461,110.474868774,110.474868774,-0.223632991314,0.828778326511,2017,2017,2550,2045,2045,2931,3422,3421,3237,3355,3077,3056,3158,3153,3240,2868,3410,3415,3251,3362,3132,3352,3382,3184
1508400006295543769,154,1508400006295266221,plot_matl,-0.300000011921,-1000.0,-0.250851392746,-5.48929165234e-05,0.0491486117244,49.1349754333,0.349065840244,0.117404878139,-0.00661487039179,-0.250856995583,-0.0112198097631,-0.0112198097631,-0.000579221290536,5.34106548002e-05,0.00460561178625,0.00460561178625,0.646332144737,-102.453300476,2021,2041,2106,2023,2023,2778,3340,3358,3173,3301,3026,2974,3065,3079,3169,2871,3370,3367,3190,3267,2909,3282,3307,3027,0.009991992,1.540041039,1.538766768,0.453785598278,4500.0,0.467820197344,0.00383175769821,0.0140346065164,-63.1557273865,0.0,6000.0,-0.00661828322336,-0.000512851460371,-0.00661828322336,39.8753204346,0.349065840244,0.0265011657029,-0.00572683196515,0.308761060238,-0.00256794551387,-0.00256794551387,0.00829868856817,0.0100487861782,110.459358215,110.459358215,0.0461303032935,1.09483909607,2027,2021,2550,2045,2045,2929,3423,3420,3235,3358,3078,3057,3159,3152,3240,2868,3410,3415,3251,3362,3132,3352,3382,3184
1508400006305488658,155,1508400006305215848,plot_matl,-0.300000011921,-1000.0,-0.250868141651,-0.00569447875023,0.0491318702698,47.812789917,0.349065840244,0.117404878139,-0.00661487039179,-0.250856995583,-0.0112198097631,-0.0112198097631,-0.000579221290536,5.34106548002e-05,0.00460561178625,0.00460561178625,0.646332144737,-102.453300476,2022,2052,2106,2023,2023,2778,3340,3358,3173,3301,3026,2974,3065,3079,3166,2873,3369,3363,3188,3268,2911,3282,3307,3027,0.009949342,1.549990747,1.54214801,0.453785598278,4500.0,0.466470718384,-0.0236475802958,0.0126851247624,-57.0830612183,0.0,6000.0,-0.00662696035579,-0.000344104395481,-0.00662696035579,39.8652954102,0.349065840244,0.0265011657029,-0.00572683196515,0.308761060238,-0.00256794551387,-0.00256794551387,0.00829868856817,0.0100487861782,110.459358215,110.459358215,0.0461303032935,1.09483909607,2025,2030,2550,2045,2045,2929,3423,3420,3235,3358,3078,3057,3159,3152,3240,2868,3411,3416,3249,3364,3133,3352,3382,3186
1508400006315483920,156,1508400006315255629,plot_matl,-0.300000011921,-1000.0,-0.250865578651,0.00022864836501,0.049134414643,49.1926116943,0.349065840244,0.117404878139,-0.00661487039179,-0.250856995583,-0.0112198097631,-0.0112198097631,-0.000579221290536,5.34106548002e-05,0.00460561178625,0.00460561178625,0.646332144737,-102.453300476,2008,2035,2106,2025,2025,2777,3339,3356,3172,3301,3026,2974,3065,3079,3166,2873,3369,3363,3188,3268,2911,3282,3307,3027,0.010039079,1.560030267,1.566096324,0.453785598278,4500.0,0.467820197344,0.00342626171187,0.0140346065164,-63.1557273865,0.0,6000.0,-0.00663017248735,-0.000281638902379,-0.00663017248735,39.8727912903,0.349065840244,0.0265011657029,-0.00572683196515,0.308761060238,-0.00256794551387,-0.00256794551387,0.00829868856817,0.0100487861782,110.459358215,110.459358215,0.0461303032935,1.09483909607,2026,2028,2550,2049,2049,2930,3423,3421,3236,3354,3078,3056,3159,3152,3240,2868,3411,3416,3249,3364,3133,3352,3382,3186
1508400006325580013,157,1508400006325258482,plot_matl,-0.300000011921,-1000.0,-0.250865578651,0.00022864836501,0.049134414643,49.1926116943,0.349065840244,0.117404878139,-0.00661487039179,-0.250856995583,-0.0112198097631,-0.0112198097631,-0.000579221290536,5.34106548002e-05,0.00460561178625,0.00460561178625,0.646332144737,-102.453300476,2025,2049,2106,2025,2025,2777,3339,3356,3172,3301,3026,2974,3065,3079,3169,2870,3368,3365,3192,3268,2908,3282,3307,3027,0.010003647,1.570033633,1.570572579,0.453785598278,4500.0,0.467820197344,0.00342626171187,0.0140346065164,-63.1557273865,0.0,6000.0,-0.00663017248735,-0.000281638902379,-0.00663017248735,39.8727912903,0.349065840244,0.0265011657029,-0.00572683196515,0.308761060238,-0.00256794551387,-0.00256794551387,0.00829868856817,0.0100487861782,110.459358215,110.459358215,0.0461303032935,1.09483909607,2030,2026,2550,2049,2049,2930,3423,3421,3236,3354,3078,3056,3158,3153,3242,2868,3411,3416,3249,3364,3133,3350,3382,3186
1508400006335774683,158,1508400006335247303,plot_matl,-0.300000011921,-1000.0,-0.250865578651,0.00022864836501,0.049134414643,49.1926116943,0.349065840244,0.11875436455,-0.00663128681481,-0.250858604908,0.00183756125625,0.00183756125625,-0.000259964668658,0.00606799358502,0.00206707930192,0.00206707930192,0.668550431728,-102.613555908,2025,2049,2106,2025,2025,2777,3339,3356,3172,3301,3026,2974,3065,3079,3169,2870,3368,3365,3192,3268,2908,3282,3307,3027,0.009989338,1.580022651,1.578315404,0.453785598278,4500.0,0.467820197344,0.00342626171187,0.0140346065164,-63.1557273865,0.0,6000.0,-0.00663017248735,-0.000281638902379,-0.00663017248735,39.8727912903,0.349065840244,0.0265011657029,-0.00576531793922,0.308846116066,-0.0038382364437,-0.0038382364437,-0.00627407152206,0.00832593906671,110.778083801,110.778083801,0.0821879729629,0.821343779564,2030,2026,2550,2049,2049,2930,3423,3421,3236,3354,3078,3056,3158,3153,3242,2868,3411,3416,3249,3364,3133,3350,3382,3186
1508400006345607405,159,1508400006345233656,plot_matl,-0.300000011921,-1000.0,-0.250861257315,0.000144014513353,0.0491387471557,49.1734466553,0.349065840244,0.11875436455,-0.00663128681481,-0.250858604908,0.00183756125625,0.00183756125625,-0.000259964668658,0.00606799358502,0.00206707930192,0.00206707930192,0.668550431728,-102.613555908,2026,2042,2105,2024,2024,2780,3342,3357,3172,3302,3040,2985,3077,3087,3178,2878,3376,3371,3195,3272,2908,3282,3307,3028,0.009985125,1.590008919,1.587634875,0.453785598278,4500.0,0.467820197344,0.00289695872925,0.0140346065164,-63.1557273865,0.0,6000.0,-0.00663597416133,-0.000168805272551,-0.00663597416133,39.8684997559,0.349065840244,0.0265011657029,-0.00576531793922,0.308846116066,-0.0038382364437,-0.0038382364437,-0.00627407152206,0.00832593906671,110.778083801,110.778083801,0.0821879729629,0.821343779564,2036,2027,2549,2048,2048,2931,3422,3421,3236,3358,3091,3068,3170,3161,3249,2874,3416,3420,3256,3370,3133,3350,3383,3184
1508400006355649116,160,1508400006355230437,plot_matl,-0.300000011921,-1000.0,-0.250859946012,0.000117541443615,0.0491400621831,49.172908783,0.349065840244,0.11875436455,-0.00663128681481,-0.250858604908,0.00183756125625,0.00183756125625,-0.000259964668658,0.00606799358502,0.00206707930192,0.00206707930192,0.668550431728,-102.613555908,2035,2048,2106,2023,2023,2782,3344,3357,3172,3302,3040,2985,3077,3087,3178,2878,3376,3371,3195,3272,2914,3286,3311,3033,0.009996957,1.600005575,1.59951312,0.453785598278,4500.0,0.467820197344,0.00282232789323,0.0140346065164,-63.1557273865,0.0,6000.0,-0.00661467807367,-0.000603386899456,-0.00661467807367,39.8989524841,0.349065840244,0.0265011657029,-0.00576531793922,0.308846116066,-0.0038382364437,-0.0038382364437,-0.00627407152206,0.00832593906671,110.778083801,110.778083801,0.0821879729629,0.821343779564,2037,2017,2550,2045,2045,2934,3425,3421,3240,3358,3091,3068,3170,3161,3249,2874,3416,3420,3256,3370,3136,3354,3385,3189
1508400006365640415,161,1508400006365245896,plot_matl,-0.300000011921,-1000.0,-0.250859946012,0.000117541443615,0.0491400621831,49.172908783,0.349065840244,0.11875436455,-0.00663128681481,-0.250858604908,0.00183756125625,0.00183756125625,-0.000259964668658,0.00606799358502,0.00206707930192,0.00206707930192,0.668550431728,-102.613555908,2035,2048,2106,2023,2023,2782,3344,3357,3172,3302,3040,2985,3077,3087,3178,2878,3376,3371,3195,3272,2914,3286,3311,3033,0.010013821,1.610020864,1.612225181,0.453785598278,4500.0,0.467820197344,0.00282232789323,0.0140346065164,-63.1557273865,0.0,6000.0,-0.00661467807367,-0.000603386899456,-0.00661467807367,39.8989524841,0.349065840244,0.0265011657029,-0.00576531793922,0.308846116066,-0.0038382364437,-0.0038382364437,-0.00627407152206,0.00832593906671,110.778083801,110.778083801,0.0821879729629,0.821343779564,2037,2017,2550,2045,2045,2934,3425,3421,3240,3358,3091,3068,3170,3161,3249,2874,3416,3420,3256,3370,3136,3354,3385,3189
1508400006375827799,162,1508400006375255196,plot_matl,-0.300000011921,-1000.0,-0.250852197409,0.00558854173869,0.0491478145123,50.5712623596,0.349065840244,0.11875436455,-0.00662228977308,-0.25085824728,0.00126548029948,0.00126548029948,-0.000450175517472,-0.000282744353171,0.000817334046587,0.000817334046587,0.907354950905,-101.95500946,2035,2066,2106,2023,2023,2782,3344,3357,3172,3305,3027,2975,3069,3080,3170,2887,3387,3382,3204,3272,2914,3286,3311,3033,0.010010162,1.620030259,1.621646244,0.453785598278,4500.0,0.467820197344,0.00240897969343,0.0140346065164,-63.1557273865,0.0,6000.0,-0.0066233673133,-0.000428479106631,-0.0066233673133,39.8690795898,0.349065840244,0.0265011657029,-0.00583315966651,0.308860778809,-0.00266434880905,-0.00266434880905,-0.00548956915736,0.00424194522202,110.848419189,110.848419189,0.342777192593,0.403098285198,2038,2031,2550,2045,2045,2934,3425,3421,3240,3359,3081,3058,3162,3153,3243,2884,3426,3430,3262,3370,3136,3354,3385,3189
1508400006385472639,163,1508400006385219775,plot_matl,-0.300000011921,-1000.0,-0.250853151083,-0.000298741681036,0.0491468422115,49.1418838501,0.349065840244,0.11875436455,-0.00662228977308,-0.25085824728,0.00126548029948,0.00126548029948,-0.000450175517472,-0.000282744353171,0.000817334046587,0.000817334046587,0.907354950905,-101.95500946,2050,2067,2106,2021,2021,2785,3348,3357,3172,3305,3027,2975,3069,3080,3170,2887,3387,3382,3204,3280,2919,3292,3316,3037,0.009962221,1.629994271,1.623842023,0.453785598278,4500.0,0.467820197344,0.00198466423899,0.0140346065164,-63.1557273865,0.0,6000.0,-0.00662725605071,-0.000350205722498,-0.00662725605071,39.8778152466,0.349065840244,0.0265011657029,-0.00583315966651,0.308860778809,-0.00266434880905,-0.00266434880905,-0.00548956915736,0.00424194522202,110.848419189,110.848419189,0.342777192593,0.403098285198,2030,2025,2549,2050,2050,2936,3429,3421,3240,3359,3081,3058,3162,3153,3243,2884,3426,3430,3262,3377,3141,3360,3389,3193
1508400006395512824,164,1508400006395256105,plot_matl,-0.300000011921,-1000.0,-0.250858962536,-0.00610445952043,0.0491410344839,47.784488678,0.349065840244,0.11875436455,-0.00662228977308,-0.25085824728,0.00126548029948,0.00126548029948,-0.000450175517472,-0.000282744353171,0.000817334046587,0.000817334046587,0.907354950905,-101.95500946,2028,2063,2106,2021,2021,2785,3348,3362,3176,3305,3029,2977,3071,3081,3170,2871,3372,3382,3204,3280,2919,3292,3316,3037,0.010037435,1.640031074,1.64613934,0.453785598278,4500.0,0.467820197344,0.00308235501871,0.0140346065164,-63.1557273865,0.0,6000.0,-0.00660834880546,-0.000744902936276,-0.00660834880546,39.8616828918,0.349065840244,0.0265011657029,-0.00583315966651,0.308860778809,-0.00266434880905,-0.00266434880905,-0.00548956915736,0.00424194522202,110.848419189,110.848419189,0.342777192593,0.403098285198,2028,2033,2549,2050,2050,2936,3429,3426,3242,3360,3083,3058,3162,3154,3244,2869,3414,3430,3262,3377,3141,3360,3389,3193
1508400006405800558,165,1508400006405296093,plot_matl,-0.300000011921,-1000.0,-0.250858098269,-0.000108761239971,0.0491419136524,49.1613464355,0.349065840244,0.11875436455,-0.00662228977308,-0.25085824728,0.00126548029948,0.00126548029948,-0.000450175517472,-0.000282744353171,0.000817334046587,0.000817334046587,0.907354950905,-101.95500946,2028,2063,2106,2021,2021,2785,3348,3362,3176,3305,3029,2977,3071,3081,3170,2871,3372,3382,3204,3280,2919,3292,3316,3037,0.010039952,1.650070927,1.65659208,0.453785598278,4500.0,0.467820197344,0.00351371988654,0.0140346065164,-63.1557273865,0.0,6000.0,-0.00661491556093,-0.000610168848652,-0.00661491556093,39.8707962036,0.349065840244,0.0265011657029,-0.00583315966651,0.308860778809,-0.00266434880905,-0.00266434880905,-0.00548956915736,0.00424194522202,110.848419189,110.848419189,0.342777192593,0.403098285198,2028,2033,2549,2050,2050,2936,3429,3426,3242,3360,3083,3058,3162,3154,3244,2869,3414,3430,3262,3377,3141,3360,3389,3193
1508400006415828757,166,1508400006415290472,plot_matl,-0.300000011921,-1000.0,-0.250852704048,-0.000186785779078,0.049147285521,49.1402435303,0.349065840244,0.11875436455,-0.00661547575146,-0.250852435827,0.00172375852708,0.00172375852708,-0.000598672486376,0.00575374579057,0.00041847259854,0.00041847259854,1.08029639721,-102.69934845,2018,2053,2106,2021,2021,2782,3344,3360,3173,3305,3028,2976,3067,3079,3171,2871,3372,3382,3193,3271,2911,3282,3311,3029,0.009994196,1.660065519,1.659036536,0.453785598278,4500.0,0.467820197344,0.00384067837149,0.0140346065164,-63.1557273865,0.0,6000.0,-0.00662032142282,-0.000499252113514,-0.00662032142282,39.8762779236,0.349065840244,0.0289103612304,-0.00579530978575,0.309010922909,0.0191576443613,0.0191576443613,0.00927144940943,0.00346761802211,110.775650024,110.775650024,0.316886335611,1.07394278049,2025,2023,2549,2051,2051,2931,3426,3421,3238,3356,3079,3056,3160,3152,3241,2869,3414,3430,3250,3365,3135,3354,3383,3184
1508400006425688485,167,1508400006425233241,plot_matl,-0.300000011921,-1000.0,-0.250858038664,-5.28342134203e-05,0.0491419732571,49.1617469788,0.349065840244,0.11875436455,-0.00661547575146,-0.250852435827,0.00172375852708,0.00172375852708,-0.000598672486376,0.00575374579057,0.00041847259854,0.00041847259854,1.08029639721,-102.69934845,2014,2057,2106,2020,2020,2782,3344,3360,3173,3305,3028,2976,3067,3079,3171,2871,3371,3366,3190,3269,2909,3281,3307,3028,0.00994118,1.670008204,1.66017706,0.453785598278,4500.0,0.467820197344,0.00505455397069,0.0140346065164,-63.1557273865,0.0,6000.0,-0.00662472564727,-0.000408893509302,-0.00662472564727,39.8738937378,0.349065840244,0.0289103612304,-0.00579530978575,0.309010922909,0.0191576443613,0.0191576443613,0.00927144940943,0.00346761802211,110.775650024,110.775650024,0.316886335611,1.07394278049,2020,2024,2550,2049,2049,2931,3426,3421,3238,3356,3079,3056,3160,3152,3241,2869,3411,3418,3253,3366,3133,3350,3383,3182
1508400006435708955,168,1508400006435246731,plot_matl,-0.300000011921,-1000.0,-0.250857323408,-4.3186108087e-05,0.0491426885128,49.1583480835,0.349065840244,0.11875436455,-0.00661547575146,-0.250852435827,0.00172375852708,0.00172375852708,-0.000598672486376,0.00575374579057,0.00041847259854,0.00041847259854,1.08029639721,-102.69934845,2018,2053,2106,2020,2020,2780,3341,3357,3172,3305,3028,2976,3067,3080,3171,2871,3371,3366,3190,3269,2909,3281,3307,3028,0.010014432,1.68002167,1.682424576,0.453785598278,4500.0,0.467820197344,0.00508694490418,0.0140346065164,-63.1557273865,0.0,6000.0,-0.00661511812359,0.0128221753985,-0.00661511812359,35.816192627,0.349065840244,0.0289103612304,-0.00579530978575,0.309010922909,0.0191576443613,0.0191576443613,0.00927144940943,0.00346761802211,110.775650024,110.775650024,0.316886335611,1.07394278049,2024,2018,2550,2049,2049,2932,3424,3421,3238,3358,3077,3056,3158,3151,3241,2869,3411,3418,3253,3366,3133,3350,3383,3182
1508400006445623456,169,1508400006445233484,plot_matl,-0.300000011921,-1000.0,-0.250861614943,6.51635127724e-05,0.0491383746266,49.1751022339,0.349065840244,0.11875436455,-0.00661547575146,-0.250852435827,0.00172375852708,0.00172375852708,-0.000598672486376,0.00575374579057,0.00041847259854,0.00041847259854,1.08029639721,-102.69934845,2014,2056,2106,2020,2020,2780,3341,3357,3172,3305,3028,2976,3067,3080,3171,2871,3371,3368,3190,3267,2911,3281,3307,3028,0.009985904,1.690008587,1.687617776,0.453785598278,4500.0,0.467820197344,0.00672539416701,0.0140346065164,-63.1557273865,0.0,6000.0,-0.00660775369033,-0.000736102228984,-0.00660775369033,39.8717536926,0.349065840244,0.0289103612304,-0.00579530978575,0.309010922909,0.0191576443613,0.0191576443613,0.00927144940943,0.00346761802211,110.775650024,110.775650024,0.316886335611,1.07394278049,2024,2022,2550,2049,2049,2932,3424,3421,3238,3358,3077,3056,3158,3151,3241,2867,3412,3415,3251,3365,3134,3352,3381,3186
1508400006455382010,170,1508400006455215097,plot_matl,-0.300000011921,-1000.0,-0.250854343176,-6.49394423817e-05,0.049145642668,49.1468925476,0.349065840244,0.12010384351,-0.00660848012194,-0.250861465931,0.0166580732912,0.0166580732912,-0.000721613527276,6.38808924123e-05,0.000188035599422,0.000188035599422,1.31019353867,-102.269096375,2004,2044,2106,2017,2017,2781,3341,3358,3173,3303,3027,2974,3067,3080,3171,2871,3371,3368,3190,3267,2911,3281,3307,3028,0.00997935,1.699989298,1.6964895,0.453785598278,4500.0,0.467820197344,0.00604735594243,0.0140346065164,-63.1557273865,0.0,6000.0,-0.00658994121477,0.012327041477,-0.00658994121477,35.800075531,0.349065840244,0.0289103612304,-0.00570610025898,0.309047400951,0.0159290209413,0.0159290209413,-0.00768257537857,0.0654702112079,110.626953125,110.626953125,-0.096158824861,1.47617411613,2025,2026,2550,2049,2049,2932,3424,3422,3236,3358,3078,3056,3158,3151,3241,2867,3412,3415,3251,3365,3134,3352,3381,3186
1508400006465591991,171,1508400006465223489,plot_matl,-0.300000011921,-1000.0,-0.250854343176,-6.49394423817e-05,0.049145642668,49.1468925476,0.349065840244,0.12010384351,-0.00660848012194,-0.250861465931,0.0166580732912,0.0166580732912,-0.000721613527276,6.38808924123e-05,0.000188035599422,0.000188035599422,1.31019353867,-102.269096375,2004,2044,2106,2017,2017,2781,3341,3358,3173,3303,3027,2974,3067,3080,3171,2871,3371,3368,3190,3267,2911,3281,3307,3028,0.01001,1.70999844,1.71171,0.453785598278,4500.0,0.467820197344,0.00604735594243,0.0140346065164,-63.1557273865,0.0,6000.0,-0.00660607498139,-0.000769335078076,-0.00660607498139,41.7795410156,0.349065840244,0.0289103612304,-0.00570610025898,0.309047400951,0.0159290209413,0.0159290209413,-0.00768257537857,0.0654702112079,110.626953125,110.626953125,-0.096158824861,1.47617411613,2025,2026,2550,2049,2049,2932,3424,3422,3236,3358,3078,3056,3158,3151,3241,2867,3412,3415,3251,3365,3134,3352,3381,3186
1508400006475457482,172,1508400006475210233,plot_matl,-0.300000011921,-1000.0,-0.250854283571,-4.57902824564e-05,0.0491457171738,49.1537017822,0.349065840244,0.12010384351,-0.00660848012194,-0.250861465931,0.0166580732912,0.0166580732912,-0.000721613527276,6.38808924123e-05,0.000188035599422,0.000188035599422,1.31019353867,-102.269096375,2023,2046,2106,2017,2017,2781,3341,3358,3173,3303,3027,2974,3066,3079,3167,2870,3369,3365,3191,3287,2924,3295,3307,3028,0.009984533,1.719984398,1.717339676,0.453785598278,4500.0,0.467820197344,0.00779357971624,0.0140346065164,-63.1557273865,0.0,6000.0,-0.00660607498139,-0.000769335078076,-0.00660607498139,41.7795410156,0.349065840244,0.0289103612304,-0.00570610025898,0.309047400951,0.0159290209413,0.0159290209413,-0.00768257537857,0.0654702112079,110.626953125,110.626953125,-0.096158824861,1.47617411613,2025,2020,2550,2049,2049,2932,3424,3422,3236,3358,3078,3056,3159,3150,3239,2867,3410,3417,3249,3383,3147,3365,3381,3186
1508400006485457135,173,1508400006485223704,plot_matl,-0.300000011921,-1000.0,-0.250854253769,-3.70613815903e-05,0.0491457507014,49.1465187073,0.349065840244,0.12010384351,-0.00660848012194,-0.250861465931,0.0166580732912,0.0166580732912,-0.000721613527276,6.38808924123e-05,0.000188035599422,0.000188035599422,1.31019353867,-102.269096375,2019,2044,2106,2016,2016,2789,3350,3366,3178,3309,3027,2974,3066,3079,3167,2870,3369,3365,3191,3287,2924,3295,3320,3042,0.010014467,1.729998313,1.732502791,0.453785598278,4500.0,0.466470718384,-0.0183979030699,0.0126851247624,-57.0830612183,0.0,6000.0,-0.0066134291701,-0.000622678431682,-0.0066134291701,39.8860359192,0.349065840244,0.0289103612304,-0.00570610025898,0.309047400951,0.0159290209413,0.0159290209413,-0.00768257537857,0.0654702112079,110.626953125,110.626953125,-0.096158824861,1.47617411613,2019,2016,2551,2053,2053,2939,3430,3427,3242,3364,3078,3056,3159,3150,3239,2867,3410,3417,3249,3383,3147,3365,3396,3198
