%time,field.header.seq,field.header.stamp,field.header.frame_id,field.FFJ4_set_point,field.FFJ4_position_gain,field.FFJ4_process_value,field.FFJ4_process_value_dot,field.FFJ4_error,field.FFJ4_command,field.FFJ1,field.FFJ2,field.FFJ3,field.FFJ4,field.FFJ1_dot,field.FFJ2_dot,field.FFJ3_dot,field.FFJ4_dot,field.FFJ1_tao,field.FFJ2_tao,field.FFJ3_tao,field.FFJ4_tao,field.pac0,field.pac1,field.pdc0,field.tac0,field.tdc0,field.el0,field.el1,field.el2,field.el3,field.el4,field.el5,field.el6,field.el7,field.el8,field.el9,field.el10,field.el11,field.el12,field.el13,field.el14,field.el15,field.el16,field.el17,field.el18,field.dt,field.time,field.test_time2,field.FFJ0_set_point,field.FFJ0_position_gain,field.FFJ0_process_value,field.FFJ0_process_value_dot,field.FFJ0_error,field.FFJ0_command,field.FFJ3_set_point,field.FFJ3_position_gain,field.FFJ3_process_value,field.FFJ3_process_value_dot,field.FFJ3_error,field.FFJ3_command,field.MFJ1,field.MFJ2,field.MFJ3,field.MFJ4,field.MFJ1_dot,field.MFJ2_dot,field.MFJ3_dot,field.MFJ4_dot,field.MFJ1_tao,field.MFJ2_tao,field.MFJ3_tao,field.MFJ4_tao,field.Mpac0,field.Mpac1,field.Mpdc0,field.Mtac0,field.Mtdc0,field.Mel0,field.Mel1,field.Mel2,field.Mel3,field.Mel4,field.Mel5,field.Mel6,field.Mel7,field.Mel8,field.Mel9,field.Mel10,field.Mel11,field.Mel12,field.Mel13,field.Mel14,field.Mel15,field.Mel16,field.Mel17,field.Mel18
1508409881938288880,134,1508409881937710578,plot_matl,0.25,-500.0,0.127376064658,-0.00699689099565,-0.122623942792,-62.9654579163,0.349065840244,0.0377854779363,0.000849861011375,0.127343341708,-0.00678872410208,-0.00678872410208,-0.00376550434157,-0.00635197106749,-1.4229747057,-1.4229747057,-1.95161402225,104.03792572,2022,2050,2111,2029,2029,2652,3301,3328,3130,3279,2992,2954,3034,3071,3153,2940,3385,3379,3220,3278,2933,3267,3301,3020,0.00997789,1.339997856,1.33703726,0.401425719261,4500.0,0.386851340532,-0.0106732631102,-0.014574399218,65.5847930908,0.0,6000.0,0.00094000028912,-0.0055193034932,0.0,0.0,0.349065840244,0.0240919683129,-0.014925878495,0.297010868788,-0.00832011178136,-0.00832011178136,-0.00538498349488,-0.00015838429681,151.885513306,151.885513306,-53.8676834106,0.00204778299667,2021,2019,2597,2041,2041,2949,3413,3415,3243,3352,3079,2993,3116,3094,3205,2790,3383,3398,3233,3352,3119,3329,3372,3177
1508409881948118217,135,1508409881947724083,plot_matl,0.25,-500.0,0.127348840237,-0.00644920254126,-0.122651159763,-62.9211997986,0.349065840244,0.0391349606216,0.000934377370868,0.127390012145,0.00812891870737,0.00812891870737,-0.00540666887537,0.0135892024264,-1.57093334198,-1.57093334198,-1.3559422493,104.435272217,2031,2038,2111,2029,2029,2652,3301,3328,3130,3281,2992,2952,3036,3070,3153,2939,3385,3379,3220,3278,2933,3267,3301,3020,0.010013803,1.350011471,1.351863405,0.401425719261,4500.0,0.386851340532,-0.0111573031172,-0.014574399218,65.5847930908,0.0,6000.0,0.000900790677406,-0.0047430335544,0.0,0.0,0.349065840244,0.0240919683129,-0.0148731647059,0.296919614077,-0.0068279299885,-0.0068279299885,-0.00646141171455,0.00174115318805,151.677108765,151.677108765,-53.4377784729,0.252986818552,2026,2010,2597,2041,2041,2949,3414,3417,3243,3353,3079,2992,3116,3094,3205,2788,3383,3398,3233,3352,3119,3329,3372,3177
1508409881958188360,136,1508409881957787030,plot_matl,0.25,-500.0,0.12734927237,-0.00644213799387,-0.12265072763,-62.851600647,0.349065840244,0.0391349606216,0.000934377370868,0.127390012145,0.00812891870737,0.00812891870737,-0.00540666887537,0.0135892024264,-1.57093334198,-1.57093334198,-1.3559422493,104.435272217,2017,2031,2111,2027,2027,2652,3301,3328,3130,3281,2992,2952,3036,3070,3153,2939,3385,3378,3219,3278,2934,3269,3300,3019,0.010064531,1.360075445,1.368776216,0.401425719261,4500.0,0.386851340532,-0.0110711148009,-0.014574399218,65.5847930908,0.0,6000.0,0.000907464069314,-0.00486306194216,0.0,0.0,0.349065840244,0.0240919683129,-0.0148731647059,0.296919614077,-0.0068279299885,-0.0068279299885,-0.00646141171455,0.00174115318805,151.677108765,151.677108765,-53.4377784729,0.252986818552,2016,2008,2598,2040,2040,2949,3414,3417,3243,3353,3079,2992,3116,3094,3205,2788,3387,3397,3232,3351,3119,3327,3372,3176
1508409881968215550,137,1508409881967749048,plot_matl,0.25,-500.0,0.127312213182,-0.00566810648888,-0.122687786818,-62.7369689941,0.349065840244,0.0391349606216,0.000934377370868,0.127390012145,0.00812891870737,0.00812891870737,-0.00540666887537,0.0135892024264,-1.57093334198,-1.57093334198,-1.3559422493,104.435272217,2015,2027,2111,2027,2027,2654,3300,3329,3132,3282,2992,2954,3035,3070,3153,2939,3385,3378,3219,3278,2934,3269,3300,3019,0.009960199,1.370036876,1.364547263,0.401425719261,4500.0,0.388200819492,0.0155558120459,-0.013224917464,59.5121307373,0.0,6000.0,0.00089830358047,-0.0046994080767,0.0,0.0,0.349065840244,0.0240919683129,-0.0148731647059,0.296919614077,-0.0068279299885,-0.0068279299885,-0.00646141171455,0.00174115318805,151.677108765,151.677108765,-53.4377784729,0.252986818552,2019,2010,2598,2040,2040,2950,3415,3412,3243,3350,3080,2992,3117,3095,3205,2788,3387,3397,3232,3351,3119,3327,3372,3176
1508409881978053602,138,1508409881977717285,plot_matl,0.25,-500.0,0.127314910293,-0.00574789755046,-0.122685089707,-62.7303085327,0.349065840244,0.0391349606216,0.000934377370868,0.127390012145,0.00812891870737,0.00812891870737,-0.00540666887537,0.0135892024264,-1.57093334198,-1.57093334198,-1.3559422493,104.435272217,2006,2039,2111,2027,2027,2654,3300,3329,3132,3282,2992,2954,3035,3070,3153,2939,3384,3380,3221,3279,2933,3269,3300,3019,0.009967625,1.380004943,1.37553225,0.401425719261,4500.0,0.386851340532,-0.0125188995153,-0.014574399218,65.5847930908,0.0,6000.0,0.000880329636857,-0.00434144679457,0.0,0.0,0.349065840244,0.0240919683129,-0.0148731647059,0.296919614077,-0.0068279299885,-0.0068279299885,-0.00646141171455,0.00174115318805,151.677108765,151.677108765,-53.4377784729,0.252986818552,2013,2013,2598,2040,2040,2950,3415,3412,3243,3350,3080,2992,3117,3095,3204,2789,3387,3398,3233,3351,3117,3330,3373,3178
1508409881988207401,139,1508409881987770845,plot_matl,0.25,-500.0,0.127320319414,-0.00588453281671,-0.122679680586,-62.7981910706,0.349065840244,0.0377854779363,0.000889450893737,0.127309054136,-0.00613217893988,-0.00613217893988,0.00890056975186,-0.00563102820888,-1.45267772675,-1.45267772675,-0.803156197071,104.339889526,2002,2042,2112,2027,2027,2656,3303,3328,3131,3281,2994,2952,3035,3070,3153,2939,3384,3380,3221,3279,2933,3269,3300,3019,0.010054594,1.390058989,1.397588566,0.401425719261,4500.0,0.386851340532,-0.0142255462706,-0.014574399218,65.5847930908,0.0,6000.0,0.000902584753931,0.00862731784582,0.0,0.0,0.349065840244,0.0265011657029,-0.0148629862815,0.29654031992,0.0164656825364,0.0164656825364,-0.00665004597977,0.0095561882481,152.161712646,152.161712646,-53.0547981262,-0.0988082438707,2013,2017,2598,2045,2045,2951,3414,3416,3242,3352,3081,2992,3117,3095,3204,2789,3387,3398,3233,3351,3117,3330,3373,3178
1508409881998174379,140,1508409881997728117,plot_matl,0.25,-500.0,0.127286553383,0.0156410448253,-0.122713454068,-57.8233985901,0.349065840244,0.0377854779363,0.000889450893737,0.127309054136,-0.00613217893988,-0.00613217893988,0.00890056975186,-0.00563102820888,-1.45267772675,-1.45267772675,-0.803156197071,104.339889526,2002,2042,2112,2027,2027,2656,3303,3328,3131,3281,2994,2952,3035,3070,3153,2939,3384,3380,3221,3279,2933,3269,3300,3019,0.0099561,1.400016076,1.393854,0.401425719261,4500.0,0.388200819492,0.0125783374533,-0.013224917464,59.5121307373,0.0,6000.0,0.000907244917471,0.00850983988494,0.0,0.0,0.349065840244,0.0265011657029,-0.0148629862815,0.29654031992,0.0164656825364,0.0164656825364,-0.00665004597977,0.0095561882481,152.161712646,152.161712646,-53.0547981262,-0.0988082438707,2013,2017,2598,2045,2045,2951,3414,3416,3242,3352,3081,2992,3117,3095,3204,2789,3387,3398,3233,3351,3117,3330,3373,3178
1508409882008158487,141,1508409882007751504,plot_matl,0.25,-500.0,0.127258062363,0.0161745101213,-0.122741937637,-57.225440979,0.349065840244,0.0377854779363,0.000889450893737,0.127309054136,-0.00613217893988,-0.00613217893988,0.00890056975186,-0.00563102820888,-1.45267772675,-1.45267772675,-0.803156197071,104.339889526,2026,2059,2112,2029,2029,2654,3302,3329,3131,3279,2994,2952,3037,3071,3153,2937,3385,3379,3221,3277,2933,3269,3300,3017,0.010023578,1.410039628,1.413324498,0.401425719261,4500.0,0.388200819492,0.0126964813098,-0.013224917464,59.5121307373,0.0,6000.0,0.000900207262021,0.00866556540132,0.0,0.0,0.349065840244,0.0265011657029,-0.0148629862815,0.29654031992,0.0164656825364,0.0164656825364,-0.00665004597977,0.0095561882481,152.161712646,152.161712646,-53.0547981262,-0.0988082438707,2028,2023,2598,2045,2045,2950,3415,3416,3245,3353,3081,2992,3116,3093,3203,2787,3387,3398,3233,3351,3120,3330,3372,3177
1508409882018148267,142,1508409882017735457,plot_matl,0.25,-500.0,0.127293080091,0.0154993850738,-0.122706919909,-57.2043304443,0.349065840244,0.0377854779363,0.000889450893737,0.127309054136,-0.00613217893988,-0.00613217893988,0.00890056975186,-0.00563102820888,-1.45267772675,-1.45267772675,-0.803156197071,104.339889526,2026,2059,2112,2029,2029,2654,3302,3329,3131,3279,2994,2952,3037,3071,3153,2937,3385,3379,3221,3277,2933,3269,3300,3017,0.009983902,1.420023726,1.417714084,0.401425719261,4500.0,0.389550298452,0.0390563607216,-0.01187543571,53.4394645691,0.0,6000.0,0.000893020420335,-0.00461537810043,0.0,0.0,0.349065840244,0.0265011657029,-0.0148629862815,0.29654031992,0.0164656825364,0.0164656825364,-0.00665004597977,0.0095561882481,152.161712646,152.161712646,-53.0547981262,-0.0988082438707,2028,2023,2598,2045,2045,2950,3415,3416,3245,3353,3081,2992,3116,3093,3203,2787,3387,3398,3233,3351,3120,3330,3372,3177
1508409882028035741,143,1508409882027729562,plot_matl,0.25,-500.0,0.127263888717,-0.0047505274415,-0.122736103833,-62.515789032,0.349065840244,0.0391349606216,0.000888813636266,0.127288177609,0.00579850655049,0.00579850655049,-0.00453042704612,-0.00525000691414,-1.08487153053,-1.08487153053,-1.29535722733,103.758155823,2038,2072,2111,2031,2031,2653,3300,3328,3131,3279,2992,2954,3035,3071,3154,2938,3384,3380,3221,3277,2932,3269,3299,3021,0.009992622,1.4300173,1.428944946,0.401425719261,4500.0,0.386851340532,-0.0160408914089,-0.014574399218,65.5847930908,0.0,6000.0,0.000923927582335,-0.00524646323174,0.0,0.0,0.349065840244,0.0240919683129,-0.0149087393656,0.296844869852,-0.00550376297906,-0.00550376297906,0.00965305883437,0.00325519754551,152.052963257,152.052963257,-52.7437324524,-0.0382229983807,2036,2037,2597,2045,2045,2951,3414,3418,3245,3353,3080,2991,3118,3094,3203,2788,3384,3400,3231,3352,3120,3331,3372,3176
1508409882038096999,144,1508409882037754979,plot_matl,0.25,-500.0,0.127276048064,0.0158623829484,-0.122723951936,-57.543838501,0.349065840244,0.0391349606216,0.000888813636266,0.127288177609,0.00579850655049,0.00579850655049,-0.00453042704612,-0.00525000691414,-1.08487153053,-1.08487153053,-1.29535722733,103.758155823,2038,2072,2111,2031,2031,2653,3300,3328,3131,3279,2992,2954,3035,3071,3154,2938,3384,3380,3221,3277,2932,3269,3299,3021,0.010025026,1.440042672,1.443603744,0.401425719261,4500.0,0.386851340532,-0.0174710340798,-0.014574399218,65.5847930908,0.0,6000.0,0.000914173258934,-0.0050535867922,0.0,0.0,0.349065840244,0.0240919683129,-0.0149087393656,0.296844869852,-0.00550376297906,-0.00550376297906,0.00965305883437,0.00325519754551,152.052963257,152.052963257,-52.7437324524,-0.0382229983807,2036,2037,2597,2045,2045,2951,3414,3418,3245,3353,3080,2991,3118,3094,3203,2788,3384,3400,3231,3352,3120,3331,3372,3176
1508409882047991919,145,1508409882047720641,plot_matl,0.25,-500.0,0.127283111215,-0.00514950836077,-0.122716881335,-62.6031646729,0.349065840244,0.0391349606216,0.000888813636266,0.127288177609,0.00579850655049,0.00579850655049,-0.00453042704612,-0.00525000691414,-1.08487153053,-1.08487153053,-1.29535722733,103.758155823,2045,2103,2109,2028,2028,2652,3300,3328,3130,3280,2994,2953,3035,3071,3153,2939,3383,3377,3220,3277,2934,3269,3298,3021,0.009965175,1.450008373,1.444950375,0.401425719261,4500.0,0.388200819492,0.00901168212295,-0.013224917464,59.5121307373,0.0,6000.0,0.000941734586377,0.00781291816384,0.0,0.0,0.349065840244,0.0240919683129,-0.0149087393656,0.296844869852,-0.00550376297906,-0.00550376297906,0.00965305883437,0.00325519754551,152.052963257,152.052963257,-52.7437324524,-0.0382229983807,2044,2063,2596,2043,2043,2948,3414,3418,3242,3352,3081,2993,3116,3093,3206,2788,3385,3399,3231,3351,3118,3327,3371,3176
1508409882058073563,146,1508409882057743485,plot_matl,0.25,-500.0,0.127295926213,0.0154394125566,-0.122704081237,-57.7127494812,0.349065840244,0.0391349606216,0.000888813636266,0.127288177609,0.00579850655049,0.00579850655049,-0.00453042704612,-0.00525000691414,-1.08487153053,-1.08487153053,-1.29535722733,103.758155823,2048,2087,2109,2028,2028,2652,3301,3327,3131,3281,2993,2954,3036,3073,3153,2939,3383,3377,3220,3277,2934,3269,3298,3021,0.010022851,1.460031329,1.463336246,0.401425719261,4500.0,0.388200819492,0.00839969329536,-0.013224917464,59.5121307373,0.0,6000.0,0.000954020710196,0.00757679017261,0.0,0.0,0.349065840244,0.0240919683129,-0.0149087393656,0.296844869852,-0.00550376297906,-0.00550376297906,0.00965305883437,0.00325519754551,152.052963257,152.052963257,-52.7437324524,-0.0382229983807,2051,2053,2596,2043,2043,2948,3414,3415,3242,3350,3078,2993,3116,3096,3206,2789,3385,3399,3231,3351,3118,3327,3371,3176
1508409882068267291,147,1508409882067768636,plot_matl,0.25,-500.0,0.127319440246,-0.00589950196445,-0.122680559754,-62.7198104858,0.349065840244,0.0391349606216,0.000948326778598,0.127290636301,0.00411725929007,0.00411725929007,-0.00573041616008,-0.00531522370875,-1.24526572227,-1.24526572227,-1.44766426086,104.005477905,2028,2072,2109,2028,2028,2652,3301,3327,3131,3281,2993,2954,3036,3073,3153,2939,3385,3379,3220,3278,2932,3270,3299,3020,0.010026083,1.470056986,1.473834201,0.401425719261,4500.0,0.386851340532,-0.0184028036892,-0.014574399218,65.5847930908,0.0,6000.0,0.000961522280704,-0.00599843123928,0.0,0.0,0.349065840244,0.0240919683129,-0.0148213645443,0.296718269587,-0.00790899898857,-0.00790899898857,0.00790141616017,0.0058579291217,152.289031982,152.289031982,-52.401184082,-0.367965787649,2041,2041,2596,2049,2049,2948,3414,3415,3242,3350,3078,2993,3116,3096,3206,2789,3385,3398,3233,3350,3120,3327,3374,3177
1508409882078118889,148,1508409882077738862,plot_matl,0.25,-500.0,0.127344563603,0.0144690480083,-0.122655428946,-57.6161804199,0.349065840244,0.0391349606216,0.000948326778598,0.127290636301,0.00411725929007,0.00411725929007,-0.00573041616008,-0.00531522370875,-1.24526572227,-1.24526572227,-1.44766426086,104.005477905,2035,2073,2109,2028,2028,2651,3301,3329,3129,3282,2991,2952,3033,3072,3153,2939,3385,3379,3220,3278,2932,3270,3299,3020,0.00996947,1.480027192,1.47548156,0.401425719261,4500.0,0.388200819492,0.00923280324787,-0.013224917464,59.5121307373,0.0,6000.0,0.000945067673456,0.00776448938996,0.0,0.0,0.349065840244,0.0240919683129,-0.0148213645443,0.296718269587,-0.00790899898857,-0.00790899898857,0.00790141616017,0.0058579291217,152.289031982,152.289031982,-52.401184082,-0.367965787649,2044,2047,2596,2049,2049,2949,3414,3415,3244,3354,3079,2992,3118,3096,3206,2789,3385,3398,3233,3350,3120,3327,3374,3177
1508409882088059547,149,1508409882087753580,plot_matl,0.25,-500.0,0.127359509468,0.0141470460221,-0.122640490532,-58.0762825012,0.349065840244,0.0391349606216,0.000948326778598,0.127290636301,0.00411725929007,0.00411725929007,-0.00573041616008,-0.00531522370875,-1.24526572227,-1.24526572227,-1.44766426086,104.005477905,2006,2035,2109,2028,2028,2651,3301,3329,3129,3282,2991,2952,3033,3072,3153,2940,3384,3376,3222,3276,2933,3269,3300,3018,0.010013303,1.490041388,1.491982147,0.401425719261,4500.0,0.389550298452,0.0363059267402,-0.01187543571,53.4394645691,0.0,6000.0,0.000964686507359,-0.00606542732567,0.0,0.0,0.349065840244,0.0240919683129,-0.0148213645443,0.296718269587,-0.00790899898857,-0.00790899898857,0.00790141616017,0.0058579291217,152.289031982,152.289031982,-52.401184082,-0.367965787649,2019,2013,2596,2049,2049,2949,3414,3415,3244,3354,3079,2992,3118,3096,3203,2790,3384,3398,3233,3350,3119,3329,3371,3177
1508409882097991528,150,1508409882097730451,plot_matl,0.25,-500.0,0.127333804965,-0.00619261711836,-0.122666195035,-62.897567749,0.349065840244,0.0391349606216,0.000948326778598,0.127290636301,0.00411725929007,0.00411725929007,-0.00573041616008,-0.00531522370875,-1.24526572227,-1.24526572227,-1.44766426086,104.005477905,2002,2031,2110,2028,2028,2651,3300,3329,3128,3279,2991,2953,3033,3072,3153,2940,3384,3376,3222,3276,2933,3269,3300,3018,0.009977378,1.500018856,1.4966067,0.401425719261,4500.0,0.388200819492,0.00743017857894,-0.013224917464,59.5121307373,0.0,6000.0,0.000980759039521,0.00703864311799,0.0,0.0,0.349065840244,0.0240919683129,-0.0148213645443,0.296718269587,-0.00790899898857,-0.00790899898857,0.00790141616017,0.0058579291217,152.289031982,152.289031982,-52.401184082,-0.367965787649,2009,2001,2596,2041,2041,2948,3414,3415,3242,3353,3078,2992,3118,3096,3203,2790,3384,3398,3233,3350,3119,3329,3371,3177
1508409882108170814,151,1508409882107748787,plot_matl,0.25,-500.0,0.12731602788,-0.00584345543757,-0.12268396467,-62.7395401001,0.349065840244,0.0391349606216,0.000987353269011,0.127327993512,0.00364472717047,0.00364472717047,0.00690533500165,-0.00607533194125,-1.31130719185,-1.31130719185,-1.3542124033,104.256370544,1988,2013,2110,2028,2028,2651,3300,3329,3128,3279,2991,2953,3035,3074,3153,2939,3385,3378,3222,3279,2934,3269,3300,3018,0.010016995,1.510036393,1.512566245,0.401425719261,4500.0,0.386851340532,-0.0196658857167,-0.014574399218,65.5847930908,0.0,6000.0,0.000994038302451,-0.00666912924498,0.0,0.0,0.349065840244,0.0240919683129,-0.0147926425561,0.296907097101,-0.00810070149601,-0.00810070149601,-0.00803248770535,0.0638429373503,151.785903931,151.785903931,-52.5637893677,-0.103326387703,1997,1994,2596,2041,2041,2948,3414,3415,3242,3353,3078,2992,3116,3095,3203,2790,3387,3398,3233,3351,3118,3330,3371,3177
1508409882118213223,152,1508409882117800923,plot_matl,0.25,-500.0,0.127316638827,-0.00586619786918,-0.122683361173,-62.7746429443,0.349065840244,0.0391349606216,0.000987353269011,0.127327993512,0.00364472717047,0.00364472717047,0.00690533500165,-0.00607533194125,-1.31130719185,-1.31130719185,-1.3542124033,104.256370544,1988,2013,2110,2028,2028,2651,3300,3329,3128,3279,2991,2953,3035,3074,3153,2939,3385,3378,3222,3279,2934,3269,3300,3018,0.010052705,1.520088772,1.52801116,0.401425719261,4500.0,0.388200819492,0.00622444972396,-0.013224917464,59.5121307373,0.0,6000.0,0.000981581863016,-0.0064272461459,0.0,0.0,0.349065840244,0.0240919683129,-0.0147926425561,0.296907097101,-0.00810070149601,-0.00810070149601,-0.00803248770535,0.0638429373503,151.785903931,151.785903931,-52.5637893677,-0.103326387703,1997,1994,2596,2041,2041,2948,3414,3415,3242,3353,3078,2992,3116,3095,3203,2790,3387,3398,3233,3351,3118,3330,3371,3177
1508409882128173933,153,1508409882127751097,plot_matl,0.25,-500.0,0.127363502979,0.0141653195024,-0.122636497021,-57.9538726807,0.349065840244,0.0391349606216,0.000987353269011,0.127327993512,0.00364472717047,0.00364472717047,0.00690533500165,-0.00607533194125,-1.31130719185,-1.31130719185,-1.3542124033,104.256370544,1977,2019,2110,2029,2029,2654,3299,3327,3131,3284,2991,2953,3035,3074,3153,2939,3385,3378,3222,3279,2934,3269,3300,3020,0.009949044,1.530039114,1.522203732,0.401425719261,4500.0,0.388200819492,0.00651266658679,-0.013224917464,59.5121307373,0.0,6000.0,0.00094000203535,-0.00557790929452,0.0,0.0,0.349065840244,0.0240919683129,-0.0147926425561,0.296907097101,-0.00810070149601,-0.00810070149601,-0.00803248770535,0.0638429373503,151.785903931,151.785903931,-52.5637893677,-0.103326387703,1990,1988,2597,2045,2045,2949,3412,3416,3245,3356,3078,2992,3116,3095,3203,2790,3387,3398,3233,3351,3118,3330,3370,3176
1508409882138027915,154,1508409882137737473,plot_matl,0.25,-500.0,0.127357125282,-0.00659808283672,-0.122642874718,-62.8367156982,0.349065840244,0.0391349606216,0.000987353269011,0.127327993512,0.00364472717047,0.00364472717047,0.00690533500165,-0.00607533194125,-1.31130719185,-1.31130719185,-1.3542124033,104.256370544,1986,2019,2110,2029,2029,2654,3299,3327,3131,3284,2996,2955,3039,3076,3157,2941,3387,3380,3221,3280,2934,3269,3300,3020,0.009984598,1.540024625,1.537628092,0.401425719261,4500.0,0.389550298452,0.0320700034499,-0.01187543571,53.4394645691,0.0,6000.0,0.000936893804464,-0.00551023660228,0.0,0.0,0.349065840244,0.0240919683129,-0.0147926425561,0.296907097101,-0.00810070149601,-0.00810070149601,-0.00803248770535,0.0638429373503,151.785903931,151.785903931,-52.5637893677,-0.103326387703,1991,1996,2597,2045,2045,2949,3412,3416,3245,3356,3082,2993,3121,3097,3206,2788,3386,3402,3232,3352,3118,3330,3370,3176
1508409882148127135,155,1508409882147718899,plot_matl,0.25,-500.0,0.127352163196,-0.00650256732479,-0.122647844255,-62.9101448059,0.349065840244,0.0404844395816,0.000936893804464,0.127357125282,0.016035001725,0.016035001725,-0.00551023660228,-0.00659808283672,-1.54024934769,-1.54024934769,-1.92724406719,103.475456238,1992,2030,2112,2029,2029,2657,3301,3329,3131,3284,2996,2955,3039,3076,3157,2941,3387,3380,3221,3280,2935,3270,3302,3019,0.009981762,1.550006217,1.54717311,0.401425719261,4500.0,0.386851340532,-0.0213441904634,-0.014574399218,65.5847930908,0.0,6000.0,0.000958637567237,0.00747293280438,0.0,0.0,0.349065840244,0.0265011657029,-0.0147895952687,0.29685780406,0.0173801090568,0.0173801090568,0.00721640465781,0.00302338670008,151.990066528,151.990066528,-52.6945381165,-0.136797621846,2001,2001,2597,2044,2044,2953,3416,3415,3245,3356,3082,2993,3121,3097,3206,2788,3386,3402,3232,3352,3120,3329,3371,3179
1508409882158191602,156,1508409882157733767,plot_matl,0.25,-500.0,0.12740573287,-0.00759779196233,-0.12259427458,-63.1207542419,0.349065840244,0.0404844395816,0.000936893804464,0.127357125282,0.016035001725,0.016035001725,-0.00551023660228,-0.00659808283672,-1.54024934769,-1.54024934769,-1.92724406719,103.475456238,1994,2033,2112,2029,2029,2657,3301,3329,3132,3281,2995,2952,3036,3073,3155,2936,3385,3380,3221,3280,2935,3270,3302,3019,0.010016161,1.560021967,1.562521116,0.401425719261,4500.0,0.388200819492,0.0058371629566,-0.013224917464,59.5121307373,0.0,6000.0,0.000963133585174,-0.00605439208448,0.0,0.0,0.349065840244,0.0265011657029,-0.0147895952687,0.29685780406,0.0173801090568,0.0173801090568,0.00721640465781,0.00302338670008,151.990066528,151.990066528,-52.6945381165,-0.136797621846,1994,2000,2597,2044,2044,2953,3416,3415,3245,3353,3079,2993,3117,3094,3205,2786,3386,3396,3232,3352,3120,3329,3371,3179
1508409882168134815,157,1508409882167722220,plot_matl,0.25,-500.0,0.12739393115,0.0134908575565,-0.1226060763,-58.0950088501,0.349065840244,0.0404844395816,0.000936893804464,0.127357125282,0.016035001725,0.016035001725,-0.00551023660228,-0.00659808283672,-1.54024934769,-1.54024934769,-1.92724406719,103.475456238,2007,2055,2113,2027,2027,2659,3301,3329,3132,3281,2995,2952,3036,3073,3155,2936,3385,3380,3220,3277,2933,3271,3301,3021,0.009987124,1.570009768,1.567978468,0.401425719261,4500.0,0.386851340532,-0.0210405439138,-0.014574399218,65.5847930908,0.0,6000.0,0.000934374460485,-0.00546728027984,0.0,0.0,0.349065840244,0.0265011657029,-0.0147895952687,0.29685780406,0.0173801090568,0.0173801090568,0.00721640465781,0.00302338670008,151.990066528,151.990066528,-52.6945381165,-0.136797621846,2010,2017,2598,2044,2044,2953,3416,3415,3245,3353,3079,2993,3117,3094,3205,2786,3386,3396,3231,3351,3118,3330,3374,3177
1508409882178103423,158,1508409882177742344,plot_matl,0.25,-500.0,0.127422884107,0.012905090116,-0.122577115893,-58.2044563293,0.349065840244,0.0404844395816,0.000936893804464,0.127357125282,0.016035001725,0.016035001725,-0.00551023660228,-0.00659808283672,-1.54024934769,-1.54024934769,-1.92724406719,103.475456238,2003,2059,2113,2027,2027,2659,3302,3330,3133,3281,2993,2953,3034,3071,3154,2938,3385,3380,3220,3277,2933,3271,3301,3021,0.010019428,1.580029967,1.583069624,0.401425719261,4500.0,0.388200819492,0.0055294376798,-0.013224917464,59.5121307373,0.0,6000.0,0.000921999162529,-0.00521199125797,0.0,0.0,0.349065840244,0.0265011657029,-0.0147895952687,0.29685780406,0.0173801090568,0.0173801090568,0.00721640465781,0.00302338670008,151.990066528,151.990066528,-52.6945381165,-0.136797621846,2012,2023,2598,2044,2044,2953,3413,3415,3244,3352,3079,2992,3117,3093,3206,2785,3386,3396,3231,3351,3118,3330,3374,3177
1508409882188144104,159,1508409882187730827,plot_matl,0.25,-500.0,0.127464950085,0.0120506351814,-0.122535049915,-58.3989715576,0.349065840244,0.0391349606216,0.000921999162529,0.127422884107,0.0027647188399,0.0027647188399,-0.00521199125797,0.012905090116,-1.38499867916,-1.38499867916,-1.35660111904,103.846618652,2005,2076,2112,2027,2027,2659,3302,3330,3133,3281,2993,2953,3034,3071,3154,2938,3383,3377,3220,3277,2935,3268,3298,3020,0.009988603,1.590018766,1.588187877,0.401425719261,4500.0,0.388200819492,0.00455759372562,-0.013224917464,59.5121307373,0.0,6000.0,0.000947671127506,0.00769239664078,0.0,0.0,0.349065840244,0.0265011657029,-0.0148059120402,0.296655774117,0.0183757413179,0.0183757413179,0.00754786422476,0.0071568437852,151.764846802,151.764846802,-52.5495567322,-0.382108330727,2025,2036,2597,2042,2042,2953,3413,3415,3244,3352,3079,2992,3117,3093,3206,2785,3383,3398,3231,3352,3119,3329,3371,3178
1508409882198137358,160,1508409882197721485,plot_matl,0.25,-500.0,0.127482488751,0.0117012728006,-0.122517511249,-58.3217582703,0.349065840244,0.0391349606216,0.000921999162529,0.127422884107,0.0027647188399,0.0027647188399,-0.00521199125797,0.012905090116,-1.38499867916,-1.38499867916,-1.35660111904,103.846618652,2029,2074,2112,2027,2027,2658,3306,3331,3133,3281,2993,2951,3036,3073,3154,2938,3383,3377,3220,3277,2935,3268,3298,3020,0.00998955,1.600008882,1.598328,0.401425719261,4500.0,0.386851340532,-0.0224822033197,-0.014574399218,65.5847930908,0.0,6000.0,0.000919594604056,-0.00516404770315,0.0,0.0,0.349065840244,0.0265011657029,-0.0148059120402,0.296655774117,0.0183757413179,0.0183757413179,0.00754786422476,0.0071568437852,151.764846802,151.764846802,-52.5495567322,-0.382108330727,2032,2043,2597,2042,2042,2952,3415,3416,3244,3351,3079,2993,3118,3096,3206,2785,3383,3398,3231,3352,3119,3329,3371,3178
1508409882208130651,161,1508409882207731276,plot_matl,0.25,-500.0,0.127473726869,-0.00899263564497,-0.122526280582,-63.468334198,0.349065840244,0.0391349606216,0.000921999162529,0.127422884107,0.0027647188399,0.0027647188399,-0.00521199125797,0.012905090116,-1.38499867916,-1.38499867916,-1.35660111904,103.846618652,2027,2056,2112,2027,2027,2658,3306,3331,3133,3281,2993,2951,3036,3073,3153,2937,3384,3378,3222,3277,2935,3270,3302,3021,0.010010186,1.610019019,1.611639946,0.401425719261,4500.0,0.386851340532,-0.0194139163941,-0.014574399218,65.5847930908,0.0,6000.0,0.000908108660951,-0.00494063273072,0.0,0.0,0.349065840244,0.0265011657029,-0.0148059120402,0.296655774117,0.0183757413179,0.0183757413179,0.00754786422476,0.0071568437852,151.764846802,151.764846802,-52.5495567322,-0.382108330727,2029,2026,2597,2042,2042,2952,3415,3416,3244,3351,3079,2993,3118,3096,3204,2787,3386,3398,3233,3350,3119,3329,3372,3177
1508409882218058898,162,1508409882217731149,plot_matl,0.25,-500.0,0.12754149735,-0.0103840408847,-0.1224584952,-63.6560516357,0.349065840244,0.0391349606216,0.000921999162529,0.127422884107,0.0027647188399,0.0027647188399,-0.00521199125797,0.012905090116,-1.38499867916,-1.38499867916,-1.35660111904,103.846618652,2042,2065,2112,2025,2025,2654,3301,3329,3132,3281,2992,2952,3036,3073,3153,2937,3384,3378,3222,3277,2935,3270,3302,3021,0.009998997,1.620018707,1.619837514,0.401425719261,4500.0,0.388200819492,0.00736149167642,-0.013224917464,59.5121307373,0.0,6000.0,0.000948327069636,0.00767627265304,0.0,0.0,0.349065840244,0.0265011657029,-0.0148059120402,0.296655774117,0.0183757413179,0.0183757413179,0.00754786422476,0.0071568437852,151.764846802,151.764846802,-52.5495567322,-0.382108330727,2047,2041,2598,2046,2046,2952,3414,3415,3243,3352,3079,2993,3118,3096,3204,2787,3386,3398,3233,3350,3119,3329,3372,3177
1508409882228085607,163,1508409882227725481,plot_matl,0.25,-500.0,0.127560630441,-0.0107741905376,-0.122439369559,-63.9274177551,0.349065840244,0.0391349606216,0.000948327069636,0.12754149735,0.00368074583821,0.00368074583821,0.00767627265304,-0.0103840408847,-1.29087746143,-1.29087746143,-0.948623895645,103.239547729,2020,2039,2112,2025,2025,2654,3301,3329,3132,3281,2992,2952,3034,3073,3153,2940,3385,3380,3220,3278,2933,3268,3302,3021,0.009994291,1.630013304,1.629069433,0.401425719261,4500.0,0.388200819492,0.00598676782101,-0.013224917464,59.5121307373,0.0,6000.0,0.00089679309167,-0.00469966232777,0.0,0.0,0.349065840244,0.0265011657029,-0.014890271239,0.297028183937,0.0185617692769,0.0185617692769,0.00927921570837,-0.000192080391571,151.394790649,151.394790649,-52.6178436279,0.00364645733498,2017,2013,2598,2046,2046,2952,3414,3415,3243,3352,3079,2993,3118,3094,3205,2790,3385,3398,3232,3351,3117,3329,3372,3177
1508409882238176447,164,1508409882237733122,plot_matl,0.25,-500.0,0.127539202571,-0.0103515749797,-0.122460797429,-63.7318534851,0.349065840244,0.0391349606216,0.000948327069636,0.12754149735,0.00368074583821,0.00368074583821,0.00767627265304,-0.0103840408847,-1.29087746143,-1.29087746143,-0.948623895645,103.239547729,2021,2057,2112,2028,2028,2655,3301,3330,3130,3282,2992,2952,3034,3073,3153,2940,3385,3380,3220,3278,2933,3268,3300,3021,0.01000733,1.64002087,1.64120212,0.401425719261,4500.0,0.388200819492,0.00734378304332,-0.013224917464,59.5121307373,0.0,6000.0,0.000891473027878,-0.00459670461714,0.0,0.0,0.349065840244,0.0265011657029,-0.014890271239,0.297028183937,0.0185617692769,0.0185617692769,0.00927921570837,-0.000192080391571,151.394790649,151.394790649,-52.6178436279,0.00364645733498,2029,2030,2598,2043,2043,2950,3414,3414,3244,3352,3079,2993,3118,3094,3205,2790,3385,3398,3232,3351,3117,3329,3373,3178
1508409882248188222,165,1508409882247729427,plot_matl,0.25,-500.0,0.127503395081,-0.00962841603905,-0.122496597469,-63.5538063049,0.349065840244,0.0391349606216,0.000948327069636,0.12754149735,0.00368074583821,0.00368074583821,0.00767627265304,-0.0103840408847,-1.29087746143,-1.29087746143,-0.948623895645,103.239547729,2014,2047,2112,2028,2028,2655,3301,3330,3130,3282,2994,2953,3035,3071,3155,2938,3385,3378,3220,3278,2933,3268,3300,3021,0.00999639,1.650017486,1.64940435,0.401425719261,4500.0,0.386851340532,-0.0182390771806,-0.014574399218,65.5847930908,0.0,6000.0,0.000886346038897,-0.00449162814766,0.0,0.0,0.349065840244,0.0265011657029,-0.014890271239,0.297028183937,0.0185617692769,0.0185617692769,0.00927921570837,-0.000192080391571,151.394790649,151.394790649,-52.6178436279,0.00364645733498,2016,2018,2598,2043,2043,2950,3414,3414,3244,3352,3079,2991,3116,3094,3204,2789,3386,3399,3233,3351,3117,3329,3373,3178
1508409882258048029,166,1508409882257731576,plot_matl,0.25,-500.0,0.127509519458,0.0110825039446,-0.122490480542,-58.5781745911,0.349065840244,0.0391349606216,0.000948327069636,0.12754149735,0.00368074583821,0.00368074583821,0.00767627265304,-0.0103840408847,-1.29087746143,-1.29087746143,-0.948623895645,103.239547729,2010,2054,2112,2030,2030,2656,3303,3330,3130,3282,2994,2953,3035,3071,3155,2938,3385,3378,3220,3278,2936,3269,3300,3021,0.010001227,1.660019324,1.660203682,0.401425719261,4500.0,0.386851340532,-0.0164335779846,-0.014574399218,65.5847930908,0.0,6000.0,0.000918678706512,-0.00513681117445,0.0,0.0,0.349065840244,0.0265011657029,-0.014890271239,0.297028183937,0.0185617692769,0.0185617692769,0.00927921570837,-0.000192080391571,151.394790649,151.394790649,-52.6178436279,0.00364645733498,2013,2022,2599,2042,2042,2951,3415,3415,3244,3352,3079,2991,3116,3094,3204,2789,3386,3399,3233,3351,3120,3328,3372,3177
1508409882268257382,167,1508409882267795199,plot_matl,0.25,-500.0,0.127480626106,0.0116671770811,-0.122519373894,-58.5066261292,0.349065840244,0.0377854779363,0.000918678706512,0.127509519458,-0.00821678899229,-0.00821678899229,-0.00513681117445,0.0110825039446,-1.38273477554,-1.38273477554,-0.91508603096,103.694541931,2014,2055,2112,2030,2030,2656,3303,3330,3130,3282,2993,2951,3035,3072,3153,2938,3383,3378,3220,3278,2936,3269,3300,3021,0.010063718,1.670082719,1.680640906,0.401425719261,4500.0,0.389550298452,0.0351380072534,-0.01187543571,53.4394645691,0.0,6000.0,0.000920062710065,-0.00516919279471,0.0,0.0,0.349065840244,0.0240919683129,-0.0149436397478,0.297091633081,-0.00667201494798,-0.00667201494798,-0.00501593295485,0.0604070909321,151.678833008,151.678833008,-52.676864624,-0.34258428216,2021,2027,2599,2042,2042,2951,3415,3415,3243,3352,3080,2993,3117,3094,3204,2788,3386,3399,3233,3351,3120,3328,3372,3177
1508409882278108784,168,1508409882277781116,plot_matl,0.25,-500.0,0.12751121819,0.0110597414896,-0.12248878926,-58.4215126038,0.349065840244,0.0377854779363,0.000918678706512,0.127509519458,-0.00821678899229,-0.00821678899229,-0.00513681117445,0.0110825039446,-1.38273477554,-1.38273477554,-0.91508603096,103.694541931,2025,2047,2112,2030,2030,2657,3303,3330,3130,3282,2993,2951,3035,3072,3153,2938,3383,3378,3221,3279,2935,3269,3302,3019,0.009985577,1.680068924,1.677576936,0.401425719261,4500.0,0.386851340532,-0.0177943538874,-0.014574399218,65.5847930908,0.0,6000.0,0.000945375068113,0.00775530235842,0.0,0.0,0.349065840244,0.0240919683129,-0.0149436397478,0.297091633081,-0.00667201494798,-0.00667201494798,-0.00501593295485,0.0604070909321,151.678833008,151.678833008,-52.676864624,-0.34258428216,2028,2026,2598,2040,2040,2951,3415,3415,3243,3352,3080,2993,3117,3094,3204,2788,3386,3399,3233,3350,3119,3331,3372,3175
1508409882287983263,169,1508409882287719051,plot_matl,0.25,-500.0,0.127476677299,-0.0091061424464,-0.122523315251,-63.4289550781,0.349065840244,0.0377854779363,0.000918678706512,0.127509519458,-0.00821678899229,-0.00821678899229,-0.00513681117445,0.0110825039446,-1.38273477554,-1.38273477554,-0.91508603096,103.694541931,2014,2030,2112,2030,2030,2657,3301,3328,3132,3279,2994,2950,3036,3074,3152,2939,3383,3378,3221,3279,2935,3269,3302,3019,0.009936958,1.690006709,1.679345902,0.401425719261,4500.0,0.386851340532,-0.0180657524616,-0.014574399218,65.5847930908,0.0,6000.0,0.000919759157114,0.00826448854059,0.0,0.0,0.349065840244,0.0240919683129,-0.0149436397478,0.297091633081,-0.00667201494798,-0.00667201494798,-0.00501593295485,0.0604070909321,151.678833008,151.678833008,-52.676864624,-0.34258428216,2009,2007,2598,2040,2040,2951,3414,3413,3243,3351,3081,2991,3117,3094,3203,2786,3386,3399,3233,3350,3119,3331,3372,3175
1508409882298121736,170,1508409882297727327,plot_matl,0.25,-500.0,0.127473339438,0.0118516460061,-0.122526668012,-58.3229103088,0.349065840244,0.0377854779363,0.000918678706512,0.127509519458,-0.00821678899229,-0.00821678899229,-0.00513681117445,0.0110825039446,-1.38273477554,-1.38273477554,-0.91508603096,103.694541931,2038,2071,2112,2034,2034,2657,3301,3328,3132,3279,2994,2950,3036,3074,3152,2939,3382,3379,3220,3278,2937,3270,3301,3020,0.010008174,1.70001516,1.70138958,0.401425719261,4500.0,0.386851340532,-0.0178052634001,-0.014574399218,65.5847930908,0.0,6000.0,0.000898720580153,-0.00473385676742,0.0,0.0,0.349065840244,0.0240919683129,-0.0149436397478,0.297091633081,-0.00667201494798,-0.00667201494798,-0.00501593295485,0.0604070909321,151.678833008,151.678833008,-52.676864624,-0.34258428216,2041,2043,2599,2044,2044,2951,3414,3413,3243,3351,3081,2991,3117,3094,3203,2786,3384,3397,3232,3351,3119,3328,3370,3178
1508409882308178026,171,1508409882307766929,plot_matl,0.25,-500.0,0.12744808197,-0.00848950259387,-0.12255191803,-63.2105865479,0.349065840244,0.0377854779363,0.000898720580153,0.127473339438,-0.00890263170004,-0.00890263170004,-0.00473385676742,0.0118516460061,-1.50428760052,-1.50428760052,-1.02651453018,104.229316711,2012,2056,2112,2034,2034,2657,3301,3329,3131,3282,2994,2954,3037,3073,3152,2939,3382,3379,3220,3278,2937,3270,3301,3020,0.010039169,1.710054417,1.716697899,0.401425719261,4500.0,0.388200819492,0.00976471975446,-0.013224917464,59.5121307373,0.0,6000.0,0.000903902575374,-0.00485159223899,0.0,0.0,0.349065840244,0.0240919683129,-0.0150074418634,0.297109872103,-0.00549588678405,-0.00549588678405,-0.0037279096432,0.060006853193,151.812728882,151.812728882,-52.8853988647,-0.241991147399,2019,2026,2599,2044,2044,2951,3415,3416,3243,3353,3080,2992,3117,3095,3203,2786,3384,3397,3232,3351,3119,3328,3370,3178
1508409882318067195,172,1508409882317719043,plot_matl,0.25,-500.0,0.127465754747,-0.00885501783341,-0.122534245253,-63.4401893616,0.349065840244,0.0377854779363,0.000898720580153,0.127473339438,-0.00890263170004,-0.00890263170004,-0.00473385676742,0.0118516460061,-1.50428760052,-1.50428760052,-1.02651453018,104.229316711,2015,2070,2112,2034,2034,2657,3301,3329,3131,3282,2994,2954,3037,3073,3153,2937,3386,3378,3220,3278,2935,3271,3303,3018,0.009951052,1.72000611,1.711580944,0.401425719261,4500.0,0.388200819492,0.0104361884296,-0.013224917464,59.5121307373,0.0,6000.0,0.000908418209292,0.00848576612771,0.0,0.0,0.349065840244,0.0240919683129,-0.0150074418634,0.297109872103,-0.00549588678405,-0.00549588678405,-0.0037279096432,0.060006853193,151.812728882,151.812728882,-52.8853988647,-0.241991147399,2024,2035,2599,2044,2044,2951,3415,3416,3243,3353,3080,2992,3117,3095,3204,2788,3386,3398,3231,3351,3121,3331,3372,3177
1508409882328143437,173,1508409882327737276,plot_matl,0.25,-500.0,0.127421095967,-0.00797664187849,-0.122578911483,-63.1079216003,0.349065840244,0.0377854779363,0.000898720580153,0.127473339438,-0.00890263170004,-0.00890263170004,-0.00473385676742,0.0118516460061,-1.50428760052,-1.50428760052,-1.02651453018,104.229316711,2034,2089,2112,2032,2032,2656,3302,3328,3132,3282,2993,2952,3037,3073,3153,2937,3386,3378,3220,3278,2935,3271,3303,3018,0.010019605,1.730025466,1.733391665,0.401425719261,4500.0,0.388200819492,0.0123982718214,-0.013224917464,59.5121307373,0.0,6000.0,0.000888548966032,0.0088886031881,0.0,0.0,0.349065840244,0.0240919683129,-0.0150074418634,0.297109872103,-0.00549588678405,-0.00549588678405,-0.0037279096432,0.060006853193,151.812728882,151.812728882,-52.8853988647,-0.241991147399,2043,2059,2598,2044,2044,2953,3414,3415,3243,3354,3082,2991,3117,3095,3204,2788,3386,3398,3231,3351,3121,3331,3372,3177
1508409882338167395,174,1508409882337779341,plot_matl,0.25,-500.0,0.127425834537,0.0127929858863,-0.122574165463,-58.2105979919,0.349065840244,0.0377854779363,0.000898720580153,0.127473339438,-0.00890263170004,-0.00890263170004,-0.00473385676742,0.0118516460061,-1.50428760052,-1.50428760052,-1.02651453018,104.229316711,2035,2070,2112,2032,2032,2656,3302,3328,3132,3282,2993,2952,3034,3070,3154,2939,3383,3378,3219,3278,2934,3269,3303,3018,0.010041107,1.740067104,1.747152618,0.401425719261,4500.0,0.386851340532,-0.0141122089699,-0.014574399218,65.5847930908,0.0,6000.0,0.000873033073731,-0.0042190765962,0.0,0.0,0.349065840244,0.0240919683129,-0.0150074418634,0.297109872103,-0.00549588678405,-0.00549588678405,-0.0037279096432,0.060006853193,151.812728882,151.812728882,-52.8853988647,-0.241991147399,2037,2038,2598,2044,2044,2953,3414,3415,3243,3354,3082,2991,3116,3093,3204,2787,3384,3398,3233,3350,3120,3329,3372,3177
1508409882348287401,175,1508409882347798889,plot_matl,0.25,-500.0,0.127446234226,-0.00847908295691,-0.122553765774,-63.3052749634,0.349065840244,0.0377854779363,0.000873033073731,0.127425834537,-0.00705610448495,-0.00705610448495,-0.0042190765962,0.0127929858863,-1.64887714386,-1.64887714386,-0.776119589806,104.490692139,2043,2072,2112,2034,2034,2656,3303,3327,3133,3283,2993,2952,3034,3070,3154,2939,3383,3378,3219,3278,2934,3269,3301,3020,0.010020726,1.750086988,1.75362705,0.401425719261,4500.0,0.388200819492,0.0131998602301,-0.013224917464,59.5121307373,0.0,6000.0,0.000894937489647,0.00876327697188,0.0,0.0,0.349065840244,0.0240919683129,-0.0149687388912,0.297002106905,-0.00604594638571,-0.00604594638571,-0.00451953522861,0.00020976216183,152.074554443,152.074554443,-52.8882217407,-0.41960299015,2038,2041,2599,2040,2040,2951,3415,3416,3243,3354,3082,2991,3116,3093,3204,2787,3384,3398,3233,3350,3120,3329,3374,3177
1508409882358244999,176,1508409882357776312,plot_matl,0.25,-500.0,0.127428680658,-0.00810429267585,-0.122571326792,-63.2647819519,0.349065840244,0.0377854779363,0.000873033073731,0.127425834537,-0.00705610448495,-0.00705610448495,-0.0042190765962,0.0127929858863,-1.64887714386,-1.64887714386,-0.776119589806,104.490692139,2063,2079,2112,2034,2034,2656,3303,3327,3133,3283,2993,2953,3035,3070,3153,2938,3384,3377,3219,3279,2934,3269,3301,3020,0.009976896,1.76006432,1.755933696,0.401425719261,4500.0,0.386851340532,-0.0129762776196,-0.014574399218,65.5847930908,0.0,6000.0,0.000913179654162,-0.00503390422091,0.0,0.0,0.349065840244,0.0240919683129,-0.0149687388912,0.297002106905,-0.00604594638571,-0.00604594638571,-0.00451953522861,0.00020976216183,152.074554443,152.074554443,-52.8882217407,-0.41960299015,2054,2054,2599,2040,2040,2951,3415,3416,3243,3354,3081,2991,3117,3094,3204,2789,3385,3398,3230,3351,3120,3329,3374,3177
1508409882368185874,177,1508409882367735703,plot_matl,0.25,-500.0,0.127392187715,-0.00737475370988,-0.122607819736,-63.0729751587,0.349065840244,0.0377854779363,0.000873033073731,0.127425834537,-0.00705610448495,-0.00705610448495,-0.0042190765962,0.0127929858863,-1.64887714386,-1.64887714386,-0.776119589806,104.490692139,2044,2051,2111,2029,2029,2656,3302,3330,3133,3283,2993,2953,3035,3070,3153,2938,3384,3377,3219,3279,2934,3269,3299,3019,0.009958315,1.770024113,1.762621755,0.401425719261,4500.0,0.386851340532,-0.0140438852832,-0.014574399218,65.5847930908,0.0,6000.0,0.000914678210393,-0.00506231328472,0.0,0.0,0.349065840244,0.0240919683129,-0.0149687388912,0.297002106905,-0.00604594638571,-0.00604594638571,-0.00451953522861,0.00020976216183,152.074554443,152.074554443,-52.8882217407,-0.41960299015,2042,2033,2597,2039,2039,2951,3414,3415,3243,3354,3081,2991,3117,3094,3204,2789,3385,3398,3230,3351,3119,3329,3372,3176
1508409882378403676,178,1508409882377798820,plot_matl,0.25,-500.0,0.127378746867,-0.00711373053491,-0.122621253133,-63.1905937195,0.349065840244,0.0377854779363,0.000873033073731,0.127425834537,-0.00705610448495,-0.00705610448495,-0.0042190765962,0.0127929858863,-1.64887714386,-1.64887714386,-0.776119589806,104.490692139,2034,2059,2111,2029,2029,2656,3302,3330,3131,3281,2991,2953,3034,3071,3152,2938,3386,3378,3219,3279,2934,3269,3299,3019,0.010063477,1.780086954,1.791298906,0.401425719261,4500.0,0.386851340532,-0.0139935547486,-0.014574399218,65.5847930908,0.0,6000.0,0.000916713965125,-0.00508678285405,0.0,0.0,0.349065840244,0.0240919683129,-0.0149687388912,0.297002106905,-0.00604594638571,-0.00604594638571,-0.00451953522861,0.00020976216183,152.074554443,152.074554443,-52.8882217407,-0.41960299015,2036,2033,2597,2039,2039,2951,3414,3415,3243,3353,3080,2992,3116,3093,3205,2787,3385,3398,3230,3351,3119,3329,3372,3176
1508409882388408381,179,1508409882387802332,plot_matl,0.25,-500.0,0.127387940884,-0.00731943547726,-0.122612066567,-63.0933074951,0.349065840244,0.0377854779363,0.000916713965125,0.127378746867,-0.0069967773743,-0.0069967773743,-0.00508678285405,-0.00711373053491,-1.62284326553,-1.62284326553,-1.46954238415,104.689468384,2051,2071,2110,2029,2029,2655,3302,3330,3131,3281,2991,2953,3034,3071,3152,2938,3386,3378,3221,3276,2933,3270,3298,3022,0.010003121,1.790090461,1.790558659,0.401425719261,4500.0,0.386851340532,-0.0134686641395,-0.014574399218,65.5847930908,0.0,6000.0,0.000931199232582,0.00801930669695,0.0,0.0,0.349065840244,0.0240919683129,-0.0149362189695,0.296864688396,-0.0058431327343,-0.0058431327343,-0.00516042392701,0.00298689166084,152.083572388,152.083572388,-52.6288604736,-0.505809724331,2045,2043,2597,2040,2040,2950,3414,3415,3243,3353,3080,2992,3116,3093,3205,2787,3385,3398,3233,3350,3119,3327,3371,3176
1508409882398172650,180,1508409882397752428,plot_matl,0.25,-500.0,0.127377867699,-0.00715114362538,-0.122622139752,-62.9043197632,0.349065840244,0.0377854779363,0.000916713965125,0.127378746867,-0.0069967773743,-0.0069967773743,-0.00508678285405,-0.00711373053491,-1.62284326553,-1.62284326553,-1.46954238415,104.689468384,2026,2053,2110,2029,2029,2655,3301,3329,3129,3282,2992,2953,3037,3069,3153,2937,3386,3378,3221,3276,2933,3270,3298,3022,0.009948071,1.800040196,1.79065278,0.401425719261,4500.0,0.388200819492,0.0131972869858,-0.013224917464,59.5121307373,0.0,6000.0,0.000932653900236,-0.00541303120553,0.0,0.0,0.349065840244,0.0240919683129,-0.0149362189695,0.296864688396,-0.0058431327343,-0.0058431327343,-0.00516042392701,0.00298689166084,152.083572388,152.083572388,-52.6288604736,-0.505809724331,2029,2022,2597,2040,2040,2950,3415,3414,3244,3353,3082,2993,3116,3094,3203,2788,3385,3398,3233,3350,3119,3327,3371,3176
1508409882408138031,181,1508409882407746639,plot_matl,0.25,-500.0,0.127313956618,-0.00584900239483,-0.122686035931,-62.7808380127,0.349065840244,0.0377854779363,0.000916713965125,0.127378746867,-0.0069967773743,-0.0069967773743,-0.00508678285405,-0.00711373053491,-1.62284326553,-1.62284326553,-1.46954238415,104.689468384,2035,2065,2110,2031,2031,2655,3301,3329,3129,3282,2992,2953,3037,3069,3153,2937,3384,3380,3219,3277,2934,3270,3299,3021,0.009994977,1.810035133,1.809090837,0.401425719261,4500.0,0.388200819492,0.013672772795,-0.013224917464,59.5121307373,0.0,6000.0,0.000920797407161,0.00824681762606,0.0,0.0,0.349065840244,0.0240919683129,-0.0149362189695,0.296864688396,-0.0058431327343,-0.0058431327343,-0.00516042392701,0.00298689166084,152.083572388,152.083572388,-52.6288604736,-0.505809724331,2036,2027,2597,2043,2043,2950,3415,3414,3244,3353,3082,2993,3116,3094,3203,2788,3383,3398,3232,3350,3118,3329,3371,3178
1508409882418325921,182,1508409882417772366,plot_matl,0.25,-500.0,0.127297177911,-0.00550517160445,-0.122702822089,-62.61145401,0.349065840244,0.0377854779363,0.000916713965125,0.127378746867,-0.0069967773743,-0.0069967773743,-0.00508678285405,-0.00711373053491,-1.62284326553,-1.62284326553,-1.46954238415,104.689468384,2040,2062,2110,2031,2031,2654,3302,3326,3129,3280,2993,2954,3034,3071,3153,2937,3384,3380,3219,3277,2934,3270,3299,3021,0.010026223,1.820060605,1.824772586,0.401425719261,4500.0,0.386851340532,-0.0154489250854,-0.014574399218,65.5847930908,0.0,6000.0,0.000924925494473,-0.005252125673,0.0,0.0,0.349065840244,0.0240919683129,-0.0149362189695,0.296864688396,-0.0058431327343,-0.0058431327343,-0.00516042392701,0.00298689166084,152.083572388,152.083572388,-52.6288604736,-0.505809724331,2036,2032,2597,2043,2043,2951,3413,3414,3243,3352,3079,2991,3116,3094,3203,2788,3383,3398,3232,3350,3118,3329,3371,3178
1508409882427913012,183,1508409882427718148,plot_matl,0.25,-500.0,0.127278402448,0.0156627558172,-0.122721605003,-57.6070137024,0.349065840244,0.0377854779363,0.000924925494473,0.127297177911,-0.00772446254268,-0.00772446254268,-0.005252125673,-0.00550517160445,-1.79752981663,-1.79752981663,-1.91290616989,104.770462036,2044,2074,2110,2031,2031,2654,3302,3326,3129,3280,2993,2954,3034,3071,3153,2939,3382,3378,3221,3277,2934,3268,3298,3018,0.009943008,1.830005579,1.819570464,0.401425719261,4500.0,0.388200819492,0.0113048674539,-0.013224917464,59.5121307373,0.0,6000.0,0.00090170832118,-0.00479008024558,0.0,0.0,0.349065840244,0.0265011657029,-0.0148918163031,0.296938151121,0.0153389908373,0.0153389908373,0.00925211142749,0.00135641882662,151.767425537,151.767425537,-52.5541152954,-0.218188628554,2049,2045,2597,2043,2043,2951,3413,3414,3243,3352,3079,2991,3116,3094,3205,2788,3386,3398,3232,3349,3119,3331,3372,3180
1508409882437909685,184,1508409882437720992,plot_matl,0.25,-500.0,0.12727124989,-0.00501824077219,-0.12272875011,-62.5334739685,0.349065840244,0.0377854779363,0.000924925494473,0.127297177911,-0.00772446254268,-0.00772446254268,-0.005252125673,-0.00550517160445,-1.79752981663,-1.79752981663,-1.91290616989,104.770462036,2024,2048,2111,2030,2030,2655,3303,3328,3128,3279,2994,2953,3034,3071,3153,2939,3382,3378,3221,3277,2934,3268,3298,3018,0.010002879,1.840008474,1.840529736,0.401425719261,4500.0,0.388200819492,0.0117021463811,-0.013224917464,59.5121307373,0.0,6000.0,0.000895131961443,0.00875351391733,0.0,0.0,0.349065840244,0.0265011657029,-0.0148918163031,0.296938151121,0.0153389908373,0.0153389908373,0.00925211142749,0.00135641882662,151.767425537,151.767425537,-52.5541152954,-0.218188628554,2024,2028,2597,2043,2043,2950,3413,3414,3243,3352,3081,2992,3116,3094,3205,2788,3386,3398,3232,3349,3119,3331,3372,3180
1508409882447957140,185,1508409882447716930,plot_matl,0.25,-500.0,0.127281889319,-0.00522186141461,-0.122718110681,-62.5915641785,0.349065840244,0.0377854779363,0.000924925494473,0.127297177911,-0.00772446254268,-0.00772446254268,-0.005252125673,-0.00550517160445,-1.79752981663,-1.79752981663,-1.91290616989,104.770462036,2047,2089,2111,2030,2030,2655,3303,3328,3128,3279,2994,2953,3036,3072,3154,2937,3385,3379,3221,3277,2933,3270,3298,3018,0.009995121,1.850004136,1.849097385,0.401425719261,4500.0,0.386851340532,-0.0166380517185,-0.014574399218,65.5847930908,0.0,6000.0,0.000890715688001,0.00884464662522,0.0,0.0,0.349065840244,0.0265011657029,-0.0148918163031,0.296938151121,0.0153389908373,0.0153389908373,0.00925211142749,0.00135641882662,151.767425537,151.767425537,-52.5541152954,-0.218188628554,2049,2056,2597,2043,2043,2950,3413,3414,3243,3352,3081,2992,3117,3096,3205,2787,3387,3399,3233,3352,3117,3330,3372,3180
1508409882458152288,186,1508409882457758565,plot_matl,0.25,-500.0,0.127309456468,-0.00578375020996,-0.122690543532,-62.6958694458,0.349065840244,0.0377854779363,0.000924925494473,0.127297177911,-0.00772446254268,-0.00772446254268,-0.005252125673,-0.00550517160445,-1.79752981663,-1.79752981663,-1.91290616989,104.770462036,2055,2088,2110,2032,2032,2654,3301,3330,3128,3280,2994,2953,3036,3072,3154,2937,3385,3379,3221,3277,2933,3270,3298,3019,0.010042449,1.860046464,1.867895514,0.401425719261,4500.0,0.388200819492,0.0102290613577,-0.013224917464,59.5121307373,0.0,6000.0,0.000898134429008,-0.00470905471593,0.0,0.0,0.349065840244,0.0265011657029,-0.0148918163031,0.296938151121,0.0153389908373,0.0153389908373,0.00925211142749,0.00135641882662,151.767425537,151.767425537,-52.5541152954,-0.218188628554,2056,2055,2597,2043,2043,2950,3414,3413,3242,3354,3081,2992,3117,3096,3205,2787,3387,3399,3233,3352,3117,3330,3370,3176
1508409882468217951,187,1508409882467758639,plot_matl,0.25,-500.0,0.127336099744,0.0145519347861,-0.122663900256,-57.7776870728,0.349065840244,0.0377854779363,0.000890715688001,0.127281889319,-0.00831902585924,-0.00831902585924,0.00884464662522,-0.00522186141461,-1.93230509758,-1.93230509758,-1.61953496933,104.423667908,2014,2058,2110,2032,2032,2654,3301,3330,3128,3280,2994,2952,3033,3071,3153,2938,3384,3380,3219,3279,2933,3270,3298,3019,0.010000545,1.870046683,1.870101915,0.401425719261,4500.0,0.386851340532,-0.0168455280364,-0.014574399218,65.5847930908,0.0,6000.0,0.000890487513971,-0.00455394480377,0.0,0.0,0.349065840244,0.0265011657029,-0.0148606589064,0.296679198742,0.0164179503918,0.0164179503918,-0.00679104635492,-0.0551763102412,152.090942383,152.090942383,-52.4738426208,-0.315986901522,2026,2030,2597,2043,2043,2950,3414,3413,3242,3354,3079,2991,3116,3093,3204,2788,3385,3397,3230,3350,3117,3330,3370,3176
1508409882478015260,188,1508409882477718803,plot_matl,0.25,-500.0,0.127358108759,-0.00674773706123,-0.122641891241,-62.8117637634,0.349065840244,0.0377854779363,0.000890715688001,0.127281889319,-0.00831902585924,-0.00831902585924,0.00884464662522,-0.00522186141461,-1.93230509758,-1.93230509758,-1.61953496933,104.423667908,2041,2059,2109,2029,2029,2654,3301,3329,3128,3280,2994,2952,3033,3071,3153,2938,3384,3380,3219,3279,2934,3269,3299,3019,0.00995833,1.880006023,1.87216604,0.401425719261,4500.0,0.388200819492,0.0109747257084,-0.013224917464,59.5121307373,0.0,6000.0,0.000862812215928,-0.00399759598076,0.0,0.0,0.349065840244,0.0265011657029,-0.0148606589064,0.296679198742,0.0164179503918,0.0164179503918,-0.00679104635492,-0.0551763102412,152.090942383,152.090942383,-52.4738426208,-0.315986901522,2045,2041,2597,2046,2046,2949,3414,3417,3242,3354,3079,2991,3116,3093,3204,2788,3385,3397,3230,3350,3118,3328,3372,3177
1508409882487978384,189,1508409882487740666,plot_matl,0.25,-500.0,0.127356648445,0.0141662815586,-0.122643351555,-57.7303504944,0.349065840244,0.0377854779363,0.000890715688001,0.127281889319,-0.00831902585924,-0.00831902585924,0.00884464662522,-0.00522186141461,-1.93230509758,-1.93230509758,-1.61953496933,104.423667908,2036,2062,2109,2029,2029,2654,3301,3329,3130,3281,2992,2953,3035,3072,3152,2938,3384,3379,3219,3279,2934,3269,3299,3019,0.010022229,1.890028525,1.894201281,0.401425719261,4500.0,0.388200819492,0.0109528908506,-0.013224917464,59.5121307373,0.0,6000.0,0.000897236343008,-0.00469671143219,0.0,0.0,0.349065840244,0.0265011657029,-0.0148606589064,0.296679198742,0.0164179503918,0.0164179503918,-0.00679104635492,-0.0551763102412,152.090942383,152.090942383,-52.4738426208,-0.315986901522,2043,2038,2597,2046,2046,2949,3414,3417,3244,3351,3079,2993,3118,3095,3205,2786,3383,3398,3230,3350,3118,3328,3372,3177
1508409882498114257,190,1508409882497742940,plot_matl,0.25,-500.0,0.127335682511,-0.00626873318106,-0.122664317489,-62.8109893799,0.349065840244,0.0391349606216,0.000898134429008,0.127309456468,0.00511453067884,0.00511453067884,-0.00470905471593,-0.00578375020996,-1.76005077362,-1.76005077362,-1.67088210583,104.088691711,1992,2028,2109,2025,2025,2654,3301,3329,3130,3281,2992,2953,3035,3072,3152,2938,3384,3379,3220,3278,2932,3270,3299,3019,0.010002886,1.90003141,1.90054834,0.401425719261,4500.0,0.386851340532,-0.0163341872394,-0.014574399218,65.5847930908,0.0,6000.0,0.000891022849828,0.0088456440717,0.0,0.0,0.349065840244,0.0240919683129,-0.0148652717471,0.296846538782,-0.0073548364453,-0.0073548364453,-0.00665740389377,0.00325779686682,152.067123413,152.067123413,-52.6187477112,-0.290860772133,2003,2005,2597,2044,2044,2949,3414,3417,3244,3351,3079,2993,3118,3095,3205,2786,3383,3398,3230,3350,3121,3327,3370,3179
1508409882508312836,191,1508409882507794310,plot_matl,0.25,-500.0,0.127353444695,-0.00660823844373,-0.122646562755,-62.9912796021,0.349065840244,0.0391349606216,0.000898134429008,0.127309456468,0.00511453067884,0.00511453067884,-0.00470905471593,-0.00578375020996,-1.76005077362,-1.76005077362,-1.67088210583,104.088691711,1999,2043,2109,2025,2025,2654,3301,3326,3128,3281,2992,2952,3036,3074,3153,2938,3384,3379,3220,3278,2932,3270,3299,3019,0.010051515,1.910082595,1.919839365,0.401425719261,4500.0,0.386851340532,-0.015762059018,-0.014574399218,65.5847930908,0.0,6000.0,0.00089640088845,-0.00468916771933,0.0,0.0,0.349065840244,0.0240919683129,-0.0148652717471,0.296846538782,-0.0073548364453,-0.0073548364453,-0.00665740389377,0.00325779686682,152.067123413,152.067123413,-52.6187477112,-0.290860772133,2013,2013,2597,2044,2044,2949,3413,3417,3244,3354,3080,2993,3117,3094,3205,2789,3383,3398,3230,3350,3121,3327,3370,3179
1508409882517947998,192,1508409882517725350,plot_matl,0.25,-500.0,0.127373129129,-0.00698177563027,-0.12262686342,-62.9276161194,0.349065840244,0.0391349606216,0.000898134429008,0.127309456468,0.00511453067884,0.00511453067884,-0.00470905471593,-0.00578375020996,-1.76005077362,-1.76005077362,-1.67088210583,104.088691711,2002,2038,2110,2025,2025,2654,3301,3326,3128,3281,2992,2952,3036,3074,3153,2938,3386,3376,3218,3276,2933,3269,3301,3017,0.009928401,1.920012497,1.906252992,0.401425719261,4500.0,0.386851340532,-0.0158373583108,-0.014574399218,65.5847930908,0.0,6000.0,0.00092713261256,0.00813695136458,0.0,0.0,0.349065840244,0.0240919683129,-0.0148652717471,0.296846538782,-0.0073548364453,-0.0073548364453,-0.00665740389377,0.00325779686682,152.067123413,152.067123413,-52.6187477112,-0.290860772133,2015,2015,2597,2043,2043,2949,3413,3417,3244,3354,3080,2993,3117,3094,3205,2789,3384,3397,3231,3349,3120,3326,3370,3177
1508409882528127880,193,1508409882527742180,plot_matl,0.25,-500.0,0.127403661609,-0.00758884148672,-0.122596330941,-63.1967849731,0.349065840244,0.0391349606216,0.000898134429008,0.127309456468,0.00511453067884,0.00511453067884,-0.00470905471593,-0.00578375020996,-1.76005077362,-1.76005077362,-1.67088210583,104.088691711,1975,2007,2110,2025,2025,2653,3302,3329,3131,3281,2993,2954,3036,3073,3153,2938,3386,3376,3218,3276,2933,3269,3301,3017,0.010018452,1.93003052,1.933561236,0.401425719261,4500.0,0.386851340532,-0.0154296411201,-0.014574399218,65.5847930908,0.0,6000.0,0.000891678442713,-0.00457461923361,0.0,0.0,0.349065840244,0.0240919683129,-0.0148652717471,0.296846538782,-0.0073548364453,-0.0073548364453,-0.00665740389377,0.00325779686682,152.067123413,152.067123413,-52.6187477112,-0.290860772133,1990,1984,2597,2043,2043,2950,3413,3416,3242,3354,3081,2993,3117,3095,3205,2789,3384,3397,3231,3349,3120,3326,3370,3177
1508409882538376597,194,1508409882537798923,plot_matl,0.25,-500.0,0.127412319183,-0.00776484468952,-0.122587680817,-63.1716995239,0.349065840244,0.0377854779363,0.000891022849828,0.127335682511,-0.0081670936197,-0.0081670936197,0.0088456440717,-0.00626873318106,-1.54491198063,-1.54491198063,-1.73816132545,104.138122559,2010,2030,2110,2025,2025,2653,3302,3329,3131,3281,2993,2954,3036,3073,3154,2938,3383,3379,3221,3277,2933,3269,3300,3020,0.010056983,1.940087057,1.951054702,0.401425719261,4500.0,0.386851340532,-0.0150884520262,-0.014574399218,65.5847930908,0.0,6000.0,0.000888910493813,0.00890238396823,0.0,0.0,0.349065840244,0.0265011657029,-0.0148908654228,0.29662412405,0.0158842876554,0.0158842876554,-0.00609714118764,-0.0541170723736,151.954589844,151.954589844,-52.7147216797,-0.161230549216,2019,2010,2597,2043,2043,2950,3413,3416,3242,3354,3081,2993,3117,3095,3205,2787,3385,3400,3230,3350,3119,3330,3373,3177
1508409882548136602,195,1508409882547759903,plot_matl,0.25,-500.0,0.127398818731,-0.00745520135388,-0.122601173818,-63.1291809082,0.349065840244,0.0377854779363,0.000891022849828,0.127335682511,-0.0081670936197,-0.0081670936197,0.0088456440717,-0.00626873318106,-1.54491198063,-1.54491198063,-1.73816132545,104.138122559,2013,2042,2110,2030,2030,2656,3301,3331,3131,3281,2995,2951,3036,3073,3154,2938,3383,3379,3221,3277,2933,3269,3300,3020,0.009958951,1.950047646,1.941995445,0.401425719261,4500.0,0.386851340532,-0.014700726606,-0.014574399218,65.5847930908,0.0,6000.0,0.000895820208825,-0.00465291412547,0.0,0.0,0.349065840244,0.0265011657029,-0.0148908654228,0.29662412405,0.0158842876554,0.0158842876554,-0.00609714118764,-0.0541170723736,151.954589844,151.954589844,-52.7147216797,-0.161230549216,2022,2017,2597,2041,2041,2953,3415,3416,3244,3351,3078,2992,3117,3095,3205,2787,3385,3400,3230,3350,3119,3330,3373,3177
1508409882558319050,196,1508409882557758163,plot_matl,0.25,-500.0,0.127479895949,0.011753055267,-0.122520111501,-58.4493408203,0.349065840244,0.0377854779363,0.000891022849828,0.127335682511,-0.0081670936197,-0.0081670936197,0.0088456440717,-0.00626873318106,-1.54491198063,-1.54491198063,-1.73816132545,104.138122559,2001,2030,2110,2030,2030,2656,3301,3331,3131,3281,2995,2951,3034,3071,3153,2938,3384,3376,3219,3277,2933,3269,3300,3020,0.010000075,1.960046533,1.9600147,0.401425719261,4500.0,0.388200819492,0.0127370813861,-0.013224917464,59.5121307373,0.0,6000.0,0.000902759376913,0.00862336531281,0.0,0.0,0.349065840244,0.0265011657029,-0.0148908654228,0.29662412405,0.0158842876554,0.0158842876554,-0.00609714118764,-0.0541170723736,151.954589844,151.954589844,-52.7147216797,-0.161230549216,2009,2008,2597,2041,2041,2953,3415,3416,3244,3351,3078,2992,3116,3095,3206,2787,3385,3396,3231,3350,3117,3328,3373,3177
