%time,field.header.seq,field.header.stamp,field.header.frame_id,field.FFJ4_set_point,field.FFJ4_position_gain,field.FFJ4_process_value,field.FFJ4_process_value_dot,field.FFJ4_error,field.FFJ4_command,field.FFJ1,field.FFJ2,field.FFJ3,field.FFJ4,field.FFJ1_dot,field.FFJ2_dot,field.FFJ3_dot,field.FFJ4_dot,field.FFJ1_tao,field.FFJ2_tao,field.FFJ3_tao,field.FFJ4_tao,field.pac0,field.pac1,field.pdc0,field.tac0,field.tdc0,field.el0,field.el1,field.el2,field.el3,field.el4,field.el5,field.el6,field.el7,field.el8,field.el9,field.el10,field.el11,field.el12,field.el13,field.el14,field.el15,field.el16,field.el17,field.el18,field.dt,field.time,field.test_time2,field.FFJ0_set_point,field.FFJ0_position_gain,field.FFJ0_process_value,field.FFJ0_process_value_dot,field.FFJ0_error,field.FFJ0_command,field.FFJ3_set_point,field.FFJ3_position_gain,field.FFJ3_process_value,field.FFJ3_process_value_dot,field.FFJ3_error,field.FFJ3_command,field.MFJ1,field.MFJ2,field.MFJ3,field.MFJ4,field.MFJ1_dot,field.MFJ2_dot,field.MFJ3_dot,field.MFJ4_dot,field.MFJ1_tao,field.MFJ2_tao,field.MFJ3_tao,field.MFJ4_tao,field.Mpac0,field.Mpac1,field.Mpdc0,field.Mtac0,field.Mtdc0,field.Mel0,field.Mel1,field.Mel2,field.Mel3,field.Mel4,field.Mel5,field.Mel6,field.Mel7,field.Mel8,field.Mel9,field.Mel10,field.Mel11,field.Mel12,field.Mel13,field.Mel14,field.Mel15,field.Mel16,field.Mel17,field.Mel18
1508409647769983552,163,1508409647769771474,plot_matl,0.25,-2000.0,0.21563398838,0.00384272215888,-0.0343660190701,-67.8679885864,0.349065840244,0.0269896276295,0.00572912581265,0.215681821108,0.000502239679918,0.000502239679918,0.0049946452491,0.00288838520646,-76.4361114502,-76.4361114502,-0.0255037583411,95.8686828613,2023,2052,2107,2032,2032,2676,3307,3336,3135,3285,2998,2956,3039,3071,3156,2926,3383,3378,3218,3277,2934,3272,3302,3021,0.009998539,1.629891283,1.629761857,0.401425719261,4500.0,0.37470600009,-0.0289033912122,-0.02671973221,120.238792419,0.0,6000.0,0.0057570412755,0.00449587730691,0.0,0.0,0.349065840244,0.0216827709228,-0.0139338327572,0.298327684402,-0.00979572348297,-0.00979572348297,-0.0100920209661,-0.0274068973958,152.05039978,152.05039978,-53.771232605,0.292567551136,2023,2028,2596,2042,2042,2965,3422,3420,3252,3357,3090,2997,3122,3098,3209,2779,3384,3400,3233,3352,3121,3333,3378,3181
1508409647779904530,164,1508409647779772032,plot_matl,0.25,-2000.0,0.215665072203,-0.0347183421254,-0.034334924072,-77.3030853271,0.349065840244,0.0269896276295,0.00572912581265,0.215681821108,0.000502239679918,0.000502239679918,0.0049946452491,0.00288838520646,-76.4361114502,-76.4361114502,-0.0255037583411,95.8686828613,2021,2039,2107,2032,2032,2676,3307,3332,3137,3284,2996,2955,3040,3072,3156,2926,3383,3378,3218,3277,2934,3272,3302,3021,0.01000075,1.63989211,1.640123,0.401425719261,4500.0,0.37605547905,-0.0012995514553,-0.0253702495247,114.166122437,0.0,6000.0,0.00574741605669,-0.00874937605113,0.0,0.0,0.349065840244,0.0216827709228,-0.0139338327572,0.298327684402,-0.00979572348297,-0.00979572348297,-0.0100920209661,-0.0274068973958,152.05039978,152.05039978,-53.771232605,0.292567551136,2029,2027,2596,2042,2042,2963,3419,3421,3252,3359,3089,2995,3122,3094,3209,2779,3384,3400,3233,3352,3121,3333,3378,3181
1508409647789904486,165,1508409647789773464,plot_matl,0.25,-2000.0,0.215660512447,0.00330284610391,-0.0343394912779,-67.903465271,0.349065840244,0.0269896276295,0.00572912581265,0.215681821108,0.000502239679918,0.000502239679918,0.0049946452491,0.00288838520646,-76.4361114502,-76.4361114502,-0.0255037583411,95.8686828613,2025,2043,2107,2032,2032,2676,3307,3332,3137,3284,2996,2955,3040,3072,3155,2928,3382,3378,3219,3277,2934,3272,3302,3022,0.010001347,1.649893468,1.650222255,0.401425719261,4500.0,0.37605547905,-0.00106513011269,-0.0253702495247,114.166122437,0.0,6000.0,0.00575267709792,0.00455188844353,0.0,0.0,0.349065840244,0.0216827709228,-0.0139338327572,0.298327684402,-0.00979572348297,-0.00979572348297,-0.0100920209661,-0.0274068973958,152.05039978,152.05039978,-53.771232605,0.292567551136,2034,2025,2596,2042,2042,2963,3419,3421,3252,3359,3089,2995,3122,3094,3207,2782,3386,3399,3232,3353,3119,3335,3377,3184
1508409647799914108,166,1508409647799772383,plot_matl,0.25,-2000.0,0.21565759182,0.00333962123841,-0.0343424007297,-67.8976287842,0.349065840244,0.0269896276295,0.00576573750004,0.215654313564,-0.000938083278015,-0.000938083278015,0.00429089972749,0.00340695120394,-76.7832260132,-76.7832260132,0.131906047463,95.8048248291,2002,2031,2107,2029,2029,2673,3307,3331,3136,3285,2996,2957,3040,3072,3155,2928,3382,3378,3219,3277,2934,3272,3302,3022,0.00999886,1.659892322,1.65981076,0.401425719261,4500.0,0.37470600009,-0.0285611376166,-0.02671973221,120.238792419,0.0,6000.0,0.00575684383512,-0.00895145628601,0.0,0.0,0.349065840244,0.0240919683129,-0.0138513557613,0.298521488905,0.0141924908385,0.0141924908385,0.00361194671132,-0.0306649245322,152.692108154,152.692108154,-53.8383255005,0.202925816178,2006,2003,2595,2043,2043,2962,3420,3420,3252,3360,3090,2995,3122,3094,3207,2782,3386,3399,3232,3353,3119,3335,3377,3184
1508409647809893983,167,1508409647809773194,plot_matl,0.25,-2000.0,0.215547889471,0.00552040245384,-0.0344521105289,-67.5862045288,0.349065840244,0.0269896276295,0.00576573750004,0.215654313564,-0.000938083278015,-0.000938083278015,0.00429089972749,0.00340695120394,-76.7832260132,-76.7832260132,0.131906047463,95.8048248291,1993,2040,2107,2029,2029,2673,3307,3331,3136,3285,2996,2957,3040,3071,3155,2926,3384,3377,3218,3278,2934,3271,3302,3022,0.010000961,1.669893364,1.670160487,0.401425719261,4500.0,0.37605547905,-0.000110733679321,-0.0253702495247,114.166122437,0.0,6000.0,0.00573584623635,-0.00851396936923,0.0,0.0,0.349065840244,0.0240919683129,-0.0138513557613,0.298521488905,0.0141924908385,0.0141924908385,0.00361194671132,-0.0306649245322,152.692108154,152.692108154,-53.8383255005,0.202925816178,2007,2005,2595,2043,2043,2962,3420,3420,3252,3360,3090,2995,3121,3096,3207,2782,3388,3398,3233,3354,3123,3333,3377,3184
1508409647819939235,168,1508409647819778299,plot_matl,0.25,-2000.0,0.215564593673,0.00514479354024,-0.034435402602,-67.5759887695,0.349065840244,0.0269896276295,0.00576573750004,0.215654313564,-0.000938083278015,-0.000938083278015,0.00429089972749,0.00340695120394,-76.7832260132,-76.7832260132,0.131906047463,95.8048248291,2002,2050,2108,2027,2027,2674,3306,3332,3136,3285,2996,2957,3040,3071,3155,2926,3384,3377,3218,3278,2934,3271,3300,3019,0.010004627,1.679898138,1.680777336,0.401425719261,4500.0,0.37605547905,-0.000609346781857,-0.0253702495247,114.166122437,0.0,6000.0,0.00570760294795,0.00549359200522,0.0,0.0,0.349065840244,0.0240919683129,-0.0138513557613,0.298521488905,0.0141924908385,0.0141924908385,0.00361194671132,-0.0306649245322,152.692108154,152.692108154,-53.8383255005,0.202925816178,2014,2012,2596,2043,2043,2965,3419,3422,3252,3357,3090,2995,3121,3096,3207,2782,3388,3398,3233,3354,3123,3333,3377,3182
1508409647829958208,169,1508409647829773339,plot_matl,0.25,-2000.0,0.215508550406,0.00622810004279,-0.0344914458692,-67.4625320435,0.349065840244,0.0269896276295,0.00576573750004,0.215654313564,-0.000938083278015,-0.000938083278015,0.00429089972749,0.00340695120394,-76.7832260132,-76.7832260132,0.131906047463,95.8048248291,1994,2040,2108,2027,2027,2674,3306,3332,3136,3285,2995,2954,3039,3071,3155,2926,3383,3377,3217,3278,2934,3271,3300,3019,0.009994931,1.689893255,1.689143339,0.401425719261,4500.0,0.37605547905,-0.00196567038074,-0.0253702495247,114.166122437,0.0,6000.0,0.00570867676288,-0.00793615821749,0.0,0.0,0.349065840244,0.0240919683129,-0.0138513557613,0.298521488905,0.0141924908385,0.0141924908385,0.00361194671132,-0.0306649245322,152.692108154,152.692108154,-53.8383255005,0.202925816178,2003,2013,2596,2043,2043,2965,3419,3422,3252,3357,3088,2997,3123,3097,3208,2783,3387,3401,3233,3355,3123,3333,3377,3182
1508409647839970858,170,1508409647839772614,plot_matl,0.25,-2000.0,0.215468838811,0.00702876690775,-0.0345311686397,-67.3617935181,0.349065840244,0.0283391084522,0.00569237628952,0.215461745858,0.0135393412784,0.0135393412784,0.00581374485046,0.00717047369108,-76.2614974976,-76.2614974976,-0.0164115298539,95.016708374,2002,2040,2108,2028,2028,2674,3308,3334,3136,3285,2995,2954,3039,3071,3155,2926,3383,3377,3217,3278,2934,3273,3302,3022,0.00999932,1.699892681,1.6998844,0.401425719261,4500.0,0.37605547905,-0.000178509042598,-0.0253702495247,114.166122437,0.0,6000.0,0.00568493269384,-0.00745870638639,0.0,0.0,0.349065840244,0.0240919683129,-0.0138804847375,0.298214673996,0.0171900410205,0.0171900410205,0.00417945114896,-0.024340454489,152.361022949,152.361022949,-53.7228317261,0.187062710524,2015,2016,2597,2041,2041,2964,3419,3422,3252,3357,3088,2997,3123,3097,3208,2783,3387,3401,3233,3355,3122,3333,3375,3184
1508409647849924435,171,1508409647849772375,plot_matl,0.25,-2000.0,0.215533018112,0.0057405452244,-0.0344669744372,-67.5201950073,0.349065840244,0.0283391084522,0.00569237628952,0.215461745858,0.0135393412784,0.0135393412784,0.00581374485046,0.00717047369108,-76.2614974976,-76.2614974976,-0.0164115298539,95.016708374,2003,2047,2108,2028,2028,2674,3308,3334,3136,3286,2997,2955,3040,3072,3156,2926,3381,3376,3217,3278,2934,3273,3302,3022,0.009999889,1.709892491,1.709981019,0.401425719261,4500.0,0.37605547905,-0.000583268585615,-0.0253702495247,114.166122437,0.0,6000.0,0.00569131365046,0.00586854526773,0.0,0.0,0.349065840244,0.0240919683129,-0.0138804847375,0.298214673996,0.0171900410205,0.0171900410205,0.00417945114896,-0.024340454489,152.361022949,152.361022949,-53.7228317261,0.187062710524,2017,2018,2597,2041,2041,2964,3419,3422,3250,3357,3090,2996,3120,3097,3210,2781,3386,3401,3233,3355,3122,3333,3375,3184
1508409647859908291,172,1508409647859771751,plot_matl,0.25,-2000.0,0.215615302324,-0.0338160470128,-0.034384701401,-76.6455230713,0.349065840244,0.0283391084522,0.00569237628952,0.215461745858,0.0135393412784,0.0135393412784,0.00581374485046,0.00717047369108,-76.2614974976,-76.2614974976,-0.0164115298539,95.016708374,2003,2055,2108,2031,2031,2674,3308,3334,3136,3286,2997,2955,3040,3072,3156,2926,3381,3376,3217,3279,2933,3271,3299,3023,0.009999205,1.719891846,1.71986326,0.401425719261,4500.0,0.37605547905,0.00050097249914,-0.0253702495247,114.166122437,0.0,6000.0,0.00570670003071,0.00554460659623,0.0,0.0,0.349065840244,0.0240919683129,-0.0138804847375,0.298214673996,0.0171900410205,0.0171900410205,0.00417945114896,-0.024340454489,152.361022949,152.361022949,-53.7228317261,0.187062710524,2021,2027,2597,2047,2047,2964,3419,3422,3250,3357,3090,2996,3120,3097,3210,2781,3386,3401,3232,3353,3120,3334,3376,3183
1508409647869901625,173,1508409647869774186,plot_matl,0.25,-2000.0,0.215655058622,0.00330288033001,-0.0343449451029,-67.888092041,0.349065840244,0.0283391084522,0.00569237628952,0.215461745858,0.0135393412784,0.0135393412784,0.00581374485046,0.00717047369108,-76.2614974976,-76.2614974976,-0.0164115298539,95.016708374,2016,2049,2108,2031,2031,2674,3306,3333,3135,3286,2995,2955,3041,3072,3155,2926,3381,3376,3217,3279,2933,3271,3299,3023,0.010002241,1.729894141,1.730387693,0.401425719261,4500.0,0.37605547905,0.000862801389303,-0.0253702495247,114.166122437,0.0,6000.0,0.00568341650069,-0.00739275477827,0.0,0.0,0.349065840244,0.0240919683129,-0.0138804847375,0.298214673996,0.0171900410205,0.0171900410205,0.00417945114896,-0.024340454489,152.361022949,152.361022949,-53.7228317261,0.187062710524,2021,2026,2597,2047,2047,2964,3420,3422,3253,3359,3091,2995,3122,3096,3207,2782,3386,3401,3232,3353,3120,3334,3376,3183
1508409647879908698,174,1508409647879777171,plot_matl,0.25,-2000.0,0.215686321259,0.0026349297259,-0.034313686192,-67.9739761353,0.349065840244,0.0269896276295,0.00569625524804,0.215683594346,0.000599944440182,0.000599944440182,0.00577192706987,0.0406025312841,-76.0771484375,-76.0771484375,-0.0803978815675,94.6926345825,2033,2056,2109,2031,2031,2674,3306,3333,3135,3286,2995,2955,3041,3072,3155,2926,3382,3377,3217,3278,2933,3270,3301,3022,0.010002858,1.739897116,1.740497292,0.401425719261,4500.0,0.37470600009,-0.0255439635366,-0.02671973221,120.238792419,0.0,6000.0,0.00570191070437,0.00565696926787,0.0,0.0,0.349065840244,0.0240919683129,-0.013945565559,0.298526793718,0.0134226232767,0.0134226232767,-0.00982162635773,0.0312700085342,152.760269165,152.760269165,-54.0185165405,0.332032293081,2037,2034,2597,2039,2039,2964,3420,3422,3253,3359,3091,2995,3122,3096,3207,2782,3386,3400,3232,3354,3122,3333,3375,3182
1508409647889914165,175,1508409647889771578,plot_matl,0.25,-2000.0,0.215777367353,0.0386685878038,-0.0342226326466,-59.7504920959,0.349065840244,0.0269896276295,0.00569625524804,0.215683594346,0.000599944440182,0.000599944440182,0.00577192706987,0.0406025312841,-76.0771484375,-76.0771484375,-0.0803978815675,94.6926345825,2040,2060,2109,2031,2031,2674,3307,3334,3134,3285,2995,2956,3039,3071,3155,2926,3382,3377,3217,3278,2933,3270,3301,3022,0.009994464,1.749891735,1.7490312,0.401425719261,4500.0,0.37740495801,0.0267249383032,-0.024020768702,108.093460083,0.0,6000.0,0.00570365600288,0.00560563197359,0.0,0.0,0.349065840244,0.0240919683129,-0.013945565559,0.298526793718,0.0134226232767,0.0134226232767,-0.00982162635773,0.0312700085342,152.760269165,152.760269165,-54.0185165405,0.332032293081,2042,2039,2597,2039,2039,2963,3418,3421,3252,3358,3089,2996,3123,3096,3207,2782,3386,3400,3232,3354,3122,3333,3375,3182
1508409647899918899,176,1508409647899783689,plot_matl,0.25,-2000.0,0.21578514576,0.000612063740846,-0.0342148505151,-68.2765426636,0.349065840244,0.0269896276295,0.00569625524804,0.215683594346,0.000599944440182,0.000599944440182,0.00577192706987,0.0406025312841,-76.0771484375,-76.0771484375,-0.0803978815675,94.6926345825,2039,2071,2109,2031,2031,2674,3307,3334,3134,3285,2995,2956,3039,3071,3153,2926,3382,3379,3218,3277,2934,3271,3301,3021,0.010012863,1.759904311,1.762263888,0.401425719261,4500.0,0.37605547905,-0.000973416783381,-0.0253702495247,114.166122437,0.0,6000.0,0.00570547580719,-0.00784332677722,0.0,0.0,0.349065840244,0.0240919683129,-0.013945565559,0.298526793718,0.0134226232767,0.0134226232767,-0.00982162635773,0.0312700085342,152.760269165,152.760269165,-54.0185165405,0.332032293081,2045,2044,2597,2039,2039,2963,3418,3421,3252,3358,3089,2996,3123,3096,3208,2781,3386,3400,3232,3354,3122,3335,3377,3181
1508409647909980560,177,1508409647909782444,plot_matl,0.25,-2000.0,0.215717181563,0.00200748094358,-0.0342828258872,-68.0486831665,0.349065840244,0.0269896276295,0.00569625524804,0.215683594346,0.000599944440182,0.000599944440182,0.00577192706987,0.0406025312841,-76.0771484375,-76.0771484375,-0.0803978815675,94.6926345825,2036,2069,2107,2031,2031,2673,3307,3334,3138,3284,2997,2957,3039,3071,3153,2926,3382,3379,3218,3277,2934,3271,3301,3021,0.009998551,1.769903007,1.769743527,0.401425719261,4500.0,0.37605547905,-0.000344350497471,-0.0253702495247,114.166122437,0.0,6000.0,0.00569776864722,0.00572478817776,0.0,0.0,0.349065840244,0.0240919683129,-0.013945565559,0.298526793718,0.0134226232767,0.0134226232767,-0.00982162635773,0.0312700085342,152.760269165,152.760269165,-54.0185165405,0.332032293081,2043,2041,2596,2043,2043,2964,3419,3420,3251,3357,3088,2995,3123,3096,3208,2781,3386,3400,3232,3354,3122,3335,3377,3181
1508409647919947419,178,1508409647919775208,plot_matl,0.25,-2000.0,0.215705022216,0.00227614655159,-0.0342949740589,-68.0182571411,0.349065840244,0.0269896276295,0.00571255525574,0.215784519911,-0.000495548767503,-0.000495548767503,0.00542384758592,0.000623180996627,-75.9849319458,-75.9849319458,0.190094739199,94.5069580078,2030,2086,2107,2031,2031,2673,3307,3334,3138,3284,2997,2957,3041,3073,3155,2925,3382,3376,3217,3279,2932,3273,3301,3021,0.00999273,1.779895633,1.77870594,0.401425719261,4500.0,0.37605547905,0.000238449589233,-0.0253702495247,114.166122437,0.0,6000.0,0.00570205412805,0.00563298491761,0.0,0.0,0.349065840244,0.0216827709228,-0.013922713697,0.29861420393,-0.00972403679043,-0.00972403679043,-0.0102812675759,0.0295532103628,152.596328735,152.596328735,-53.7186088562,0.276191681623,2037,2044,2596,2043,2043,2964,3419,3420,3251,3357,3088,2995,3122,3096,3207,2781,3386,3401,3233,3353,3121,3333,3377,3181
1508409647929945915,179,1508409647929773010,plot_matl,0.25,-2000.0,0.21575628221,0.00124491692986,-0.0342437140644,-68.1781387329,0.349065840244,0.0269896276295,0.00571255525574,0.215784519911,-0.000495548767503,-0.000495548767503,0.00542384758592,0.000623180996627,-75.9849319458,-75.9849319458,0.190094739199,94.5069580078,2011,2054,2108,2030,2030,2672,3306,3333,3137,3285,2997,2957,3041,3073,3155,2925,3382,3376,3217,3279,2932,3273,3302,3023,0.009997222,1.789893132,1.789502738,0.401425719261,4500.0,0.37605547905,0.000674014678225,-0.0253702495247,114.166122437,0.0,6000.0,0.00570399686694,-0.00782042741776,0.0,0.0,0.349065840244,0.0216827709228,-0.013922713697,0.29861420393,-0.00972403679043,-0.00972403679043,-0.0102812675759,0.0295532103628,152.596328735,152.596328735,-53.7186088562,0.276191681623,2021,2031,2596,2043,2043,2962,3418,3421,3251,3357,3088,2995,3122,3096,3207,2781,3386,3401,3233,3353,3121,3333,3377,3182
1508409647939923371,180,1508409647939773727,plot_matl,0.25,-2000.0,0.215767860413,0.00101976236328,-0.0342321395874,-68.2111740112,0.349065840244,0.0269896276295,0.00571255525574,0.215784519911,-0.000495548767503,-0.000495548767503,0.00542384758592,0.000623180996627,-75.9849319458,-75.9849319458,0.190094739199,94.5069580078,2020,2074,2108,2030,2030,2672,3306,3333,3137,3285,2997,2954,3039,3071,3156,2925,3384,3378,3216,3277,2932,3273,3302,3023,0.010000327,1.799893844,1.80005886,0.401425719261,4500.0,0.37605547905,3.76911084459e-05,-0.0253702495247,114.166122437,0.0,6000.0,0.00569511950016,-0.00764162791893,0.0,0.0,0.349065840244,0.0216827709228,-0.013922713697,0.29861420393,-0.00972403679043,-0.00972403679043,-0.0102812675759,0.0295532103628,152.596328735,152.596328735,-53.7186088562,0.276191681623,2035,2033,2596,2043,2043,2962,3418,3421,3251,3357,3089,2995,3122,3098,3210,2781,3385,3397,3233,3354,3121,3333,3377,3182
1508409647949901613,181,1508409647949770800,plot_matl,0.25,-2000.0,0.215674936771,0.00288515747525,-0.0343250632286,-67.9434509277,0.349065840244,0.0269896276295,0.00571255525574,0.215784519911,-0.000495548767503,-0.000495548767503,0.00542384758592,0.000623180996627,-75.9849319458,-75.9849319458,0.190094739199,94.5069580078,1999,2033,2107,2029,2029,2673,3306,3333,3137,3285,2997,2954,3039,3071,3156,2925,3384,3378,3216,3277,2932,3271,3302,3022,0.009996715,1.809890749,1.809405415,0.401425719261,4500.0,0.37605547905,0.000550076772925,-0.0253702495247,114.166122437,0.0,6000.0,0.00572306197137,0.00521644251421,0.0,0.0,0.349065840244,0.0216827709228,-0.013922713697,0.29861420393,-0.00972403679043,-0.00972403679043,-0.0102812675759,0.0295532103628,152.596328735,152.596328735,-53.7186088562,0.276191681623,2004,2005,2595,2044,2044,2965,3421,3422,3251,3357,3089,2995,3122,3098,3210,2781,3385,3397,3233,3354,3122,3334,3378,3183
1508409647959868822,182,1508409647959770068,plot_matl,0.25,-2000.0,0.215732991695,0.00173372053541,-0.0342670157552,-68.1112136841,0.349065840244,0.0269896276295,0.00569630600512,0.21570263803,0.000121688812214,0.000121688812214,0.00574940163642,0.00232318765484,-75.9003753662,-75.9003753662,0.120305322111,94.2638092041,2003,2041,2107,2029,2029,2673,3306,3333,3136,3283,2996,2955,3041,3072,3156,2926,3381,3379,3216,3277,2932,3271,3302,3022,0.009999425,1.819890133,1.81989535,0.401425719261,4500.0,0.37605547905,0.00152724492364,-0.0253702495247,114.166122437,0.0,6000.0,0.00572035228834,-0.00815127510577,0.0,0.0,0.349065840244,0.0216827709228,-0.0138779534027,0.298681735992,-0.00926780421287,-0.00926780421287,0.00414490140975,0.0282153394073,152.199005127,152.199005127,-53.8183898926,0.352474629879,2012,2018,2595,2044,2044,2965,3421,3422,3251,3357,3089,2997,3122,3098,3210,2782,3386,3402,3233,3354,3122,3334,3378,3183
1508409647969941978,183,1508409647969775424,plot_matl,0.25,-2000.0,0.215712606907,-0.0357512868941,-0.0342873930931,-76.9258728027,0.349065840244,0.0269896276295,0.00569630600512,0.21570263803,0.000121688812214,0.000121688812214,0.00574940163642,0.00232318765484,-75.9003753662,-75.9003753662,0.120305322111,94.2638092041,2003,2034,2107,2031,2031,2673,3306,3333,3136,3283,2996,2955,3041,3072,3156,2926,3381,3379,3217,3277,2934,3272,3301,3021,0.010005339,1.829895376,1.830977037,0.401425719261,4500.0,0.37470600009,-0.0254441928118,-0.02671973221,120.238792419,0.0,6000.0,0.00574143277481,-0.00858422461897,0.0,0.0,0.349065840244,0.0216827709228,-0.0138779534027,0.298681735992,-0.00926780421287,-0.00926780421287,0.00414490140975,0.0282153394073,152.199005127,152.199005127,-53.8183898926,0.352474629879,2017,2007,2596,2043,2043,2965,3421,3422,3251,3357,3089,2997,3122,3098,3210,2782,3386,3402,3232,3354,3121,3334,3377,3184
1508409647979893539,184,1508409647979774222,plot_matl,0.25,-2000.0,0.215764150023,0.0010905507952,-0.0342358462512,-68.2215118408,0.349065840244,0.0269896276295,0.00569630600512,0.21570263803,0.000121688812214,0.000121688812214,0.00574940163642,0.00232318765484,-75.9003753662,-75.9003753662,0.120305322111,94.2638092041,1995,2031,2107,2031,2031,2673,3305,3333,3138,3285,2995,2954,3041,3073,3155,2927,3381,3379,3217,3277,2934,3272,3301,3021,0.009997842,1.839893861,1.839602928,0.401425719261,4500.0,0.37605547905,0.0029857722111,-0.0253702495247,114.166122437,0.0,6000.0,0.00568900024518,-0.00750817870721,0.0,0.0,0.349065840244,0.0216827709228,-0.0138779534027,0.298681735992,-0.00926780421287,-0.00926780421287,0.00414490140975,0.0282153394073,152.199005127,152.199005127,-53.8183898926,0.352474629879,2002,2004,2596,2043,2043,2965,3421,3421,3253,3359,3089,2996,3123,3096,3209,2781,3386,3402,3232,3354,3121,3334,3377,3184
1508409647989934542,185,1508409647989801524,plot_matl,0.25,-2000.0,0.21584546566,-0.000506244890857,-0.0341545380652,-68.4206771851,0.349065840244,0.0269896276295,0.00569630600512,0.21570263803,0.000121688812214,0.000121688812214,0.00574940163642,0.00232318765484,-75.9003753662,-75.9003753662,0.120305322111,94.2638092041,1991,2037,2109,2031,2031,2673,3305,3333,3138,3285,2995,2954,3041,3073,3155,2927,3383,3379,3218,3279,2933,3270,3301,3022,0.010027568,1.849921346,1.85510008,0.401425719261,4500.0,0.37605547905,0.00238914880902,-0.0253702495247,114.166122437,0.0,6000.0,0.00570736732334,0.0055383881554,0.0,0.0,0.349065840244,0.0216827709228,-0.0138779534027,0.298681735992,-0.00926780421287,-0.00926780421287,0.00414490140975,0.0282153394073,152.199005127,152.199005127,-53.8183898926,0.352474629879,2002,2008,2596,2046,2046,2965,3421,3421,3253,3359,3089,2996,3123,3096,3209,2781,3386,3400,3233,3354,3121,3332,3376,3182
1508409647999932018,186,1508409647999774724,plot_matl,0.25,-2000.0,0.215876668692,-0.00104266812559,-0.0341233313084,-68.5142288208,0.349065840244,0.0269896276295,0.00573808699846,0.215877786279,0.00195984495804,0.00195984495804,0.00489516928792,0.0368405245245,-75.9997329712,-75.9997329712,0.453597664833,94.0033187866,2010,2039,2109,2031,2031,2676,3307,3332,3136,3285,2996,2957,3040,3070,3155,2927,3383,3379,3218,3279,2933,3270,3301,3022,0.009973079,1.859894539,1.854992694,0.401425719261,4500.0,0.37605547905,0.00384369282983,-0.0253702495247,114.166122437,0.0,6000.0,0.00572989787906,-0.00835979916155,0.0,0.0,0.349065840244,0.0240919683129,-0.01385591086,0.29887214303,0.0149707645178,0.0149707645178,0.00374692422338,0.0244438759983,152.731796265,152.731796265,-53.5109100342,-0.274456083775,2022,2015,2596,2046,2046,2964,3419,3418,3254,3359,3089,2996,3123,3096,3209,2781,3386,3400,3233,3354,3121,3332,3376,3182
1508409648009942950,187,1508409648009771723,plot_matl,0.25,-2000.0,0.215861007571,-0.000753145897761,-0.0341389887035,-68.5822753906,0.349065840244,0.0269896276295,0.00573808699846,0.215877786279,0.00195984495804,0.00195984495804,0.00489516928792,0.0368405245245,-75.9997329712,-75.9997329712,0.453597664833,94.0033187866,2010,2039,2109,2031,2031,2676,3307,3332,3136,3285,2996,2957,3040,3070,3155,2927,3383,3379,3218,3279,2933,3270,3301,3022,0.009997238,1.869891683,1.869483506,0.401425719261,4500.0,0.37470600009,-0.0233579035848,-0.02671973221,120.238792419,0.0,6000.0,0.00572816608474,-0.00838657375425,0.0,0.0,0.349065840244,0.0240919683129,-0.01385591086,0.29887214303,0.0149707645178,0.0149707645178,0.00374692422338,0.0244438759983,152.731796265,152.731796265,-53.5109100342,-0.274456083775,2022,2015,2596,2046,2046,2964,3419,3418,3254,3359,3089,2996,3123,3096,3209,2781,3386,3400,3233,3354,3121,3332,3376,3182
1508409648019916646,188,1508409648019772742,plot_matl,0.25,-2000.0,0.215884596109,-0.00132549216505,-0.0341154076159,-68.5716629028,0.349065840244,0.0269896276295,0.00573808699846,0.215877786279,0.00195984495804,0.00195984495804,0.00489516928792,0.0368405245245,-75.9997329712,-75.9997329712,0.453597664833,94.0033187866,2016,2053,2109,2031,2031,2676,3307,3332,3136,3285,2996,2957,3040,3070,3156,2926,3398,3391,3231,3290,2943,3279,3308,3030,0.010000303,1.879892409,1.880056964,0.401425719261,4500.0,0.37605547905,0.00367933744565,-0.0253702495247,114.166122437,0.0,6000.0,0.00571118434891,-0.00802738498896,0.0,0.0,0.349065840244,0.0240919683129,-0.01385591086,0.29887214303,0.0149707645178,0.0149707645178,0.00374692422338,0.0244438759983,152.731796265,152.731796265,-53.5109100342,-0.274456083775,2020,2020,2596,2046,2046,2964,3419,3418,3254,3359,3089,2996,3123,3096,3210,2779,3402,3414,3243,3364,3129,3341,3384,3190
1508409648029927244,189,1508409648029774510,plot_matl,0.25,-2000.0,0.215844467282,-0.000462806725409,-0.0341555401683,-68.43800354,0.349065840244,0.0269896276295,0.00573808699846,0.215877786279,0.00195984495804,0.00195984495804,0.00489516928792,0.0368405245245,-75.9997329712,-75.9997329712,0.453597664833,94.0033187866,2025,2055,2109,2032,2032,2679,3314,3337,3142,3288,3001,2958,3040,3070,3156,2926,3398,3391,3231,3290,2943,3279,3308,3030,0.010001973,1.889894336,1.890372897,0.401425719261,4500.0,0.37740495801,0.0302622839808,-0.024020768702,108.093460083,0.0,6000.0,0.00572369853035,0.00514043169096,0.0,0.0,0.349065840244,0.0240919683129,-0.01385591086,0.29887214303,0.0149707645178,0.0149707645178,0.00374692422338,0.0244438759983,152.731796265,152.731796265,-53.5109100342,-0.274456083775,2030,2028,2598,2041,2041,2968,3425,3423,3255,3364,3092,2999,3123,3096,3210,2779,3402,3414,3243,3364,3129,3341,3384,3190
1508409648039920021,190,1508409648039773659,plot_matl,0.25,-2000.0,0.2158357054,-0.0382170639932,-0.0341642983258,-77.8064651489,0.349065840244,0.0269896276295,0.00573333632201,0.215843558311,0.00145395309664,0.00145395309664,0.00494727818295,-0.000445416575531,-75.729675293,-75.729675293,0.575840771198,95.1262435913,2021,2053,2109,2032,2032,2679,3314,3337,3142,3288,3001,2958,3040,3077,3159,2929,3385,3378,3219,3281,2935,3270,3308,3030,0.009998837,1.899893327,1.89977903,0.401425719261,4500.0,0.37605547905,0.00196631113067,-0.0253702495247,114.166122437,0.0,6000.0,0.00572299258783,0.00516735296696,0.0,0.0,0.349065840244,0.0240919683129,-0.0138674862683,0.298115283251,0.0156230414286,0.0156230414286,0.00353464623913,0.0377843417227,153.016326904,153.016326904,-54.0265922546,-0.0922927930951,2029,2031,2598,2041,2041,2968,3425,3423,3255,3364,3092,2999,3125,3099,3212,2782,3388,3402,3234,3357,3123,3334,3384,3190
1508409648049855877,191,1508409648049769376,plot_matl,0.25,-2000.0,0.215797498822,0.000448428792879,-0.0342025011778,-68.2928390503,0.349065840244,0.0269896276295,0.00573333632201,0.215843558311,0.00145395309664,0.00145395309664,0.00494727818295,-0.000445416575531,-75.729675293,-75.729675293,0.575840771198,95.1262435913,2023,2046,2108,2033,2033,2676,3308,3336,3138,3286,3001,2958,3040,3077,3159,2929,3385,3378,3219,3281,2935,3270,3305,3024,0.009996112,1.909889545,1.909257392,0.401425719261,4500.0,0.37605547905,0.00165189791005,-0.0253702495247,114.166122437,0.0,6000.0,0.00567147089168,-0.00721381464973,0.0,0.0,0.349065840244,0.0240919683129,-0.0138674862683,0.298115283251,0.0156230414286,0.0156230414286,0.00353464623913,0.0377843417227,153.016326904,153.016326904,-54.0265922546,-0.0922927930951,2029,2027,2597,2041,2041,2965,3421,3424,3253,3359,3092,2999,3125,3099,3212,2782,3388,3402,3234,3357,3123,3334,3377,3182
1508409648059930076,192,1508409648059774615,plot_matl,0.25,-2000.0,0.215768665075,0.00110667571425,-0.0342313423753,-68.2273483276,0.349065840244,0.0269896276295,0.00573333632201,0.215843558311,0.00145395309664,0.00145395309664,0.00494727818295,-0.000445416575531,-75.729675293,-75.729675293,0.575840771198,95.1262435913,2051,2065,2108,2033,2033,2676,3308,3336,3138,3286,2997,2958,3042,3071,3154,2927,3384,3378,3217,3279,2935,3270,3305,3024,0.010004818,1.919894424,1.920925056,0.401425719261,4500.0,0.37605547905,0.00135222123936,-0.0253702495247,114.166122437,0.0,6000.0,0.0056430674158,-0.00662572076544,0.0,0.0,0.349065840244,0.0240919683129,-0.0138674862683,0.298115283251,0.0156230414286,0.0156230414286,0.00353464623913,0.0377843417227,153.016326904,153.016326904,-54.0265922546,-0.0922927930951,2051,2040,2597,2041,2041,2965,3421,3424,3253,3359,3092,2997,3124,3099,3210,2783,3387,3402,3234,3355,3123,3334,3377,3182
1508409648069920494,193,1508409648069773382,plot_matl,0.25,-2000.0,0.215777397156,0.000875907950103,-0.0342225953937,-68.2347564697,0.349065840244,0.0269896276295,0.00573333632201,0.215843558311,0.00145395309664,0.00145395309664,0.00494727818295,-0.000445416575531,-75.729675293,-75.729675293,0.575840771198,95.1262435913,2026,2060,2108,2033,2033,2674,3307,3334,3138,3286,2997,2958,3042,3071,3154,2927,3384,3378,3217,3279,2933,3272,3302,3020,0.009998535,1.929893111,1.929717255,0.401425719261,4500.0,0.37605547905,0.00158709939569,-0.0253702495247,114.166122437,0.0,6000.0,0.00562111893669,0.00723972404376,0.0,0.0,0.349065840244,0.0240919683129,-0.0138674862683,0.298115283251,0.0156230414286,0.0156230414286,0.00353464623913,0.0377843417227,153.016326904,153.016326904,-54.0265922546,-0.0922927930951,2036,2034,2596,2049,2049,2964,3420,3422,3253,3359,3092,2997,3124,3099,3210,2783,3387,3402,3234,3355,3123,3335,3378,3182
1508409648079934255,194,1508409648079776049,plot_matl,0.25,-2000.0,0.215816318989,4.17054980062e-05,-0.0341836735606,-68.3468017578,0.349065840244,0.0283391084522,0.00562151614577,0.215779036283,0.0143797360361,0.0143797360361,-0.00619205087423,0.000842557288706,-76.0086364746,-76.0086364746,0.99644190073,95.2764892578,2030,2062,2108,2033,2033,2674,3307,3334,3136,3285,2999,2956,3040,3071,3156,2926,3382,3377,3217,3279,2933,3272,3302,3020,0.010003032,1.939896034,1.940588208,0.401425719261,4500.0,0.37605547905,0.00173135625664,-0.0253702495247,114.166122437,0.0,6000.0,0.00565135106444,0.00664764922112,0.0,0.0,0.349065840244,0.0240919683129,-0.0139098651707,0.298205435276,0.0141192665324,0.0141192665324,-0.0107104675844,-0.0248503033072,152.887512207,152.887512207,-53.928024292,-0.821843624115,2034,2037,2596,2049,2049,2964,3420,3422,3253,3359,3088,2996,3123,3098,3209,2783,3386,3400,3234,3355,3123,3335,3378,3182
1508409648089890797,195,1508409648089769748,plot_matl,0.25,-2000.0,0.215784788132,0.000684747588821,-0.0342152155936,-68.2574615479,0.349065840244,0.0283391084522,0.00562151614577,0.215779036283,0.0143797360361,0.0143797360361,-0.00619205087423,0.000842557288706,-76.0086364746,-76.0086364746,0.99644190073,95.2764892578,2012,2058,2108,2032,2032,2675,3307,3334,3136,3285,2999,2956,3040,3071,3156,2926,3382,3377,3218,3278,2933,3271,3302,3020,0.009993418,1.949889569,1.94871651,0.401425719261,4500.0,0.37605547905,0.00333495135419,-0.0253702495247,114.166122437,0.0,6000.0,0.0056512998417,0.0066461134702,0.0,0.0,0.349065840244,0.0240919683129,-0.0139098651707,0.298205435276,0.0141192665324,0.0141192665324,-0.0107104675844,-0.0248503033072,152.887512207,152.887512207,-53.928024292,-0.821843624115,2023,2025,2596,2041,2041,2964,3420,3422,3253,3359,3088,2996,3123,3098,3209,2783,3386,3400,3232,3354,3121,3334,3378,3181
1508409648099912623,196,1508409648099768156,plot_matl,0.25,-2000.0,0.215789020061,0.000549013027921,-0.0342109836638,-68.2709655762,0.349065840244,0.0283391084522,0.00562151614577,0.215779036283,0.0143797360361,0.0143797360361,-0.00619205087423,0.000842557288706,-76.0086364746,-76.0086364746,0.99644190073,95.2764892578,2023,2069,2108,2032,2032,2675,3309,3333,3137,3284,2997,2958,3040,3071,3154,2926,3382,3377,3218,3278,2933,3271,3302,3020,0.00999802,1.959887954,1.95961192,0.401425719261,4500.0,0.37605547905,0.00227696401998,-0.0253702495247,114.166122437,0.0,6000.0,0.00566307082772,0.0064123282209,0.0,0.0,0.349065840244,0.0240919683129,-0.0139098651707,0.298205435276,0.0141192665324,0.0141192665324,-0.0107104675844,-0.0248503033072,152.887512207,152.887512207,-53.928024292,-0.821843624115,2027,2037,2596,2041,2041,2964,3420,3421,3252,3360,3091,2996,3123,3096,3206,2781,3386,3400,3232,3354,3121,3334,3378,3181
1508409648109918006,197,1508409648109775536,plot_matl,0.25,-2000.0,0.215763360262,0.00107976363506,-0.0342366360128,-68.203704834,0.349065840244,0.0283391084522,0.00562151614577,0.215779036283,0.0143797360361,0.0143797360361,-0.00619205087423,0.000842557288706,-76.0086364746,-76.0086364746,0.99644190073,95.2764892578,2020,2061,2108,2032,2032,2675,3309,3333,3137,3284,2997,2958,3040,3071,3154,2926,3381,3377,3218,3278,2932,3270,3301,3023,0.01000758,1.969895404,1.97149326,0.401425719261,4500.0,0.37740495801,0.0290590114892,-0.024020768702,108.093460083,0.0,6000.0,0.00568471569568,-0.00744352955371,0.0,0.0,0.349065840244,0.0240919683129,-0.0139098651707,0.298205435276,0.0141192665324,0.0141192665324,-0.0107104675844,-0.0248503033072,152.887512207,152.887512207,-53.928024292,-0.821843624115,2023,2028,2596,2045,2045,2964,3420,3421,3252,3360,3091,2996,3123,3096,3206,2781,3386,3399,3230,3353,3121,3332,3375,3182
1508409648119987986,198,1508409648119776760,plot_matl,0.25,-2000.0,0.21581093967,0.000192708554096,-0.0341890603304,-68.3330078125,0.349065840244,0.0269896276295,0.00569634651765,0.215765610337,0.00112775538582,0.00112775538582,0.00574547238648,0.00103726028465,-76.1603775024,-76.1603775024,0.526451587677,95.5572357178,1999,2034,2108,2032,2032,2675,3307,3333,3135,3284,2996,2956,3042,3070,3154,2926,3381,3377,3218,3278,2932,3270,3301,3023,0.010001577,1.979896712,1.980312246,0.401425719261,4500.0,0.37605547905,0.00345212197863,-0.0253702495247,114.166122437,0.0,6000.0,0.00571268238127,-0.0080043990165,0.0,0.0,0.349065840244,0.0216827709228,-0.0138584813103,0.298162609339,-0.0110976137221,-0.0110976137221,0.00370626640506,-0.0237012244761,152.939788818,152.939788818,-53.6282806396,-0.278050720692,2001,2001,2596,2045,2045,2963,3421,3420,3251,3358,3089,2994,3123,3096,3206,2781,3386,3399,3230,3353,3121,3332,3375,3182
1508409648129933678,199,1508409648129773096,plot_matl,0.25,-2000.0,0.21578130126,0.000865707232151,-0.0342187061906,-68.2522201538,0.349065840244,0.0269896276295,0.00569634651765,0.215765610337,0.00112775538582,0.00112775538582,0.00574547238648,0.00103726028465,-76.1603775024,-76.1603775024,0.526451587677,95.5572357178,2024,2046,2108,2032,2032,2675,3307,3333,3135,3284,2996,2956,3042,3070,3156,2924,3382,3376,3220,3278,2932,3273,3303,3023,0.009996397,1.989893188,1.989283003,0.401425719261,4500.0,0.37605547905,0.00230717542581,-0.0253702495247,114.166122437,0.0,6000.0,0.0057232924737,-0.00821753405035,0.0,0.0,0.349065840244,0.0216827709228,-0.0138584813103,0.298162609339,-0.0110976137221,-0.0110976137221,0.00370626640506,-0.0237012244761,152.939788818,152.939788818,-53.6282806396,-0.278050720692,2037,2030,2596,2045,2045,2963,3421,3420,3251,3358,3089,2994,3123,3096,3209,2781,3387,3399,3232,3354,3120,3334,3377,3182
1508409648139909730,200,1508409648139770435,plot_matl,0.25,-2000.0,0.215722575784,0.00212450209074,-0.0342774242163,-68.0666732788,0.349065840244,0.0269896276295,0.00569634651765,0.215765610337,0.00112775538582,0.00112775538582,0.00574547238648,0.00103726028465,-76.1603775024,-76.1603775024,0.526451587677,95.5572357178,2018,2032,2107,2028,2028,2674,3305,3333,3135,3284,2997,2956,3042,3070,3156,2924,3382,3376,3220,3278,2932,3273,3303,3023,0.00999718,1.999890533,1.999436,0.401425719261,4500.0,0.37605547905,0.00239485921338,-0.0253702495247,114.166122437,0.0,6000.0,0.00569697562605,-0.00769017031416,0.0,0.0,0.349065840244,0.0216827709228,-0.0138584813103,0.298162609339,-0.0110976137221,-0.0110976137221,0.00370626640506,-0.0237012244761,152.939788818,152.939788818,-53.6282806396,-0.278050720692,2021,2016,2596,2042,2042,2963,3419,3420,3250,3357,3090,2994,3123,3096,3209,2781,3387,3399,3232,3354,3120,3334,3377,3182
1508409648149959149,201,1508409648149776073,plot_matl,0.25,-2000.0,0.215675875545,-0.0348521508276,-0.0343241281807,-76.1311187744,0.349065840244,0.0269896276295,0.00569634651765,0.215765610337,0.00112775538582,0.00112775538582,0.00574547238648,0.00103726028465,-76.1603775024,-76.1603775024,0.526451587677,95.5572357178,2005,2022,2107,2028,2028,2674,3305,3333,3135,3284,2997,2956,3041,3071,3156,2926,3384,3377,3217,3279,2935,3270,3303,3023,0.010005184,2.009896082,2.011041984,0.401425719261,4500.0,0.37605547905,0.00106244930066,-0.0253702495247,114.166122437,0.0,6000.0,0.00570053979754,0.00565501814708,0.0,0.0,0.349065840244,0.0216827709228,-0.0138584813103,0.298162609339,-0.0110976137221,-0.0110976137221,0.00370626640506,-0.0237012244761,152.939788818,152.939788818,-53.6282806396,-0.278050720692,2008,1998,2596,2042,2042,2963,3419,3420,3250,3357,3090,2994,3123,3096,3208,2781,3387,3402,3231,3354,3122,3333,3377,3182
1508409648159937271,202,1508409648159780580,plot_matl,0.25,-2000.0,0.215699106455,0.00259539601393,-0.0343008898199,-67.9710083008,0.349065840244,0.0269896276295,0.00572333112359,0.215811312199,0.00165735045448,0.00165735045448,0.00520791206509,0.0001850372646,-75.9498977661,-75.9498977661,0.389816910028,95.4993972778,2037,2061,2108,2030,2030,2675,3307,3333,3135,3283,2997,2956,3041,3071,3156,2926,3384,3377,3217,3279,2935,3270,3302,3022,0.010004659,2.019900659,2.020941118,0.401425719261,4500.0,0.37605547905,0.00133879843634,-0.0253702495247,114.166122437,0.0,6000.0,0.0056901909411,-0.00758118927479,0.0,0.0,0.349065840244,0.0265011657029,-0.013878875412,0.298172265291,0.0377721227705,0.0377721227705,-0.0112050147727,0.0379980131984,153.064788818,153.064788818,-53.589012146,-0.295461893082,2039,2038,2597,2042,2042,2964,3420,3421,3254,3357,3090,2994,3123,3096,3208,2781,3387,3402,3231,3354,3122,3333,3377,3185
1508409648169929398,203,1508409648169773398,plot_matl,0.25,-2000.0,0.215691626072,0.00279781688005,-0.0343083739281,-67.9817504883,0.349065840244,0.0269896276295,0.00572333112359,0.215811312199,0.00165735045448,0.00165735045448,0.00520791206509,0.0001850372646,-75.9498977661,-75.9498977661,0.389816910028,95.4993972778,2011,2038,2108,2030,2030,2675,3307,3333,3135,3283,2996,2955,3039,3072,3155,2926,3384,3376,3217,3281,2935,3270,3302,3022,0.009992579,2.029893412,2.028493537,0.401425719261,4500.0,0.37605547905,0.00152218050789,-0.0253702495247,114.166122437,0.0,6000.0,0.00564824743196,0.0066851945594,0.0,0.0,0.349065840244,0.0265011657029,-0.013878875412,0.298172265291,0.0377721227705,0.0377721227705,-0.0112050147727,0.0379980131984,153.064788818,153.064788818,-53.589012146,-0.295461893082,2021,2022,2597,2042,2042,2964,3420,3421,3254,3357,3090,2997,3124,3097,3207,2781,3387,3400,3232,3353,3122,3333,3377,3185
1508409648179962186,204,1508409648179775602,plot_matl,0.25,-2000.0,0.215642511845,0.00371950957924,-0.0343574881554,-67.7843856812,0.349065840244,0.0269896276295,0.00572333112359,0.215811312199,0.00165735045448,0.00165735045448,0.00520791206509,0.0001850372646,-75.9498977661,-75.9498977661,0.389816910028,95.4993972778,2013,2034,2108,2030,2030,2673,3308,3332,3135,3283,2996,2955,3039,3072,3155,2926,3384,3376,3217,3281,2933,3272,3300,3021,0.010002204,2.039895727,2.040449616,0.401425719261,4500.0,0.37605547905,0.00124957901426,-0.0253702495247,114.166122437,0.0,6000.0,0.00565845007077,-0.00696201389655,0.0,0.0,0.349065840244,0.0265011657029,-0.013878875412,0.298172265291,0.0377721227705,0.0377721227705,-0.0112050147727,0.0379980131984,153.064788818,153.064788818,-53.589012146,-0.295461893082,2015,2012,2596,2045,2045,2963,3421,3420,3254,3357,3090,2997,3124,3097,3207,2781,3387,3400,3232,3353,3121,3335,3377,3182
1508409648189873726,205,1508409648189774047,plot_matl,0.25,-2000.0,0.215640768409,0.00378343183547,-0.0343592278659,-67.7821273804,0.349065840244,0.0269896276295,0.00572333112359,0.215811312199,0.00165735045448,0.00165735045448,0.00520791206509,0.0001850372646,-75.9498977661,-75.9498977661,0.389816910028,95.4993972778,2031,2073,2108,2030,2030,2673,3308,3332,3137,3285,2996,2954,3041,3073,3156,2926,3385,3378,3217,3281,2933,3272,3300,3021,0.00999816,2.049894064,2.0496228,0.401425719261,4500.0,0.37605547905,4.59686198155e-05,-0.0253702495247,114.166122437,0.0,6000.0,0.00564260501415,-0.00664711790159,0.0,0.0,0.349065840244,0.0265011657029,-0.013878875412,0.298172265291,0.0377721227705,0.0377721227705,-0.0112050147727,0.0379980131984,153.064788818,153.064788818,-53.589012146,-0.295461893082,2041,2042,2596,2045,2045,2963,3421,3420,3253,3359,3089,2995,3123,3097,3209,2780,3387,3400,3232,3353,3121,3335,3377,3182
1508409648199896710,206,1508409648199770156,plot_matl,0.25,-2000.0,0.21567851305,0.00307936477475,-0.0343214794993,-67.9021911621,0.349065840244,0.0283391084522,0.00569818448275,0.215681612492,0.014135973528,0.014135973528,-0.00772401643917,0.00293981144205,-75.8343887329,-75.8343887329,0.00500262062997,95.7223205566,2014,2064,2109,2031,2031,2673,3308,3332,3137,3285,2996,2954,3041,3073,3156,2926,3385,3378,3219,3278,2934,3270,3301,3020,0.00999601,2.059890233,2.05917806,0.401425719261,4500.0,0.37605547905,-0.00198087608442,-0.0253702495247,114.166122437,0.0,6000.0,0.00566813535988,0.00623974343762,0.0,0.0,0.349065840244,0.0216827709228,-0.0138913830742,0.298204898834,-0.0114225633442,-0.0114225633442,0.00435667438433,-0.0242768973112,152.985458374,152.985458374,-53.6091957092,0.015173622407,2030,2034,2596,2045,2045,2963,3421,3420,3253,3359,3089,2995,3123,3097,3209,2780,3387,3400,3232,3353,3121,3333,3377,3183
1508409648209859010,207,1508409648209770815,plot_matl,0.25,-2000.0,0.21563641727,-0.0339789539576,-0.034363579005,-76.065246582,0.349065840244,0.0283391084522,0.00569818448275,0.215681612492,0.014135973528,0.014135973528,-0.00772401643917,0.00293981144205,-75.8343887329,-75.8343887329,0.00500262062997,95.7223205566,2001,2058,2109,2031,2031,2673,3305,3332,3134,3284,2996,2956,3040,3071,3155,2925,3385,3378,3219,3278,2934,3270,3301,3020,0.010000596,2.069890856,2.070123372,0.401425719261,4500.0,0.37605547905,-0.00262893992476,-0.0253702495247,114.166122437,0.0,6000.0,0.00569056067616,0.00581060582772,0.0,0.0,0.349065840244,0.0216827709228,-0.0138913830742,0.298204898834,-0.0114225633442,-0.0114225633442,0.00435667438433,-0.0242768973112,152.985458374,152.985458374,-53.6091957092,0.015173622407,2012,2026,2596,2045,2045,2963,3419,3420,3250,3358,3089,2996,3122,3097,3209,2781,3387,3400,3232,3353,3121,3333,3377,3183
1508409648219967421,208,1508409648219820861,plot_matl,0.25,-2000.0,0.21570058167,0.00258689839393,-0.0342994183302,-68.0354232788,0.349065840244,0.0283391084522,0.00569818448275,0.215681612492,0.014135973528,0.014135973528,-0.00772401643917,0.00293981144205,-75.8343887329,-75.8343887329,0.00500262062997,95.7223205566,2032,2077,2108,2033,2033,2673,3305,3332,3134,3284,2996,2956,3040,3071,3155,2925,3384,3379,3218,3281,2933,3270,3302,3022,0.01005131,2.079941605,2.09067248,0.401425719261,4500.0,0.37605547905,-0.00266531202942,-0.0253702495247,114.166122437,0.0,6000.0,0.00569490948692,0.00574319576845,0.0,0.0,0.349065840244,0.0216827709228,-0.0138913830742,0.298204898834,-0.0114225633442,-0.0114225633442,0.00435667438433,-0.0242768973112,152.985458374,152.985458374,-53.6091957092,0.015173622407,2038,2045,2596,2045,2045,2963,3419,3420,3250,3358,3089,2996,3122,3097,3209,2781,3387,3402,3233,3353,3122,3334,3376,3184
1508409648230388246,209,1508409648229846919,plot_matl,0.25,-2000.0,0.215754181147,0.00141718739178,-0.0342458151281,-68.1406784058,0.349065840244,0.0283391084522,0.00569818448275,0.215681612492,0.014135973528,0.014135973528,-0.00772401643917,0.00293981144205,-75.8343887329,-75.8343887329,0.00500262062997,95.7223205566,2017,2042,2108,2033,2033,2675,3306,3333,3135,3284,2998,2956,3041,3073,3155,2925,3384,3379,3218,3281,2933,3270,3302,3022,0.010027792,2.089968209,2.095808528,0.401425719261,4500.0,0.37605547905,-0.00213889987208,-0.0253702495247,114.166122437,0.0,6000.0,0.00567793427035,0.00612317211926,0.0,0.0,0.349065840244,0.0216827709228,-0.0138913830742,0.298204898834,-0.0114225633442,-0.0114225633442,0.00435667438433,-0.0242768973112,152.985458374,152.985458374,-53.6091957092,0.015173622407,2022,2022,2596,2045,2045,2965,3419,3420,3252,3359,3088,2995,3122,3100,3209,2781,3387,3402,3233,3353,3122,3334,3376,3184
1508409648240268283,210,1508409648239820483,plot_matl,0.25,-2000.0,0.215696305037,-0.0353600233793,-0.0343036912382,-77.7578048706,0.349065840244,0.0283391084522,0.00564223574474,0.215647578239,0.0133827244863,0.0133827244863,-0.00664695864543,0.00363994832151,-76.0956497192,-76.0956497192,0.0667871311307,95.5484313965,2023,2042,2108,2033,2033,2675,3306,3333,3135,3284,2998,2956,3041,3073,3155,2926,3383,3375,3217,3278,2934,3269,3300,3022,0.009971199,2.099941267,2.09395179,0.401425719261,4500.0,0.37605547905,-0.00226658536121,-0.0253702495247,114.166122437,0.0,6000.0,0.00570620829239,-0.00788056198508,0.0,0.0,0.349065840244,0.0216827709228,-0.013896195218,0.298283845186,-0.0093090897426,-0.0093090897426,0.00454258918762,0.0362550504506,152.713485718,152.713485718,-53.5061683655,-0.36183398962,2026,2015,2596,2045,2045,2965,3419,3420,3252,3359,3088,2995,3122,3100,3208,2780,3385,3399,3233,3353,3120,3333,3374,3184
1508409648250292352,211,1508409648249797615,plot_matl,0.25,-2000.0,0.215618938208,-0.0337910242379,-0.0343810617924,-77.0739517212,0.349065840244,0.0283391084522,0.00564223574474,0.215647578239,0.0133827244863,0.0133827244863,-0.00664695864543,0.00363994832151,-76.0956497192,-76.0956497192,0.0667871311307,95.5484313965,2026,2058,2108,2033,2033,2675,3308,3334,3135,3283,2995,2956,3041,3073,3155,2926,3383,3375,3217,3278,2934,3269,3300,3022,0.009977273,2.109918544,2.105204603,0.401425719261,4500.0,0.37605547905,-0.00189637416042,-0.0253702495247,114.166122437,0.0,6000.0,0.00569939659908,0.00569204101339,0.0,0.0,0.349065840244,0.0216827709228,-0.013896195218,0.298283845186,-0.0093090897426,-0.0093090897426,0.00454258918762,0.0362550504506,152.713485718,152.713485718,-53.5061683655,-0.36183398962,2033,2034,2596,2043,2043,2963,3419,3420,3252,3357,3089,2995,3122,3100,3208,2780,3385,3399,3233,3353,3120,3333,3374,3184
1508409648260397609,212,1508409648259837119,plot_matl,0.25,-2000.0,0.215617537498,-0.0337447747588,-0.0343824625015,-76.8958206177,0.349065840244,0.0283391084522,0.00564223574474,0.215647578239,0.0133827244863,0.0133827244863,-0.00664695864543,0.00363994832151,-76.0956497192,-76.0956497192,0.0667871311307,95.5484313965,2015,2039,2108,2033,2033,2675,3308,3334,3135,3283,2995,2956,3039,3071,3155,2925,3382,3379,3218,3278,2933,3270,3300,3022,0.010040546,2.119958473,2.128595752,0.401425719261,4500.0,0.37605547905,-0.000614769989625,-0.0253702495247,114.166122437,0.0,6000.0,0.005676752422,-0.0072928792797,0.0,0.0,0.349065840244,0.0216827709228,-0.013896195218,0.298283845186,-0.0093090897426,-0.0093090897426,0.00454258918762,0.0362550504506,152.713485718,152.713485718,-53.5061683655,-0.36183398962,2026,2022,2596,2043,2043,2963,3419,3420,3252,3357,3089,2995,3123,3096,3208,2780,3387,3400,3232,3353,3120,3333,3374,3184
1508409648270155905,213,1508409648269795102,plot_matl,0.25,-2000.0,0.215651243925,-0.0344428345561,-0.0343487486243,-77.4030761719,0.349065840244,0.0283391084522,0.00564223574474,0.215647578239,0.0133827244863,0.0133827244863,-0.00664695864543,0.00363994832151,-76.0956497192,-76.0956497192,0.0667871311307,95.5484313965,2005,2045,2107,2034,2034,2676,3307,3333,3137,3284,2995,2956,3039,3071,3155,2925,3382,3379,3218,3278,2933,3270,3303,3020,0.009955819,2.129915695,2.120589447,0.401425719261,4500.0,0.37605547905,0.000440791773144,-0.0253702495247,114.166122437,0.0,6000.0,0.00571937998757,0.00526526430622,0.0,0.0,0.349065840244,0.0216827709228,-0.013896195218,0.298283845186,-0.0093090897426,-0.0093090897426,0.00454258918762,0.0362550504506,152.713485718,152.713485718,-53.5061683655,-0.36183398962,2022,2024,2596,2044,2044,2964,3420,3420,3251,3359,3089,2995,3123,3096,3208,2780,3387,3400,3232,3353,3120,3333,3377,3182
1508409648280277485,214,1508409648279825029,plot_matl,0.25,-2000.0,0.215690508485,0.00266976933926,-0.0343094915152,-68.00831604,0.349065840244,0.0256401468068,0.0056891348213,0.215720251203,-0.0146433552727,-0.0146433552727,0.00589626794681,-0.0358042418957,-76.2333679199,-76.2333679199,0.303266555071,94.9531021118,2013,2054,2107,2034,2034,2676,3307,3333,3137,3284,2997,2955,3041,3073,3157,2926,3383,3377,3218,3276,2933,3270,3303,3020,0.010030513,2.139946264,2.146529782,0.401425719261,4500.0,0.37605547905,0.0003610344138,-0.0253702495247,114.166122437,0.0,6000.0,0.00572034809738,-0.0081669902429,0.0,0.0,0.349065840244,0.0216827709228,-0.0138274570927,0.298350155354,-0.0103151844814,-0.0103151844814,0.0031444139313,-0.02687641792,152.958679199,152.958679199,-53.8771896362,-0.0459753721952,2022,2028,2596,2044,2044,2964,3420,3420,3251,3359,3090,2994,3123,3098,3208,2781,3387,3399,3232,3352,3120,3333,3377,3182
1508409648289940903,215,1508409648289781634,plot_matl,0.25,-2000.0,0.215678155422,0.0029342812486,-0.0343218483031,-67.9232635498,0.349065840244,0.0256401468068,0.0056891348213,0.215720251203,-0.0146433552727,-0.0146433552727,0.00589626794681,-0.0358042418957,-76.2333679199,-76.2333679199,0.303266555071,94.9531021118,2007,2048,2108,2033,2033,2674,3308,3333,3137,3284,2997,2955,3041,3073,3157,2926,3383,3377,3218,3276,2934,3271,3300,3021,0.00995391,2.149901593,2.14009065,0.401425719261,4500.0,0.37605547905,0.00122165726498,-0.0253702495247,114.166122437,0.0,6000.0,0.00571758113801,-0.00811849813908,0.0,0.0,0.349065840244,0.0216827709228,-0.0138274570927,0.298350155354,-0.0103151844814,-0.0103151844814,0.0031444139313,-0.02687641792,152.958679199,152.958679199,-53.8771896362,-0.0459753721952,2017,2025,2596,2043,2043,2965,3419,3422,3251,3359,3090,2994,3123,3098,3208,2781,3387,3399,3232,3352,3122,3333,3375,3183
1508409648299965058,216,1508409648299777359,plot_matl,0.25,-2000.0,0.215699866414,0.00249906303361,-0.0343001298606,-68.0281677246,0.349065840244,0.0256401468068,0.0056891348213,0.215720251203,-0.0146433552727,-0.0146433552727,0.00589626794681,-0.0358042418957,-76.2333679199,-76.2333679199,0.303266555071,94.9531021118,2018,2044,2108,2033,2033,2674,3308,3333,3135,3284,2996,2955,3040,3073,3156,2925,3384,3378,3218,3276,2934,3271,3300,3021,0.009995861,2.159897519,2.159105976,0.401425719261,4500.0,0.37605547905,0.00105816498399,-0.0253702495247,114.166122437,0.0,6000.0,0.00571758113801,-0.00811849813908,0.0,0.0,0.349065840244,0.0216827709228,-0.0138274570927,0.298350155354,-0.0103151844814,-0.0103151844814,0.0031444139313,-0.02687641792,152.958679199,152.958679199,-53.8771896362,-0.0459753721952,2016,2009,2596,2043,2043,2965,3419,3422,3251,3357,3089,2996,3123,3096,3207,2781,3387,3400,3232,3352,3122,3333,3375,3183
1508409648310142026,217,1508409648309797794,plot_matl,0.25,-2000.0,0.21557764709,-0.0329798832536,-0.03442235291,-76.4805145264,0.349065840244,0.0256401468068,0.0056891348213,0.215720251203,-0.0146433552727,-0.0146433552727,0.00589626794681,-0.0358042418957,-76.2333679199,-76.2333679199,0.303266555071,94.9531021118,2021,2040,2108,2032,2032,2674,3308,3333,3135,3284,2996,2955,3040,3073,3156,2925,3384,3378,3216,3278,2932,3270,3303,3022,0.010022166,2.169918422,2.174810022,0.401425719261,4500.0,0.37605547905,0.00180822203401,-0.0253702495247,114.166122437,0.0,6000.0,0.00575191853568,-0.00881397351623,0.0,0.0,0.349065840244,0.0216827709228,-0.0138274570927,0.298350155354,-0.0103151844814,-0.0103151844814,0.0031444139313,-0.02687641792,152.958679199,152.958679199,-53.8771896362,-0.0459753721952,2025,2022,2596,2043,2043,2963,3419,3422,3251,3357,3089,2996,3123,3096,3207,2781,3387,3400,3234,3352,3120,3331,3376,3185
1508409648319991831,218,1508409648319784811,plot_matl,0.25,-2000.0,0.215516149998,-0.0317234806716,-0.0344838425517,-76.3234939575,0.349065840244,0.0269896276295,0.00570398662239,0.215620785952,0.000211991064134,0.000211991064134,-0.00784038938582,-0.033844910562,-76.2898254395,-76.2898254395,0.33443787694,94.4149398804,2019,2052,2108,2032,2032,2674,3308,3335,3135,3283,2996,2955,3040,3072,3156,2925,3384,3378,3216,3278,2932,3270,3303,3022,0.009985258,2.179904863,2.176786244,0.401425719261,4500.0,0.37605547905,0.000497952802107,-0.0253702495247,114.166122437,0.0,6000.0,0.00576813193038,-0.00913817342371,0.0,0.0,0.349065840244,0.0216827709228,-0.0138216447085,0.298237085342,-0.00802447646856,-0.00802447646856,0.00301645114087,-0.0246309731156,152.897186279,152.897186279,-53.9139213562,-0.284249573946,2024,2028,2596,2043,2043,2963,3419,3420,3252,3358,3089,2995,3123,3096,3207,2781,3387,3400,3234,3352,3120,3331,3376,3185
1508409648329935941,219,1508409648329778138,plot_matl,0.25,-2000.0,0.215603813529,0.00437071546912,-0.0343961790204,-67.7303085327,0.349065840244,0.0269896276295,0.00570398662239,0.215620785952,0.000211991064134,0.000211991064134,-0.00784038938582,-0.033844910562,-76.2898254395,-76.2898254395,0.33443787694,94.4149398804,2011,2059,2108,2029,2029,2674,3308,3335,3135,3283,2996,2955,3040,3072,3156,2925,3383,3376,3217,3277,2935,3273,3301,3022,0.009994151,2.18989829,2.188719069,0.401425719261,4500.0,0.37605547905,-9.43528721109e-05,-0.0253702495247,114.166122437,0.0,6000.0,0.00575684942305,0.00451769400388,0.0,0.0,0.349065840244,0.0216827709228,-0.0138216447085,0.298237085342,-0.00802447646856,-0.00802447646856,0.00301645114087,-0.0246309731156,152.897186279,152.897186279,-53.9139213562,-0.284249573946,2014,2022,2596,2040,2040,2963,3419,3420,3252,3358,3089,2995,3123,3096,3207,2781,3385,3399,3233,3353,3120,3334,3377,3181
1508409648339980182,220,1508409648339776701,plot_matl,0.25,-2000.0,0.215572908521,0.00504708988592,-0.0344270989299,-67.6984939575,0.349065840244,0.0269896276295,0.00570398662239,0.215620785952,0.000211991064134,0.000211991064134,-0.00784038938582,-0.033844910562,-76.2898254395,-76.2898254395,0.33443787694,94.4149398804,2009,2067,2108,2029,2029,2674,3307,3333,3134,3286,2997,2956,3039,3072,3156,2925,3383,3376,3217,3277,2935,3273,3301,3022,0.00999771,2.19989684,2.1994962,0.401425719261,4500.0,0.37470600009,-0.0257447622716,-0.02671973221,120.238792419,0.0,6000.0,0.00574854528531,0.00467236666009,0.0,0.0,0.349065840244,0.0216827709228,-0.0138216447085,0.298237085342,-0.00802447646856,-0.00802447646856,0.00301645114087,-0.0246309731156,152.897186279,152.897186279,-53.9139213562,-0.284249573946,2027,2042,2596,2040,2040,2963,3421,3420,3250,3359,3089,2997,3121,3096,3207,2781,3385,3399,3233,3353,3120,3334,3377,3181
1508409648349957360,221,1508409648349781377,plot_matl,0.25,-2000.0,0.215614959598,0.0041458462365,-0.0343850329518,-67.7284088135,0.349065840244,0.0269896276295,0.00570398662239,0.215620785952,0.000211991064134,0.000211991064134,-0.00784038938582,-0.033844910562,-76.2898254395,-76.2898254395,0.33443787694,94.4149398804,2001,2069,2108,2029,2029,2674,3307,3333,3134,3286,2997,2956,3039,3072,3154,2925,3383,3377,3219,3279,2933,3274,3302,3019,0.010004431,2.209901484,2.210979251,0.401425719261,4500.0,0.37470600009,-0.0255027860403,-0.02671973221,120.238792419,0.0,6000.0,0.00572043983266,0.00525341276079,0.0,0.0,0.349065840244,0.0216827709228,-0.0138216447085,0.298237085342,-0.00802447646856,-0.00802447646856,0.00301645114087,-0.0246309731156,152.897186279,152.897186279,-53.9139213562,-0.284249573946,2018,2036,2596,2040,2040,2963,3421,3420,3250,3359,3089,2997,3121,3096,3210,2781,3386,3400,3234,3353,3123,3333,3377,3180
1508409648360014053,222,1508409648359776630,plot_matl,0.25,-2000.0,0.215587377548,0.00475335819647,-0.0344126187265,-67.6697540283,0.349065840244,0.0269896276295,0.00576102174819,0.215587317944,0.000868054165039,0.000868054165039,0.00442375196144,0.00473086209968,-76.4070587158,-76.4070587158,0.132582232356,94.629447937,2014,2057,2109,2028,2028,2675,3309,3334,3135,3285,2998,2956,3039,3072,3154,2925,3383,3377,3219,3279,2933,3274,3302,3019,0.009995574,2.219896697,2.219017428,0.401425719261,4500.0,0.37605547905,0.00091407581931,-0.0253702495247,114.166122437,0.0,6000.0,0.00573163246736,0.00504173897207,0.0,0.0,0.349065840244,0.0216827709228,-0.0138771077618,0.298191696405,-0.00851814076304,-0.00851814076304,0.00417072651908,0.0380755476654,152.894882202,152.894882202,-53.861076355,-0.264147371054,2020,2025,2597,2043,2043,2965,3419,3419,3254,3360,3090,2993,3121,3096,3210,2781,3386,3400,3234,3353,3123,3333,3377,3180
1508409648369998718,223,1508409648369778561,plot_matl,0.25,-2000.0,0.215560987592,0.0052511706017,-0.0344390049577,-67.5688934326,0.349065840244,0.0269896276295,0.00576102174819,0.215587317944,0.000868054165039,0.000868054165039,0.00442375196144,0.00473086209968,-76.4070587158,-76.4070587158,0.132582232356,94.629447937,2026,2059,2109,2028,2028,2675,3309,3334,3135,3285,2998,2956,3039,3074,3156,2925,3380,3379,3217,3278,2934,3270,3302,3019,0.010001612,2.229898684,2.230359476,0.401425719261,4500.0,0.37605547905,0.00170971185435,-0.0253702495247,114.166122437,0.0,6000.0,0.00570548139513,-0.00784298405051,0.0,0.0,0.349065840244,0.0216827709228,-0.0138771077618,0.298191696405,-0.00851814076304,-0.00851814076304,0.00417072651908,0.0380755476654,152.894882202,152.894882202,-53.861076355,-0.264147371054,2030,2033,2597,2043,2043,2965,3419,3419,3254,3360,3090,2993,3122,3097,3207,2780,3387,3401,3233,3353,3122,3332,3377,3180
1508409648379969742,224,1508409648379783759,plot_matl,0.25,-2000.0,0.215436413884,0.00771672232077,-0.0345635898411,-67.2997817993,0.349065840244,0.0269896276295,0.00576102174819,0.215587317944,0.000868054165039,0.000868054165039,0.00442375196144,0.00473086209968,-76.4070587158,-76.4070587158,0.132582232356,94.629447937,2017,2063,2109,2028,2028,2674,3308,3335,3136,3285,2998,2956,3039,3074,3156,2925,3380,3379,3217,3278,2934,3270,3303,3021,0.010005224,2.239903901,2.241170176,0.401425719261,4500.0,0.37740495801,0.0285943057388,-0.024020768702,108.093460083,0.0,6000.0,0.0057187131606,0.00531410519034,0.0,0.0,0.349065840244,0.0216827709228,-0.0138771077618,0.298191696405,-0.00851814076304,-0.00851814076304,0.00417072651908,0.0380755476654,152.894882202,152.894882202,-53.861076355,-0.264147371054,2027,2034,2596,2043,2043,2965,3421,3422,3253,3359,3090,2993,3122,3097,3207,2780,3387,3401,3233,3353,3122,3332,3375,3183
1508409648390183257,225,1508409648389784189,plot_matl,0.25,-2000.0,0.215538233519,0.00566456653178,-0.0344617702067,-67.4454193115,0.349065840244,0.0269896276295,0.00576102174819,0.215587317944,0.000868054165039,0.000868054165039,0.00442375196144,0.00473086209968,-76.4070587158,-76.4070587158,0.132582232356,94.629447937,2010,2052,2109,2028,2028,2674,3308,3335,3136,3285,2997,2955,3038,3073,3156,2924,3383,3378,3217,3278,2934,3270,3303,3021,0.010000968,2.24990453,2.2502178,0.401425719261,4500.0,0.37740495801,0.0288034565747,-0.024020768702,108.093460083,0.0,6000.0,0.0057306275703,0.00505384104326,0.0,0.0,0.349065840244,0.0216827709228,-0.0138771077618,0.298191696405,-0.00851814076304,-0.00851814076304,0.00417072651908,0.0380755476654,152.894882202,152.894882202,-53.861076355,-0.264147371054,2018,2026,2596,2043,2043,2965,3421,3422,3253,3359,3089,2996,3124,3096,3209,2781,3386,3399,3232,3353,3122,3332,3375,3183
