%time,field.header.seq,field.header.stamp,field.header.frame_id,field.FFJ4_set_point,field.FFJ4_position_gain,field.FFJ4_process_value,field.FFJ4_process_value_dot,field.FFJ4_error,field.FFJ4_command,field.FFJ1,field.FFJ2,field.FFJ3,field.FFJ4,field.FFJ1_dot,field.FFJ2_dot,field.FFJ3_dot,field.FFJ4_dot,field.FFJ1_tao,field.FFJ2_tao,field.FFJ3_tao,field.FFJ4_tao,field.pac0,field.pac1,field.pdc0,field.tac0,field.tdc0,field.el0,field.el1,field.el2,field.el3,field.el4,field.el5,field.el6,field.el7,field.el8,field.el9,field.el10,field.el11,field.el12,field.el13,field.el14,field.el15,field.el16,field.el17,field.el18,field.dt,field.time,field.test_time2,field.FFJ0_set_point,field.FFJ0_position_gain,field.FFJ0_process_value,field.FFJ0_process_value_dot,field.FFJ0_error,field.FFJ0_command,field.FFJ3_set_point,field.FFJ3_position_gain,field.FFJ3_process_value,field.FFJ3_process_value_dot,field.FFJ3_error,field.FFJ3_command,field.MFJ1,field.MFJ2,field.MFJ3,field.MFJ4,field.MFJ1_dot,field.MFJ2_dot,field.MFJ3_dot,field.MFJ4_dot,field.MFJ1_tao,field.MFJ2_tao,field.MFJ3_tao,field.MFJ4_tao,field.Mpac0,field.Mpac1,field.Mpdc0,field.Mtac0,field.Mtdc0,field.Mel0,field.Mel1,field.Mel2,field.Mel3,field.Mel4,field.Mel5,field.Mel6,field.Mel7,field.Mel8,field.Mel9,field.Mel10,field.Mel11,field.Mel12,field.Mel13,field.Mel14,field.Mel15,field.Mel16,field.Mel17,field.Mel18
1508409752873914335,93,1508409752873345410,plot_matl,0.25,-4000.0,0.233257904649,-0.0112026678398,-0.0167420953512,-69.5598831177,0.349065840244,0.0337370336056,0.00580336758867,0.233303382993,0.00760306604207,0.00760306604207,0.00340239959769,0.0258011575788,-62.0,-62.0,0.166240811348,84.2088546753,2032,2064,2112,2027,2027,2723,3324,3347,3155,3296,3013,2959,3050,3075,3163,2907,3380,3377,3211,3280,2935,3277,3308,3029,0.010045081,0.93006295,0.934192533,0.401425719261,4500.0,0.38145339489,-0.0116593362764,-0.0199723243713,89.8754577637,0.0,6000.0,0.00581693230197,0.00314138294198,0.0,0.0,0.349065840244,0.0216827709228,-0.013020336628,0.299298226833,-0.00341643556021,-0.00341643556021,0.00234096008353,0.016027584672,153.755599976,153.755599976,-52.7542228699,0.405513703823,2036,2035,2594,2040,2040,2970,3421,3421,3256,3361,3096,3002,3128,3101,3213,2784,3389,3400,3234,3355,3122,3337,3380,3186
1508409752883675932,94,1508409752883329803,plot_matl,0.25,-4000.0,0.233290448785,0.0260391794145,-0.0167095530778,-60.7994918823,0.349065840244,0.0337370336056,0.00581091409549,0.233299702406,0.00791585724801,0.00791585724801,0.00327826337889,-0.0120569402352,-62.0,-62.0,0.168439492583,84.1667938232,2021,2060,2111,2028,2028,2721,3322,3347,3154,3296,3013,2959,3050,3075,3163,2907,3380,3377,3211,3280,2935,3278,3311,3031,0.00998302,0.940046852,0.93840388,0.401425719261,4500.0,0.38280287385,0.0151382042095,-0.0186228435487,83.8027954102,0.0,6000.0,0.00581004284322,0.00329303089529,0.0,0.0,0.349065840244,0.0216827709228,-0.0130458483472,0.299216389656,-0.00282927183434,-0.00282927183434,-0.012518491596,-0.0442942194641,153.800109863,153.800109863,-52.7722511292,0.346192121506,2031,2034,2594,2045,2045,2969,3424,3425,3254,3361,3096,3002,3128,3101,3213,2784,3389,3400,3234,3355,3122,3335,3380,3186
1508409752894041130,95,1508409752893469459,plot_matl,0.25,-4000.0,0.233255952597,0.0267178788781,-0.0167440511286,-60.8544883728,0.349065840244,0.0337370336056,0.00579328183085,0.233225166798,0.00723578222096,0.00723578222096,0.00366282439791,-0.0105271171778,-62.0,-62.0,0.118855558336,83.8989562988,2013,2055,2111,2028,2028,2721,3322,3347,3154,3296,3013,2956,3049,3074,3163,2909,3381,3378,3213,3280,2935,3278,3311,3031,0.010141078,0.95018751,0.96340241,0.401425719261,4500.0,0.38280287385,0.0138880256563,-0.0186228435487,83.8027954102,0.0,6000.0,0.00580779649317,0.00337838009,0.0,0.0,0.349065840244,0.0240919683129,-0.0130637977272,0.299147635698,0.0210342295468,0.0210342295468,0.00315909413621,0.0189271196723,153.800445557,153.800445557,-52.8241577148,0.416197061539,2021,2025,2594,2045,2045,2969,3424,3425,3254,3361,3094,2999,3126,3103,3212,2785,3387,3402,3233,3355,3122,3335,3380,3186
1508409752903744506,96,1508409752903332377,plot_matl,0.25,-4000.0,0.233255952597,0.0267178788781,-0.0167440511286,-60.8544883728,0.349065840244,0.0337370336056,0.00580140156671,0.23326434195,0.00668249325827,0.00668249325827,0.00351899326779,0.026524066925,-62.0,-62.0,0.131322950125,83.7816009521,2023,2062,2112,2028,2028,2720,3326,3347,3154,3296,3013,2956,3049,3074,3163,2909,3381,3378,3213,3279,2933,3278,3307,3030,0.009860512,0.960049351,0.946609152,0.401425719261,4500.0,0.38280287385,0.0138880256563,-0.0186228435487,83.8027954102,0.0,6000.0,0.00580779649317,0.00337838009,0.0,0.0,0.349065840244,0.0216827709228,-0.0130764581263,0.299215614796,-0.00313067133538,-0.00313067133538,0.00341816945001,0.0176278725266,153.760406494,153.760406494,-52.9384613037,0.301748543978,2033,2030,2594,2041,2041,2966,3422,3425,3254,3361,3094,2999,3126,3103,3212,2785,3387,3402,3233,3354,3122,3337,3376,3187
1508409752913700230,97,1508409752913296690,plot_matl,0.25,-4000.0,0.233328938484,0.0252758674324,-0.0166710671037,-60.4531364441,0.349065840244,0.0323875546455,0.00582207133994,0.233299970627,-0.00690871011466,-0.00690871011466,0.00312030385248,0.0258290078491,-62.0,-62.0,0.252622127533,83.7535934448,2027,2065,2112,2028,2028,2720,3326,3346,3152,3294,3015,2956,3049,3075,3162,2910,3383,3378,3213,3279,2933,3278,3307,3030,0.009963837,0.970013769,0.966492189,0.401425719261,4500.0,0.38280287385,0.012847150676,-0.0186228435487,83.8027954102,0.0,6000.0,0.00583411147818,0.00288270111196,0.0,0.0,0.349065840244,0.0216827709228,-0.0130466492847,0.299365729094,-0.00338845304213,-0.00338845304213,0.00279582664371,0.0145064303651,153.841583252,153.841583252,-53.0179176331,0.135116875172,2030,2032,2594,2041,2041,2966,3422,3423,3255,3361,3092,3002,3129,3101,3213,2787,3386,3402,3233,3354,3122,3337,3376,3187
1508409752923631683,98,1508409752923285077,plot_matl,0.25,-4000.0,0.233253419399,-0.0110831800848,-0.0167465731502,-69.615524292,0.349065840244,0.0337370336056,0.00583869405091,0.233258992434,0.00678187515587,0.00678187515587,0.00279814680107,-0.0112078003585,-62.0,-62.0,0.184956714511,83.7911300659,2028,2055,2112,2028,2028,2720,3326,3346,3152,3294,3015,2956,3049,3075,3162,2910,3383,3376,3216,3282,2935,3278,3306,3030,0.009988047,0.980002042,0.978828606,0.401425719261,4500.0,0.38280287385,0.0130508383736,-0.0186228435487,83.8027954102,0.0,6000.0,0.00583661487326,0.00284400442615,0.0,0.0,0.349065840244,0.0216827709228,-0.0130224609748,0.299271613359,-0.00324916793033,-0.00324916793033,0.00229080952704,-0.0455079190433,153.836837769,153.836837769,-53.0229949951,-0.0916549116373,2031,2028,2594,2042,2042,2966,3422,3423,3255,3361,3092,3002,3129,3101,3213,2787,3386,3402,3234,3355,3121,3335,3380,3185
1508409752933657721,99,1508409752933312027,plot_matl,0.25,-4000.0,0.233326226473,-0.0124983815476,-0.0166737753898,-69.6553497314,0.349065840244,0.0337370336056,0.00581484427676,0.233299538493,0.00628456473351,0.00628456473351,-0.0101257544011,0.0259411409497,-62.0,-62.0,0.173985436559,83.8364944458,2039,2067,2112,2028,2028,2718,3321,3345,3154,3295,3012,2957,3050,3076,3162,2910,3383,3376,3216,3282,2935,3278,3306,3030,0.01002713,0.990029563,0.99268587,0.401425719261,4500.0,0.38280287385,0.012647212483,-0.0186228435487,83.8027954102,0.0,6000.0,0.0058147800155,0.00330224260688,0.0,0.0,0.349065840244,0.0216827709228,-0.0129872281104,0.299417108297,-0.00310365529731,-0.00310365529731,0.0169130060822,0.0133885797113,153.866424561,153.866424561,-52.8418693542,0.0141738187522,2047,2038,2594,2042,2042,2966,3421,3425,3254,3360,3094,3001,3129,3104,3213,2787,3386,3402,3234,3355,3121,3335,3380,3185
1508409752943619161,100,1508409752943304204,plot_matl,0.25,-4000.0,0.233326226473,-0.0124983815476,-0.0166737753898,-69.6553497314,0.349065840244,0.0337370336056,0.00580781977624,0.233291491866,0.0061131361872,0.0061131361872,-0.00997958611697,-0.0118048815057,-62.0,-62.0,0.02630353719,83.9333190918,2031,2061,2110,2028,2028,2718,3321,3345,3154,3295,3012,2957,3050,3076,3162,2909,3381,3376,3213,3279,2934,3277,3308,3030,0.009991429,1.000021473,0.9991429,0.401425719261,4500.0,0.38280287385,0.012647212483,-0.0186228435487,83.8027954102,0.0,6000.0,0.0058147800155,0.00330224260688,0.0,0.0,0.349065840244,0.0265011657029,-0.0129865882918,0.299371987581,0.044275585562,0.044275585562,0.00154574797489,0.0142524726689,153.680465698,153.680465698,-52.8802528381,0.0351863689721,2034,2030,2594,2042,2042,2966,3421,3425,3254,3360,3094,3001,3129,3104,3213,2787,3388,3401,3231,3354,3121,3338,3378,3185
1508409752953791457,101,1508409752953310792,plot_matl,0.25,-4000.0,0.233206406236,-0.0100772315636,-0.0167935919017,-88.0794448853,0.349065840244,0.0323875546455,0.00584589922801,0.233192577958,-0.0071337390691,-0.0071337390691,0.00268234219402,-0.00979604106396,-62.0,-62.0,-0.153406277299,83.9167022705,2031,2061,2110,2028,2028,2718,3321,3345,3154,3295,3012,2957,3050,3076,3162,2909,3381,3376,3213,3279,2934,3277,3308,3030,0.010006273,1.010027972,1.010633573,0.401425719261,4500.0,0.38145339489,-0.0146770188585,-0.0199723243713,89.8754577637,0.0,6000.0,0.00584204448387,0.00275933765806,0.0,0.0,0.349065840244,0.0216827709228,-0.0129702724516,0.299391895533,-0.00608630804345,-0.00608630804345,0.00120426493231,-0.0482946634293,153.751052856,153.751052856,-52.9481430054,0.34089204669,2034,2030,2594,2042,2042,2966,3421,3425,3254,3360,3094,3001,3129,3104,3213,2787,3388,3401,3231,3354,3121,3338,3378,3185
1508409752963619486,102,1508409752963276198,plot_matl,0.25,-4000.0,0.233178257942,-0.00951204542071,-0.0168217383325,-69.5335769653,0.349065840244,0.0323875546455,0.00585110811517,0.233196958899,-0.0066762091592,-0.0066762091592,0.00259109982289,-0.0098922830075,-62.0,-62.0,-0.202830791473,83.6675949097,2033,2084,2110,2030,2030,2718,3326,3346,3154,3314,3027,2968,3058,3076,3162,2909,3381,3376,3213,3279,2934,3277,3308,3030,0.009964448,1.019993001,1.016373696,0.401425719261,4500.0,0.38145339489,-0.0128391804174,-0.0199723243713,89.8754577637,0.0,6000.0,0.00584356719628,0.00274688261561,0.0,0.0,0.349065840244,0.0216827709228,-0.0129766520113,0.299535006285,-0.00613834615797,-0.00613834615797,0.00132691883482,0.0106940055266,153.7837677,153.7837677,-52.8847465515,0.257978856564,2032,2044,2594,2041,2041,2965,3423,3424,3253,3378,3108,3013,3137,3104,3213,2787,3388,3401,3231,3354,3121,3338,3378,3185
1508409752973709229,103,1508409752973313461,plot_matl,0.25,-4000.0,0.233123853803,-0.00844644661993,-0.0168761461973,-69.544380188,0.349065840244,0.0350865162909,0.00585189741105,0.233140543103,0.020502269268,0.020502269268,0.00257307384163,-0.00878743920475,-62.0,-62.0,-0.0408860109746,83.4719696045,2015,2070,2110,2030,2030,2718,3326,3346,3154,3314,3027,2968,3058,3084,3172,2916,3391,3384,3221,3285,2939,3283,3311,3030,0.010037489,1.030030731,1.033861367,0.401425719261,4500.0,0.38280287385,0.0132201397792,-0.0186228435487,83.8027954102,0.0,6000.0,0.00584348617122,-0.0106817353517,0.0,0.0,0.349065840244,0.0216827709228,-0.0130084855482,0.299367338419,-0.00586163904518,-0.00586163904518,-0.0133813833818,0.0141441822052,153.788726807,153.788726807,-52.8007354736,0.0658998116851,2024,2032,2594,2041,2041,2965,3423,3424,3253,3378,3108,3013,3137,3111,3221,2792,3397,3409,3240,3362,3126,3340,3383,3185
1508409752983719495,104,1508409752983305362,plot_matl,0.25,-4000.0,0.23314987123,-0.00898367539048,-0.0168501250446,-69.6487960815,0.349065840244,0.0337370336056,0.00586377829313,0.233167603612,0.00661073625088,0.00661073625088,0.00233445083722,-0.00934635661542,-62.0,-62.0,-0.0644098371267,83.4244842529,2007,2059,2110,2030,2030,2724,3328,3347,3157,3298,3015,2968,3058,3084,3172,2916,3391,3384,3221,3285,2939,3283,3311,3034,0.009991479,1.040022717,1.039113816,0.401425719261,4500.0,0.38280287385,0.0127084199339,-0.0186228435487,83.8027954102,0.0,6000.0,0.00586829567328,0.0022438634187,0.0,0.0,0.349065840244,0.0216827709228,-0.0130186416209,0.299273073673,-0.00523735908791,-0.00523735908791,0.0021579535678,-0.0457993745804,153.746368408,153.746368408,-52.7919769287,0.238697737455,2018,2026,2594,2044,2044,2972,3427,3426,3257,3362,3094,3013,3137,3111,3221,2792,3397,3409,3240,3362,3126,3340,3383,3189
1508409752993597969,105,1508409752993301316,plot_matl,0.25,-4000.0,0.233163312078,-0.00929955113679,-0.0168366860598,-69.6707000732,0.349065840244,0.0323875546455,0.00588483409956,0.233181789517,-0.00744098657742,-0.00744098657742,0.00191220769193,-0.00967909116298,-62.0,-62.0,-0.108386665583,83.444229126,2025,2051,2110,2030,2030,2724,3328,3347,3157,3298,3015,2960,3051,3076,3164,2908,3383,3377,3215,3279,2935,3283,3311,3034,0.009995338,1.050018391,1.04951049,0.401425719261,4500.0,0.38145339489,-0.0153562985361,-0.0199723243713,89.8754577637,0.0,6000.0,0.0058885733597,0.00183722551446,0.0,0.0,0.349065840244,0.0216827709228,-0.0130131281912,0.299208790064,-0.00553900981322,-0.00553900981322,0.00204738229513,0.0174317974597,153.71156311,153.71156311,-52.5876502991,0.213337555528,2033,2025,2594,2044,2044,2972,3427,3426,3257,3362,3094,3003,3129,3102,3214,2784,3389,3403,3235,3357,3122,3340,3383,3189
1508409753003940509,106,1508409753003331203,plot_matl,0.25,-4000.0,0.233119621873,0.0295391790569,-0.0168803725392,-60.0892944336,0.349065840244,0.0337370336056,0.00588931003585,0.233096703887,0.00533655332401,0.00533655332401,0.00181272765622,-0.00793122407049,-62.0,-62.0,-0.0151780918241,83.3818817139,2013,2038,2110,2029,2029,2722,3324,3346,3155,3298,3015,2960,3051,3076,3164,2908,3383,3377,3215,3279,2935,3280,3308,3029,0.010032302,1.06004927,1.063424012,0.401425719261,4500.0,0.38145339489,-0.0164748467505,-0.0199723243713,89.8754577637,0.0,6000.0,0.00587931042537,-0.0114132137969,0.0,0.0,0.349065840244,0.0216827709228,-0.0130068361759,0.299162060022,-0.00546649005264,-0.00546649005264,0.00193157722242,0.0184400286525,153.696762085,153.696762085,-52.845413208,0.0868566781282,2013,2010,2594,2041,2041,2970,3423,3424,3255,3362,3094,3003,3129,3102,3214,2784,3389,3403,3235,3357,3122,3337,3379,3187
1508409753013657760,107,1508409753013284070,plot_matl,0.25,-4000.0,0.233119621873,0.0295391790569,-0.0168803725392,-60.0892944336,0.349065840244,0.0337370336056,0.00588931003585,0.233096703887,0.00533655332401,0.00533655332401,0.00181272765622,-0.00793122407049,-62.0,-62.0,-0.0151780918241,83.3818817139,2011,2042,2110,2029,2029,2722,3324,3346,3155,3295,3014,2958,3049,3073,3160,2908,3381,3377,3214,3279,2935,3280,3308,3029,0.009950948,1.070001495,1.064751436,0.401425719261,4500.0,0.38145339489,-0.0164748467505,-0.0199723243713,89.8754577637,0.0,6000.0,0.00587931042537,-0.0114132137969,0.0,0.0,0.349065840244,0.0216827709228,-0.0130068361759,0.299162060022,-0.00546649005264,-0.00546649005264,0.00193157722242,0.0184400286525,153.696762085,153.696762085,-52.845413208,0.0868566781282,2015,2011,2594,2041,2041,2970,3423,3424,3255,3364,3093,3001,3126,3103,3212,2784,3388,3403,3232,3357,3122,3337,3379,3187
1508409753023605438,108,1508409753023271892,plot_matl,0.25,-4000.0,0.233006000519,0.0292378216982,-0.0169939938933,-60.5647735596,0.349065840244,0.0337370336056,0.00589042017236,0.233006000519,0.00547311920673,0.00547311920673,0.00265783863142,0.0292378216982,-62.0,-62.0,-0.103100121021,83.7683258057,2011,2042,2110,2029,2029,2722,3324,3346,3155,3295,3014,2958,3049,3073,3160,2908,3381,3377,3214,3279,2935,3280,3308,3029,0.009985566,1.079988605,1.078441128,0.401425719261,4500.0,0.38280287385,0.0109462384135,-0.0186228435487,83.8027954102,0.0,6000.0,0.00589042017236,0.00265783863142,0.0,0.0,0.349065840244,0.0216827709228,-0.0129962498322,0.299336791039,-0.0053154239431,-0.0053154239431,0.00163711293135,0.0146316941828,153.798812866,153.798812866,-52.6460342407,0.111456744373,2015,2011,2594,2041,2041,2970,3423,3424,3255,3364,3093,3001,3126,3103,3212,2784,3388,3403,3232,3357,3122,3337,3379,3187
1508409753033651611,109,1508409753033308914,plot_matl,0.25,-4000.0,0.233092337847,0.0280059743673,-0.0169076565653,-60.608379364,0.349065840244,0.0323875546455,0.0058949990198,0.233092337847,-0.00764940818772,-0.00764940818772,0.00241767452098,0.0280059743673,-62.103969574,-62.103969574,0.0949829369783,83.505569458,2006,2037,2112,2030,2030,2729,3335,3346,3155,3295,3014,2958,3049,3073,3160,2908,3381,3377,3214,3279,2936,3298,3325,3050,0.010037303,1.090025938,1.094066027,0.401425719261,4500.0,0.38145339489,-0.0152988163754,-0.0199723243713,89.8754577637,0.0,6000.0,0.0058949990198,0.00241767452098,0.0,0.0,0.349065840244,0.0216827709228,-0.013007231988,0.299354702234,-0.00435250392184,-0.00435250392184,0.0018795914948,0.0143288159743,153.835266113,153.835266113,-52.562210083,0.255809277296,2006,2011,2593,2041,2041,2976,3432,3424,3255,3364,3093,3001,3126,3103,3212,2784,3388,3403,3232,3356,3122,3355,3396,3206
1508409753043656133,110,1508409753043330342,plot_matl,0.25,-4000.0,0.233195632696,0.0263856817037,-0.0168043617159,-60.4920082092,0.349065840244,0.0337370336056,0.0058868508786,0.233195632696,0.00585883622989,0.00585883622989,0.00243266392499,0.0263856817037,-62.0850715637,-62.0850715637,0.0781034454703,83.5614013672,2002,2044,2112,2030,2030,2729,3335,3355,3163,3301,3019,2963,3055,3079,3168,2912,3383,3377,3214,3279,2936,3298,3325,3050,0.010021904,1.100047742,1.10240944,0.401425719261,4500.0,0.38280287385,0.0117176724598,-0.0186228435487,83.8027954102,0.0,6000.0,0.0058868508786,0.00243266392499,0.0,0.0,0.349065840244,0.0240919683129,-0.0130288498476,0.299431234598,0.0198815520853,0.0198815520853,0.00235299183987,0.0128333130851,153.751602173,153.751602173,-52.7883911133,0.399117916822,2007,2013,2593,2041,2041,2976,3432,3430,3261,3369,3099,3008,3131,3105,3217,2787,3392,3403,3232,3356,3122,3355,3396,3206
1508409753053645405,111,1508409753053341812,plot_matl,0.25,-4000.0,0.233206570148,-0.0114743718877,-0.0167934298515,-69.6953582764,0.349065840244,0.0337370336056,0.00587813928723,0.233206570148,0.00579086644575,0.00579086644575,-0.010928648524,-0.0114743718877,-62.0696144104,-62.0696144104,0.137493118644,83.7167282104,2001,2029,2111,2029,2029,2729,3335,3355,3163,3301,3019,2963,3055,3079,3168,2912,3383,3383,3218,3283,2938,3282,3311,3032,0.010012046,1.110059738,1.111337106,0.401425719261,4500.0,0.38280287385,0.0115817328915,-0.0186228435487,83.8027954102,0.0,6000.0,0.00587813928723,-0.010928648524,0.0,0.0,0.349065840244,0.0216827709228,-0.01302350685,0.299476563931,-0.00323156639934,-0.00323156639934,-0.0131079200655,-0.0500773377717,153.68888855,153.68888855,-52.8687858582,0.503096938133,2005,2006,2594,2039,2039,2976,3432,3430,3261,3369,3099,3008,3131,3105,3217,2787,3392,3404,3237,3358,3126,3338,3382,3187
1508409753063648696,112,1508409753063276668,plot_matl,0.25,-4000.0,0.23321467638,-0.0113853998482,-0.0167853273451,-69.3458862305,0.349065840244,0.0337370336056,0.00587813928723,0.233206570148,0.00579086644575,0.00579086644575,-0.010928648524,-0.0114743718877,-62.0696144104,-62.0696144104,0.137493118644,83.7167282104,1999,2032,2111,2029,2029,2724,3326,3349,3157,3297,3014,2958,3049,3076,3163,2912,3383,3383,3218,3283,2938,3282,3311,3032,0.00993213,1.119993401,1.11239856,0.401425719261,4500.0,0.38145339489,-0.0152484206483,-0.0199723243713,89.8754577637,0.0,6000.0,0.0058388998732,-0.0102050546557,0.0,0.0,0.349065840244,0.0216827709228,-0.01302350685,0.299476563931,-0.00323156639934,-0.00323156639934,-0.0131079200655,-0.0500773377717,153.68888855,153.68888855,-52.8687858582,0.503096938133,2007,2012,2594,2039,2039,2970,3426,3427,3257,3363,3096,3001,3128,3104,3213,2787,3392,3404,3237,3358,3126,3338,3382,3187
1508409753073744680,113,1508409753073285973,plot_matl,0.25,-4000.0,0.233223125339,-0.01135945227,-0.0167768765241,-69.6474304199,0.349065840244,0.0337370336056,0.00587813928723,0.233206570148,0.00579086644575,0.00579086644575,-0.010928648524,-0.0114743718877,-62.0696144104,-62.0696144104,0.137493118644,83.7167282104,2017,2044,2112,2029,2029,2724,3326,3349,3157,3297,3014,2958,3049,3076,3163,2910,3382,3378,3216,3282,2936,3280,3308,3033,0.010009735,1.130003127,1.131100055,0.401425719261,4500.0,0.38145339489,-0.0143794175237,-0.0199723243713,89.8754577637,0.0,6000.0,0.00581536954269,-0.00978004001081,0.0,0.0,0.349065840244,0.0216827709228,-0.01302350685,0.299476563931,-0.00323156639934,-0.00323156639934,-0.0131079200655,-0.0500773377717,153.68888855,153.68888855,-52.8687858582,0.503096938133,2022,2017,2594,2039,2039,2970,3426,3427,3257,3363,3096,3001,3128,3104,3213,2785,3388,3402,3233,3355,3123,3338,3381,3185
1508409753083747705,114,1508409753083283734,plot_matl,0.25,-4000.0,0.233195006847,-0.0106604890898,-0.0168049987406,-69.6873474121,0.349065840244,0.0337370336056,0.00587813928723,0.233206570148,0.00579086644575,0.00579086644575,-0.010928648524,-0.0114743718877,-62.0696144104,-62.0696144104,0.137493118644,83.7167282104,1990,2039,2112,2027,2027,2722,3326,3348,3155,3296,3013,2956,3051,3076,3163,2910,3382,3378,3216,3282,2936,3280,3308,3033,0.009998517,1.140001056,1.139830938,0.401425719261,4500.0,0.38280287385,0.0144514217973,-0.0186228435487,83.8027954102,0.0,6000.0,0.00581028079614,0.00369328865781,0.0,0.0,0.349065840244,0.0216827709228,-0.01302350685,0.299476563931,-0.00323156639934,-0.00323156639934,-0.0131079200655,-0.0500773377717,153.68888855,153.68888855,-52.8687858582,0.503096938133,2001,2006,2594,2041,2041,2970,3425,3425,3258,3360,3095,3000,3128,3104,3213,2785,3388,3402,3233,3355,3123,3338,3381,3185
1508409753093620298,115,1508409753093307389,plot_matl,0.25,-4000.0,0.233142539859,-0.00941740442067,-0.0168574620038,-69.5331115723,0.349065840244,0.0337370336056,0.00581028079614,0.233195006847,0.00722571089864,0.00722571089864,0.00369328865781,-0.0106604890898,-62.0381889343,-62.0381889343,0.3435113132,83.6900787354,2001,2047,2112,2027,2027,2722,3326,3348,3155,3296,3013,2956,3051,3072,3163,2910,3381,3379,3215,3281,2935,3278,3307,3033,0.010022212,1.150024544,1.15255438,0.401425719261,4500.0,0.38145339489,-0.0142715424299,-0.0199723243713,89.8754577637,0.0,6000.0,0.00580322183669,-0.0096415085718,0.0,0.0,0.349065840244,0.0216827709228,-0.0130621446297,0.299317389727,-0.00263844849542,-0.00263844849542,0.00304753007367,-0.0467712655663,153.799087524,153.799087524,-52.7490882874,0.619482159615,2009,2012,2594,2041,2041,2970,3425,3425,3258,3360,3095,3000,3128,3101,3212,2786,3389,3400,3234,3355,3122,3337,3378,3185
1508409753103718410,116,1508409753103302236,plot_matl,0.25,-4000.0,0.233168795705,0.0280657541007,-0.0168312117457,-60.7394714355,0.349065840244,0.0337370336056,0.00581028079614,0.233195006847,0.00722571089864,0.00722571089864,0.00369328865781,-0.0106604890898,-62.0381889343,-62.0381889343,0.3435113132,83.6900787354,2009,2059,2112,2027,2027,2723,3325,3344,3156,3294,3015,2956,3051,3072,3163,2910,3381,3379,3215,3281,2935,3278,3307,3031,0.009996461,1.160020107,1.159589476,0.401425719261,4500.0,0.38145339489,-0.0142370434478,-0.0199723243713,89.8754577637,0.0,6000.0,0.0058126389049,0.00355806737207,0.0,0.0,0.349065840244,0.0216827709228,-0.0130621446297,0.299317389727,-0.00263844849542,-0.00263844849542,0.00304753007367,-0.0467712655663,153.799087524,153.799087524,-52.7490882874,0.619482159615,2021,2024,2595,2042,2042,2969,3424,3422,3255,3362,3095,3000,3128,3101,3212,2786,3389,3400,3234,3355,3122,3337,3378,3187
1508409753113906281,117,1508409753113350640,plot_matl,0.25,-4000.0,0.233168795705,0.0280657541007,-0.0168312117457,-60.7394714355,0.349065840244,0.0337370336056,0.00581028079614,0.233195006847,0.00722571089864,0.00722571089864,0.00369328865781,-0.0106604890898,-62.0381889343,-62.0381889343,0.3435113132,83.6900787354,1997,2033,2112,2027,2027,2723,3325,3344,3156,3294,3015,2958,3049,3074,3161,2907,3380,3376,3214,3283,2934,3278,3307,3031,0.010047631,1.170068075,1.175572827,0.401425719261,4500.0,0.38145339489,-0.0142370434478,-0.0199723243713,89.8754577637,0.0,6000.0,0.0058126389049,0.00355806737207,0.0,0.0,0.349065840244,0.0216827709228,-0.0130621446297,0.299317389727,-0.00263844849542,-0.00263844849542,0.00304753007367,-0.0467712655663,153.799087524,153.799087524,-52.7490882874,0.619482159615,2005,2005,2595,2042,2042,2969,3424,3422,3255,3362,3095,3000,3126,3102,3212,2784,3386,3400,3233,3355,3122,3337,3378,3187
1508409753123681333,118,1508409753123291615,plot_matl,0.25,-4000.0,0.233208954334,0.0274299066514,-0.0167910456657,-60.5079269409,0.349065840244,0.0337370336056,0.00581028079614,0.233195006847,0.00722571089864,0.00722571089864,0.00369328865781,-0.0106604890898,-62.0381889343,-62.0381889343,0.3435113132,83.6900787354,2019,2048,2112,2027,2027,2723,3326,3346,3157,3294,3015,2958,3049,3074,3161,2907,3380,3376,3214,3283,2934,3279,3307,3030,0.00994055,1.180009196,1.1729849,0.401425719261,4500.0,0.38280287385,0.012119227089,-0.0186228435487,83.8027954102,0.0,6000.0,0.00580399576575,-0.00974220596254,0.0,0.0,0.349065840244,0.0216827709228,-0.0130621446297,0.299317389727,-0.00263844849542,-0.00263844849542,0.00304753007367,-0.0467712655663,153.799087524,153.799087524,-52.7490882874,0.619482159615,2016,2019,2595,2041,2041,2970,3423,3423,3257,3362,3095,3000,3126,3102,3212,2784,3386,3400,3233,3355,3122,3338,3380,3186
1508409753133659433,119,1508409753133308347,plot_matl,0.25,-4000.0,0.233183920383,-0.00990800745785,-0.0168160833418,-69.6962585449,0.349065840244,0.0337370336056,0.00580399576575,0.233208954334,0.00605961354449,0.00605961354449,-0.00974220596254,0.0274299066514,-62.0171775818,-62.0171775818,0.40184032917,83.5460968018,2024,2049,2112,2027,2027,2723,3326,3346,3157,3296,3015,2957,3049,3075,3163,2907,3381,3380,3214,3283,2934,3279,3307,3030,0.010014987,1.190025902,1.191783453,0.401425719261,4500.0,0.38145339489,-0.0158965606242,-0.0199723243713,89.8754577637,0.0,6000.0,0.00579896057025,0.00376266660169,0.0,0.0,0.349065840244,0.0240919683129,-0.0130659416318,0.299209117889,0.0211585592479,0.0211585592479,0.00311619578861,0.017169341445,153.839141846,153.839141846,-53.2930297852,0.0432929731905,2031,2025,2595,2041,2041,2970,3423,3423,3257,3361,3096,2999,3127,3101,3214,2786,3388,3401,3232,3355,3122,3338,3380,3186
1508409753143819003,120,1508409753143325013,plot_matl,0.25,-4000.0,0.233198493719,-0.0101539781317,-0.0168015044183,-69.5908508301,0.349065840244,0.0337370336056,0.00580399576575,0.233208954334,0.00605961354449,0.00605961354449,-0.00974220596254,0.0274299066514,-62.0171775818,-62.0171775818,0.40184032917,83.5460968018,2017,2031,2112,2029,2029,2723,3326,3346,3157,3296,3015,2957,3049,3075,3163,2907,3381,3380,3214,3279,2935,3278,3307,3030,0.010017684,1.200042524,1.20212208,0.401425719261,4500.0,0.38280287385,0.012182042934,-0.0186228435487,83.8027954102,0.0,6000.0,0.0057941894047,0.00384458247572,0.0,0.0,0.349065840244,0.0240919683129,-0.0130659416318,0.299209117889,0.0211585592479,0.0211585592479,0.00311619578861,0.017169341445,153.839141846,153.839141846,-53.2930297852,0.0432929731905,2019,2013,2595,2041,2041,2971,3423,3423,3257,3361,3096,2999,3127,3101,3214,2786,3388,3401,3232,3354,3123,3337,3377,3185
1508409753153675071,121,1508409753153302968,plot_matl,0.25,-4000.0,0.233198493719,-0.0101539781317,-0.0168015044183,-69.5908508301,0.349065840244,0.0337370336056,0.00580399576575,0.233208954334,0.00605961354449,0.00605961354449,-0.00974220596254,0.0274299066514,-62.0171775818,-62.0171775818,0.40184032917,83.5460968018,2017,2031,2112,2029,2029,2723,3326,3346,3157,3296,3015,2957,3049,3075,3163,2907,3381,3380,3214,3279,2935,3278,3307,3030,0.009975619,1.210020022,1.207049899,0.401425719261,4500.0,0.38280287385,0.012182042934,-0.0186228435487,83.8027954102,0.0,6000.0,0.0057941894047,0.00384458247572,0.0,0.0,0.349065840244,0.0240919683129,-0.0130659416318,0.299209117889,0.0211585592479,0.0211585592479,0.00311619578861,0.017169341445,153.839141846,153.839141846,-53.2930297852,0.0432929731905,2019,2013,2595,2041,2041,2971,3423,3423,3257,3361,3096,2999,3127,3101,3214,2786,3388,3401,3232,3354,3123,3337,3377,3185
1508409753163442828,122,1508409753163265206,plot_matl,0.25,-4000.0,0.233555540442,0.0204768273979,-0.0164444651455,-60.7507705688,0.349065840244,0.0337370336056,0.00580399576575,0.233208954334,0.00605961354449,0.00605961354449,-0.00974220596254,0.0274299066514,-62.0171775818,-62.0171775818,0.40184032917,83.5460968018,2013,2043,2112,2029,2029,2723,3326,3346,3155,3295,3013,2956,3050,3072,3164,2907,3380,3380,3214,3279,2935,3278,3307,3030,0.009961049,1.219981885,1.215247978,0.401425719261,4500.0,0.38145339489,-0.0109796086326,-0.0199723243713,89.8754577637,0.0,6000.0,0.00581117672846,-0.0100213773549,0.0,0.0,0.349065840244,0.0240919683129,-0.0130659416318,0.299209117889,0.0211585592479,0.0211585592479,0.00311619578861,0.017169341445,153.839141846,153.839141846,-53.2930297852,0.0432929731905,2028,2029,2595,2041,2041,2971,3423,3424,3256,3362,3094,3001,3127,3102,3212,2783,3388,3401,3232,3354,3123,3337,3377,3185
1508409753173642124,123,1508409753173281401,plot_matl,0.25,-4000.0,0.23346580565,-0.0155766867101,-0.016534190625,-70.0867156982,0.349065840244,0.0323875546455,0.00582534074783,0.233548641205,-0.00565694877878,-0.00565694877878,0.00312752882019,-0.0173051059246,-62.0078582764,-62.0078582764,-0.0300405696034,83.0750427246,2030,2071,2112,2027,2027,2723,3326,3346,3155,3295,3013,2956,3050,3072,3164,2907,3380,3403,3234,3298,2948,3295,3321,3045,0.010017847,1.229998857,1.232195181,0.401425719261,4500.0,0.38145339489,-0.0104722166434,-0.0199723243713,89.8754577637,0.0,6000.0,0.00581855932251,0.00327025912702,0.0,0.0,0.349065840244,0.0216827709228,-0.0130164828151,0.299505591393,-0.00634602224454,-0.00634602224454,0.00363682000898,0.0113361952826,153.727798462,153.727798462,-54.0425186157,0.498957723379,2037,2034,2595,2040,2040,2971,3423,3424,3256,3362,3094,3001,3127,3102,3212,2783,3388,3427,3254,3373,3138,3353,3393,3201
1508409753183811873,124,1508409753183306813,plot_matl,0.25,-4000.0,0.233464688063,-0.0155606102198,-0.0165353119373,-70.0597686768,0.349065840244,0.0323875546455,0.00582534074783,0.233548641205,-0.00565694877878,-0.00565694877878,0.00312752882019,-0.0173051059246,-62.0078582764,-62.0078582764,-0.0300405696034,83.0750427246,2006,2055,2112,2027,2027,2733,3336,3353,3163,3303,3020,2963,3054,3079,3168,2907,3380,3403,3234,3298,2948,3295,3321,3045,0.010025556,1.240024609,1.243168944,0.401425719261,4500.0,0.38145339489,-0.0100664393976,-0.0199723243713,89.8754577637,0.0,6000.0,0.00582429440692,0.00316438730806,0.0,0.0,0.349065840244,0.0216827709228,-0.0130164828151,0.299505591393,-0.00634602224454,-0.00634602224454,0.00363682000898,0.0113361952826,153.727798462,153.727798462,-54.0425186157,0.498957723379,2024,2027,2595,2040,2040,2979,3433,3432,3265,3368,3102,3007,3132,3106,3218,2783,3388,3427,3254,3373,3138,3353,3393,3201
1508409753193782615,125,1508409753193312465,plot_matl,0.25,-4000.0,0.233500525355,0.0216946993023,-0.01649947837,-60.4691848755,0.349065840244,0.0323875546455,0.00582534074783,0.233548641205,-0.00565694877878,-0.00565694877878,0.00312752882019,-0.0173051059246,-62.0078582764,-62.0078582764,-0.0300405696034,83.0750427246,2036,2083,2112,2027,2027,2733,3336,3353,3163,3303,3020,2963,3054,3079,3168,2910,3385,3381,3218,3285,2937,3280,3311,3031,0.010004916,1.25003008,1.2506145,0.401425719261,4500.0,0.38145339489,-0.00926894135773,-0.0199723243713,89.8754577637,0.0,6000.0,0.00583965145051,0.00284374016337,0.0,0.0,0.349065840244,0.0216827709228,-0.0130164828151,0.299505591393,-0.00634602224454,-0.00634602224454,0.00363682000898,0.0113361952826,153.727798462,153.727798462,-54.0425186157,0.498957723379,2042,2044,2595,2040,2040,2979,3433,3432,3265,3368,3102,3007,3132,3106,3218,2786,3393,3407,3236,3359,3126,3339,3382,3186
1508409753203608690,126,1508409753203283769,plot_matl,0.25,-4000.0,0.233526647091,-0.0166139584035,-0.0164733547717,-69.6983032227,0.349065840244,0.0323875546455,0.00582534074783,0.233548641205,-0.00565694877878,-0.00565694877878,0.00312752882019,-0.0173051059246,-62.0078582764,-62.0078582764,-0.0300405696034,83.0750427246,2027,2062,2112,2029,2029,2728,3327,3349,3156,3298,3017,2959,3050,3079,3168,2910,3385,3381,3218,3285,2937,3280,3311,3031,0.009969635,1.260000682,1.25617401,0.401425719261,4500.0,0.38145339489,-0.00959711894393,-0.0199723243713,89.8754577637,0.0,6000.0,0.00584082957357,0.00282039865851,0.0,0.0,0.349065840244,0.0216827709228,-0.0130164828151,0.299505591393,-0.00634602224454,-0.00634602224454,0.00363682000898,0.0113361952826,153.727798462,153.727798462,-54.0425186157,0.498957723379,2028,2030,2595,2042,2042,2974,3426,3426,3259,3362,3097,3001,3129,3106,3218,2786,3393,3407,3236,3359,3126,3339,3382,3186
1508409753213755081,127,1508409753213295088,plot_matl,0.25,-4000.0,0.233526647091,-0.0166139584035,-0.0164733547717,-69.6983032227,0.349065840244,0.0323875546455,0.00584299396724,0.233516812325,-0.00435210065916,-0.00435210065916,0.00277975643985,-0.0164464749396,-61.9782295227,-61.9782295227,0.396146327257,83.2214736938,2034,2064,2112,2029,2029,2728,3327,3349,3156,3298,3017,2959,3050,3076,3162,2907,3384,3379,3214,3280,2935,3278,3307,3031,0.010012262,1.270012694,1.271557274,0.401425719261,4500.0,0.38280287385,0.0159043427557,-0.0186228435487,83.8027954102,0.0,6000.0,0.00584082957357,0.00282039865851,0.0,0.0,0.349065840244,0.0216827709228,-0.0129911862314,0.29939866066,-0.00463622855023,-0.00463622855023,0.00223954487592,0.0134616103023,153.813659668,153.813659668,-53.499961853,-0.0390665531158,2035,2032,2595,2042,2042,2974,3426,3426,3259,3362,3097,3001,3129,3104,3215,2780,3387,3402,3234,3355,3123,3337,3380,3186
1508409753223680400,128,1508409753223280008,plot_matl,0.25,-4000.0,0.233515053988,-0.0163685176522,-0.0164849422872,-69.7338027954,0.349065840244,0.0323875546455,0.00584299396724,0.233516812325,-0.00435210065916,-0.00435210065916,0.00277975643985,-0.0164464749396,-61.9782295227,-61.9782295227,0.396146327257,83.2214736938,2039,2069,2112,2030,2030,2728,3327,3348,3156,3297,3016,2959,3050,3076,3162,2907,3384,3379,3214,3280,2935,3278,3307,3031,0.009983361,1.279997047,1.277870208,0.401425719261,4500.0,0.38280287385,0.0159043427557,-0.0186228435487,83.8027954102,0.0,6000.0,0.0058275051415,-0.0103321699426,0.0,0.0,0.349065840244,0.0216827709228,-0.0129911862314,0.29939866066,-0.00463622855023,-0.00463622855023,0.00223954487592,0.0134616103023,153.813659668,153.813659668,-53.499961853,-0.0390665531158,2046,2042,2596,2038,2038,2972,3425,3425,3257,3362,3096,3001,3129,3104,3215,2780,3387,3402,3234,3355,3123,3337,3380,3184
1508409753233746242,129,1508409753233276358,plot_matl,0.25,-4000.0,0.233468666673,0.0605078414083,-0.0165313333273,-50.9114875793,0.349065840244,0.0323875546455,0.00584299396724,0.233516812325,-0.00435210065916,-0.00435210065916,0.00277975643985,-0.0164464749396,-61.9782295227,-61.9782295227,0.396146327257,83.2214736938,2047,2057,2112,2030,2030,2728,3327,3348,3156,3297,3016,2959,3051,3074,3162,2904,3382,3378,3213,3281,2934,3278,3307,3031,0.009996356,1.289993698,1.289529924,0.401425719261,4500.0,0.38280287385,0.0173082929105,-0.0186228435487,83.8027954102,0.0,6000.0,0.00585538474843,0.00252707791515,0.0,0.0,0.349065840244,0.0216827709228,-0.0129911862314,0.29939866066,-0.00463622855023,-0.00463622855023,0.00223954487592,0.0134616103023,153.813659668,153.813659668,-53.499961853,-0.0390665531158,2043,2034,2596,2038,2038,2972,3425,3425,3257,3362,3096,3000,3129,3100,3211,2778,3386,3400,3232,3357,3123,3337,3380,3184
1508409753243514346,130,1508409753243261325,plot_matl,0.25,-4000.0,0.233437269926,0.0232562366873,-0.0165627356619,-60.0157623291,0.349065840244,0.0323875546455,0.00584299396724,0.233516812325,-0.00435210065916,-0.00435210065916,0.00277975643985,-0.0164464749396,-61.9782295227,-61.9782295227,0.396146327257,83.2214736938,2033,2058,2112,2029,2029,2727,3324,3347,3156,3297,3016,2959,3051,3074,3162,2904,3382,3378,3213,3281,2934,3277,3307,3028,0.009982495,1.299977668,1.29772435,0.401425719261,4500.0,0.38280287385,0.01559556555,-0.0186228435487,83.8027954102,0.0,6000.0,0.0058666956611,0.00230996217579,0.0,0.0,0.349065840244,0.0216827709228,-0.0129911862314,0.29939866066,-0.00463622855023,-0.00463622855023,0.00223954487592,0.0134616103023,153.813659668,153.813659668,-53.499961853,-0.0390665531158,2033,2033,2595,2041,2041,2971,3421,3423,3255,3362,3096,3000,3129,3100,3211,2778,3386,3400,3232,3357,3123,3338,3378,3186
1508409753253518230,131,1508409753253298186,plot_matl,0.25,-4000.0,0.233449086547,-0.0148276695982,-0.0165509153157,-69.834854126,0.349065840244,0.0337370336056,0.00586943747476,0.233414441347,0.00819031149149,0.00819031149149,0.00224253372289,-0.014192786999,-61.9902305603,-61.9902305603,0.294957727194,83.2303009033,2045,2082,2112,2029,2029,2727,3324,3347,3156,3296,3015,2957,3048,3075,3161,2904,3383,3377,3214,3281,2934,3277,3307,3028,0.010038979,1.310015586,1.315106249,0.401425719261,4500.0,0.38145339489,-0.0118744280189,-0.0199723243713,89.8754577637,0.0,6000.0,0.00588712515309,0.00189415249042,0.0,0.0,0.349065840244,0.0216827709228,-0.0130140250549,0.299505293369,-0.00430452311411,-0.00430452311411,0.00232909363694,0.0114536695182,153.887527466,153.887527466,-52.9341926575,0.324083507061,2049,2051,2595,2041,2041,2971,3421,3423,3255,3363,3095,3002,3128,3100,3213,2779,3388,3400,3231,3357,3123,3338,3378,3186
1508409753263705588,132,1508409753263311615,plot_matl,0.25,-4000.0,0.233381077647,-0.0134766381234,-0.0166189242154,-69.8547363281,0.349065840244,0.0337370336056,0.00586943747476,0.233414441347,0.00819031149149,0.00819031149149,0.00224253372289,-0.014192786999,-61.9902305603,-61.9902305603,0.294957727194,83.2303009033,2030,2055,2110,2029,2029,2725,3324,3347,3156,3296,3015,2957,3048,3075,3161,2904,3383,3377,3214,3279,2934,3278,3306,3029,0.010012291,1.320028805,1.321622412,0.401425719261,4500.0,0.38145339489,-0.0111803123727,-0.0199723243713,89.8754577637,0.0,6000.0,0.00589032797143,-0.0116013502702,0.0,0.0,0.349065840244,0.0216827709228,-0.0130140250549,0.299505293369,-0.00430452311411,-0.00430452311411,0.00232909363694,0.0114536695182,153.887527466,153.887527466,-52.9341926575,0.324083507061,2030,2030,2593,2038,2038,2972,3425,3423,3255,3363,3095,3002,3128,3100,3213,2779,3388,3400,3231,3354,3124,3337,3380,3186
1508409753273686499,133,1508409753273290471,plot_matl,0.25,-4000.0,0.233326137066,-0.0124479001388,-0.0166738573462,-69.70703125,0.349065840244,0.0337370336056,0.00586943747476,0.233414441347,0.00819031149149,0.00819031149149,0.00224253372289,-0.014192786999,-61.9902305603,-61.9902305603,0.294957727194,83.2303009033,2027,2051,2110,2029,2029,2725,3324,3347,3156,3298,3014,2959,3052,3073,3160,2906,3380,3377,3214,3279,2934,3278,3306,3029,0.009978365,1.33000751,1.327122545,0.401425719261,4500.0,0.38145339489,-0.0111266970634,-0.0199723243713,89.8754577637,0.0,6000.0,0.00590659352019,0.00148780515883,0.0,0.0,0.349065840244,0.0216827709228,-0.0130140250549,0.299505293369,-0.00430452311411,-0.00430452311411,0.00232909363694,0.0114536695182,153.887527466,153.887527466,-52.9341926575,0.324083507061,2034,2025,2593,2038,2038,2972,3425,3424,3255,3362,3092,3002,3126,3101,3212,2781,3386,3400,3231,3354,3124,3337,3380,3186
1508409753283618950,134,1508409753283275802,plot_matl,0.25,-4000.0,0.233351290226,-0.0129398470744,-0.0166487060487,-69.8672027588,0.349065840244,0.0337370336056,0.00586943747476,0.233414441347,0.00819031149149,0.00819031149149,0.00224253372289,-0.014192786999,-61.9902305603,-61.9902305603,0.294957727194,83.2303009033,2040,2062,2112,2027,2027,2725,3324,3347,3156,3298,3014,2959,3052,3073,3160,2906,3380,3374,3211,3280,2933,3277,3307,3030,0.009984729,1.33999268,1.337953686,0.401425719261,4500.0,0.38280287385,0.014127233997,-0.0186228435487,83.8027954102,0.0,6000.0,0.00588485179469,0.00195392686874,0.0,0.0,0.349065840244,0.0216827709228,-0.0130140250549,0.299505293369,-0.00430452311411,-0.00430452311411,0.00232909363694,0.0114536695182,153.887527466,153.887527466,-52.9341926575,0.324083507061,2041,2035,2594,2039,2039,2972,3425,3424,3255,3362,3092,3002,3126,3101,3212,2781,3386,3402,3232,3354,3122,3336,3380,3184
1508409753293584621,135,1508409753293281167,plot_matl,0.25,-4000.0,0.233411431313,-0.0141247017309,-0.0165885686874,-69.6939544678,0.349065840244,0.0323875546455,0.00590303121135,0.233326435089,-0.00597155233845,-0.00597155233845,0.00156454998069,0.0254596248269,-61.9956092834,-61.9956092834,0.0235591437668,83.0409393311,1998,2042,2112,2027,2027,2724,3325,3347,3154,3297,3014,2958,3050,3075,3161,2906,3380,3374,3211,3280,2933,3277,3307,3030,0.010005276,1.349998407,1.35071226,0.401425719261,4500.0,0.38145339489,-0.0122967157513,-0.0199723243713,89.8754577637,0.0,6000.0,0.0058909249492,0.00182572752237,0.0,0.0,0.349065840244,0.0216827709228,-0.0130233205855,0.299703896046,-0.00332279293798,-0.00332279293798,0.00236431811936,0.0074777463451,153.750152588,153.750152588,-52.798160553,0.250031769276,2015,2013,2594,2039,2039,2970,3422,3424,3255,3362,3092,3001,3127,3103,3213,2781,3386,3402,3232,3354,3122,3336,3380,3184
1508409753303691001,136,1508409753303283818,plot_matl,0.25,-4000.0,0.23351791501,-0.0163251589984,-0.0164820868522,-69.7716522217,0.349065840244,0.0323875546455,0.00590303121135,0.233326435089,-0.00597155233845,-0.00597155233845,0.00156454998069,0.0254596248269,-61.9956092834,-61.9956092834,0.0235591437668,83.0409393311,1990,2055,2112,2027,2027,2724,3325,3347,3154,3297,3014,2958,3050,3075,3161,2906,3381,3376,3213,3279,2932,3276,3306,3030,0.010001889,1.360000686,1.360256904,0.401425719261,4500.0,0.38145339489,-0.0106028225273,-0.0199723243713,89.8754577637,0.0,6000.0,0.0058909249492,0.00182572752237,0.0,0.0,0.349065840244,0.0216827709228,-0.0130233205855,0.299703896046,-0.00332279293798,-0.00332279293798,0.00236431811936,0.0074777463451,153.750152588,153.750152588,-52.798160553,0.250031769276,2012,2027,2594,2039,2039,2970,3422,3424,3255,3362,3092,3001,3127,3103,3213,2784,3388,3400,3232,3356,3122,3336,3379,3184
1508409753313714959,137,1508409753313314050,plot_matl,0.25,-4000.0,0.23351791501,-0.0163251589984,-0.0164820868522,-69.7716522217,0.349065840244,0.0323875546455,0.00590303121135,0.233326435089,-0.00597155233845,-0.00597155233845,0.00156454998069,0.0254596248269,-61.9956092834,-61.9956092834,0.0235591437668,83.0409393311,1990,2055,2112,2027,2027,2724,3325,3347,3154,3297,3014,2958,3050,3075,3161,2906,3381,3376,3213,3279,2932,3276,3306,3030,0.010031556,1.37003159,1.374323172,0.401425719261,4500.0,0.38145339489,-0.0106028225273,-0.0199723243713,89.8754577637,0.0,6000.0,0.0058909249492,0.00182572752237,0.0,0.0,0.349065840244,0.0216827709228,-0.0130233205855,0.299703896046,-0.00332279293798,-0.00332279293798,0.00236431811936,0.0074777463451,153.750152588,153.750152588,-52.798160553,0.250031769276,2012,2027,2594,2039,2039,2970,3422,3424,3255,3362,3092,3001,3127,3103,3213,2784,3388,3400,3232,3356,3122,3336,3379,3184
1508409753323541424,138,1508409753323274815,plot_matl,0.25,-4000.0,0.233741238713,-0.0208295919001,-0.016258765012,-69.890953064,0.349065840244,0.0323875546455,0.00590303121135,0.233326435089,-0.00597155233845,-0.00597155233845,0.00156454998069,0.0254596248269,-61.9956092834,-61.9956092834,0.0235591437668,83.0409393311,1991,2020,2112,2027,2027,2722,3325,3345,3153,3295,3014,2955,3048,3075,3179,2919,3394,3387,3225,3287,2940,3285,3313,3030,0.009958915,1.379991658,1.37433027,0.401425719261,4500.0,0.38145339489,-0.00977116078138,-0.0199723243713,89.8754577637,0.0,6000.0,0.00580448331311,-0.0103959720582,0.0,0.0,0.349065840244,0.0216827709228,-0.0130233205855,0.299703896046,-0.00332279293798,-0.00332279293798,0.00236431811936,0.0074777463451,153.750152588,153.750152588,-52.798160553,0.250031769276,1999,1997,2594,2039,2039,2969,3424,3423,3255,3362,3095,2999,3127,3103,3227,2793,3398,3412,3240,3362,3129,3344,3385,3184
1508409753333651232,139,1508409753333301374,plot_matl,0.25,-4000.0,0.233622983098,-0.0184318162501,-0.0163770224899,-69.954864502,0.349065840244,0.0323875546455,0.00580448331311,0.233741238713,-0.00488558039069,-0.00488558039069,-0.0103959720582,-0.0208295919001,-61.9980316162,-61.9980316162,-0.0573479905725,83.4034423828,2020,2039,2113,2029,2029,2727,3331,3349,3159,3298,3016,2955,3048,3075,3179,2919,3394,3387,3225,3287,2940,3285,3313,3035,0.0100269,1.390018839,1.3937391,0.401425719261,4500.0,0.38145339489,-0.00946582388133,-0.0199723243713,89.8754577637,0.0,6000.0,0.00581330666319,0.00293893180788,0.0,0.0,0.349065840244,0.0240919683129,-0.0129892351106,0.299780339003,0.0201508495957,0.0201508495957,0.00159422401339,0.00590191688389,154.00163269,154.00163269,-53.0405654907,-0.142517954111,2020,2015,2595,2040,2040,2975,3428,3427,3259,3366,3096,2999,3127,3103,3227,2793,3398,3412,3240,3362,3129,3344,3385,3191
1508409753343719922,140,1508409753343282695,plot_matl,0.25,-4000.0,0.233594313264,0.0200686547905,-0.0164056867361,-60.827495575,0.349065840244,0.0323875546455,0.00580448331311,0.233741238713,-0.00488558039069,-0.00488558039069,-0.0103959720582,-0.0208295919001,-61.9980316162,-61.9980316162,-0.0573479905725,83.4034423828,2020,2039,2113,2029,2029,2727,3331,3349,3159,3298,3016,2955,3048,3075,3179,2919,3394,3387,3225,3287,2940,3285,3313,3035,0.009982053,1.400000512,1.39748742,0.401425719261,4500.0,0.38280287385,0.0180661734194,-0.0186228435487,83.8027954102,0.0,6000.0,0.0058326581493,0.00262666423805,0.0,0.0,0.349065840244,0.0240919683129,-0.0129892351106,0.299780339003,0.0201508495957,0.0201508495957,0.00159422401339,0.00590191688389,154.00163269,154.00163269,-53.0405654907,-0.142517954111,2020,2015,2595,2040,2040,2975,3428,3427,3259,3366,3096,2999,3127,3103,3227,2793,3398,3412,3240,3362,3129,3344,3385,3191
1508409753353773733,141,1508409753353308107,plot_matl,0.25,-4000.0,0.23353806138,-0.016695857048,-0.0164619386196,-69.8758468628,0.349065840244,0.0323875546455,0.00580448331311,0.233741238713,-0.00488558039069,-0.00488558039069,-0.0103959720582,-0.0208295919001,-61.9980316162,-61.9980316162,-0.0573479905725,83.4034423828,1975,2001,2113,2027,2027,2728,3329,3348,3158,3298,3016,2959,3052,3075,3164,2907,3383,3378,3215,3281,2934,3280,3309,3028,0.010024675,1.410025642,1.413479175,0.401425719261,4500.0,0.38280287385,0.0152955632657,-0.0186228435487,83.8027954102,0.0,6000.0,0.00582198053598,0.00290795019828,0.0,0.0,0.349065840244,0.0240919683129,-0.0129892351106,0.299780339003,0.0201508495957,0.0201508495957,0.00159422401339,0.00590191688389,154.00163269,154.00163269,-53.0405654907,-0.142517954111,1988,1984,2596,2036,2036,2971,3424,3424,3258,3366,3096,3002,3128,3104,3215,2783,3389,3403,3235,3357,3125,3337,3381,3186
1508409753363656160,142,1508409753363285830,plot_matl,0.25,-4000.0,0.233620852232,0.0194967016578,-0.0163791459054,-61.266582489,0.349065840244,0.0323875546455,0.00580448331311,0.233741238713,-0.00488558039069,-0.00488558039069,-0.0103959720582,-0.0208295919001,-61.9980316162,-61.9980316162,-0.0573479905725,83.4034423828,2003,2055,2113,2027,2027,2728,3329,3348,3158,3296,3014,2957,3051,3073,3161,2906,3383,3377,3212,3281,2934,3280,3309,3028,0.009977107,1.420003115,1.416749194,0.401425719261,4500.0,0.38145339489,-0.0106645058841,-0.0199723243713,89.8754577637,0.0,6000.0,0.00583815295249,0.00262037641369,0.0,0.0,0.349065840244,0.0240919683129,-0.0129892351106,0.299780339003,0.0201508495957,0.0201508495957,0.00159422401339,0.00590191688389,154.00163269,154.00163269,-53.0405654907,-0.142517954111,2021,2032,2596,2036,2036,2971,3424,3424,3258,3362,3095,3000,3129,3101,3212,2781,3389,3402,3233,3357,3125,3337,3381,3186
1508409753373671704,143,1508409753373302923,plot_matl,0.25,-4000.0,0.233599081635,0.019966442138,-0.0164009258151,-60.6236991882,0.349065840244,0.0323875546455,0.00583815295249,0.233620852232,-0.00533225294203,-0.00533225294203,0.00262037641369,0.0194967016578,-61.9991149902,-61.9991149902,0.0256130751222,83.5303726196,2003,2055,2113,2027,2027,2728,3329,3348,3158,3296,3014,2957,3051,3073,3161,2906,3383,3377,3212,3281,2934,3280,3309,3028,0.010015679,1.430019997,1.432242097,0.401425719261,4500.0,0.38145339489,-0.0107065793127,-0.0199723243713,89.8754577637,0.0,6000.0,0.00582843832672,0.0028707201127,0.0,0.0,0.349065840244,0.0216827709228,-0.0130176311359,0.299704611301,-0.00286308513023,-0.00286308513023,0.00216009630822,0.00746390037239,153.898132324,153.898132324,-52.6435241699,-0.122747465968,2021,2032,2596,2036,2036,2971,3424,3424,3258,3362,3095,3000,3129,3101,3212,2781,3389,3402,3233,3357,3125,3337,3381,3186
1508409753383712370,144,1508409753383303363,plot_matl,0.25,-4000.0,0.233710631728,0.0177685581148,-0.0162893626839,-60.984336853,0.349065840244,0.0323875546455,0.00583815295249,0.233620852232,-0.00533225294203,-0.00533225294203,0.00262037641369,0.0194967016578,-61.9991149902,-61.9991149902,0.0256130751222,83.5303726196,1991,2016,2113,2022,2022,2726,3328,3346,3155,3297,3015,2957,3049,3074,3162,2906,3378,3377,3212,3281,2934,3281,3309,3031,0.010001352,1.440020978,1.440194688,0.401425719261,4500.0,0.38145339489,-0.0117193963379,-0.0199723243713,89.8754577637,0.0,6000.0,0.00584259722382,0.00259379344061,0.0,0.0,0.349065840244,0.0216827709228,-0.0130176311359,0.299704611301,-0.00286308513023,-0.00286308513023,0.00216009630822,0.00746390037239,153.898132324,153.898132324,-52.6435241699,-0.122747465968,2005,1995,2596,2043,2043,2973,3424,3424,3257,3363,3097,3001,3126,3102,3213,2781,3386,3402,3233,3357,3121,3337,3380,3184
1508409753393726820,145,1508409753393313129,plot_matl,0.25,-4000.0,0.233796074986,-0.0219676606357,-0.0162039212883,-70.4993057251,0.349065840244,0.0323875546455,0.00583815295249,0.233620852232,-0.00533225294203,-0.00533225294203,0.00262037641369,0.0194967016578,-61.9991149902,-61.9991149902,0.0256130751222,83.5303726196,2025,2061,2114,2023,2023,2726,3328,3346,3155,3297,3015,2957,3049,3074,3162,2906,3378,3378,3214,3282,2933,3279,3307,3030,0.010008077,1.450030168,1.451171165,0.401425719261,4500.0,0.38280287385,0.0156325865537,-0.0186228435487,83.8027954102,0.0,6000.0,0.00584225030616,0.00259943539277,0.0,0.0,0.349065840244,0.0216827709228,-0.0130176311359,0.299704611301,-0.00286308513023,-0.00286308513023,0.00216009630822,0.00746390037239,153.898132324,153.898132324,-52.6435241699,-0.122747465968,2035,2029,2596,2042,2042,2973,3424,3424,3257,3363,3097,3001,3126,3102,3213,2781,3386,3401,3233,3354,3122,3338,3378,3185
1508409753403637824,146,1508409753403286026,plot_matl,0.25,-4000.0,0.233729377389,-0.0585429146886,-0.0162706188858,-79.106300354,0.349065840244,0.0323875546455,0.00583815295249,0.233620852232,-0.00533225294203,-0.00533225294203,0.00262037641369,0.0194967016578,-61.9991149902,-61.9991149902,0.0256130751222,83.5303726196,2007,2025,2114,2023,2023,2728,3324,3345,3158,3297,3015,2957,3048,3075,3160,2906,3378,3378,3214,3282,2933,3279,3307,3030,0.009972882,1.460003166,1.456040772,0.401425719261,4500.0,0.38145339489,-0.0125005347654,-0.0199723243713,89.8754577637,0.0,6000.0,0.00585523294285,0.00236980174668,0.0,0.0,0.349065840244,0.0216827709228,-0.0130176311359,0.299704611301,-0.00286308513023,-0.00286308513023,0.00216009630822,0.00746390037239,153.898132324,153.898132324,-52.6435241699,-0.122747465968,2008,2001,2596,2042,2042,2971,3422,3423,3256,3362,3095,3001,3127,3101,3211,2781,3386,3401,3233,3354,3122,3338,3378,3185
1508409753413677322,147,1508409753413300759,plot_matl,0.25,-4000.0,0.233852565289,0.0148211494088,-0.0161474272609,-61.0167922974,0.349065840244,0.0323875546455,0.00585523294285,0.233729377389,-0.00625026738271,-0.00625026738271,0.00236980174668,-0.0585429146886,-61.9996032715,-61.9996032715,-0.13010121882,83.3271179199,1993,2028,2114,2023,2023,2728,3324,3345,3158,3297,3015,2957,3048,3075,3160,2905,3381,3376,3214,3277,2933,3278,3308,3029,0.010014958,1.470018269,1.472198826,0.401425719261,4500.0,0.38145339489,-0.0132211027667,-0.0199723243713,89.8754577637,0.0,6000.0,0.00582977943122,0.00291642616503,0.0,0.0,0.349065840244,0.0216827709228,-0.0131137091666,0.299673855305,-0.0030616922304,-0.0030616922304,-0.0112558919936,-0.0539533793926,153.917053223,153.917053223,-52.5366096497,-0.5778850317,2004,2002,2597,2042,2042,2971,3422,3423,3256,3362,3095,3001,3127,3101,3211,2781,3387,3401,3232,3357,3125,3335,3378,3185
1508409753423764404,148,1508409753423294403,plot_matl,0.25,-4000.0,0.233848974109,-0.0229839924723,-0.016151022166,-69.9954986572,0.349065840244,0.0323875546455,0.00585523294285,0.233729377389,-0.00625026738271,-0.00625026738271,0.00236980174668,-0.0585429146886,-61.9996032715,-61.9996032715,-0.13010121882,83.3271179199,2030,2070,2114,2025,2025,2727,3327,3347,3156,3294,3017,2958,3049,3075,3160,2905,3381,3376,3214,3277,2933,3278,3308,3029,0.009993514,1.480011818,1.479040072,0.401425719261,4500.0,0.38280287385,0.0134603306651,-0.0186228435487,83.8027954102,0.0,6000.0,0.00579859269783,-0.00984316878021,0.0,0.0,0.349065840244,0.0216827709228,-0.0131137091666,0.299673855305,-0.0030616922304,-0.0030616922304,-0.0112558919936,-0.0539533793926,153.917053223,153.917053223,-52.5366096497,-0.5778850317,2034,2041,2597,2041,2041,2973,3424,3423,3257,3362,3095,3000,3126,3101,3211,2781,3387,3401,3232,3357,3125,3335,3378,3185
1508409753433672264,149,1508409753433295514,plot_matl,0.25,-4000.0,0.233785524964,-0.0216860305518,-0.0162144750357,-69.6391296387,0.349065840244,0.0323875546455,0.00585523294285,0.233729377389,-0.00625026738271,-0.00625026738271,0.00236980174668,-0.0585429146886,-61.9996032715,-61.9996032715,-0.13010121882,83.3271179199,1994,2035,2114,2025,2025,2727,3327,3347,3156,3294,3017,2958,3049,3072,3161,2904,3382,3376,3213,3281,2933,3278,3309,3029,0.010000625,1.4900129,1.490093125,0.401425719261,4500.0,0.38145339489,-0.0122937327251,-0.0199723243713,89.8754577637,0.0,6000.0,0.00576971564442,0.00417484901845,0.0,0.0,0.349065840244,0.0216827709228,-0.0131137091666,0.299673855305,-0.0030616922304,-0.0030616922304,-0.0112558919936,-0.0539533793926,153.917053223,153.917053223,-52.5366096497,-0.5778850317,2004,2012,2597,2041,2041,2973,3424,3423,3257,3362,3095,3000,3126,3100,3211,2781,3387,3400,3232,3354,3121,3337,3380,3185
1508409753443675169,150,1508409753443284959,plot_matl,0.25,-4000.0,0.233867064118,0.0145925236866,-0.0161329396069,-61.1041259766,0.349065840244,0.0323875546455,0.00585523294285,0.233729377389,-0.00625026738271,-0.00625026738271,0.00236980174668,-0.0585429146886,-61.9996032715,-61.9996032715,-0.13010121882,83.3271179199,1997,2038,2114,2025,2025,2728,3326,3348,3158,3297,3015,2958,3049,3072,3161,2904,3382,3376,3213,3281,2933,3278,3309,3031,0.009989375,1.500002475,1.49840625,0.401425719261,4500.0,0.38280287385,0.0122958039865,-0.0186228435487,83.8027954102,0.0,6000.0,0.00577257527038,0.00412606075406,0.0,0.0,0.349065840244,0.0216827709228,-0.0131137091666,0.299673855305,-0.0030616922304,-0.0030616922304,-0.0112558919936,-0.0539533793926,153.917053223,153.917053223,-52.5366096497,-0.5778850317,2010,2016,2597,2041,2041,2973,3422,3425,3257,3362,3096,3000,3126,3100,3211,2781,3387,3400,3232,3354,3121,3337,3380,3186
1508409753453657513,151,1508409753453282022,plot_matl,0.25,-4000.0,0.233859881759,-0.0231018494815,-0.0161401238292,-70.1108398438,0.349065840244,0.0337370336056,0.00577257527038,0.233867064118,0.00614790199324,0.00614790199324,0.00412606075406,0.0145925236866,-61.9998207092,-61.9998207092,-0.624625980854,83.6000442505,2039,2067,2114,2025,2025,2728,3326,3348,3158,3297,3015,2956,3049,3072,3161,2905,3382,3377,3212,3279,2935,3278,3309,3031,0.009995198,1.509998886,1.509274898,0.401425719261,4500.0,0.38280287385,0.0120645714924,-0.0186228435487,83.8027954102,0.0,6000.0,0.00575959170237,-0.00903545226902,0.0,0.0,0.349065840244,0.0216827709228,-0.0130932107568,0.29986089468,-0.00410226266831,-0.00410226266831,0.00366109935567,0.00418514572084,153.802856445,153.802856445,-52.4785308838,-0.877478599548,2038,2037,2597,2041,2041,2973,3422,3425,3257,3362,3096,2999,3126,3100,3210,2780,3387,3401,3235,3356,3123,3337,3380,3186
1508409753463639717,152,1508409753463276102,plot_matl,0.25,-4000.0,0.233749330044,0.0170074608177,-0.0162506625056,-61.0264778137,0.349065840244,0.0337370336056,0.00577257527038,0.233867064118,0.00614790199324,0.00614790199324,0.00412606075406,0.0145925236866,-61.9998207092,-61.9998207092,-0.624625980854,83.6000442505,2012,2038,2114,2026,2026,2728,3326,3344,3155,3297,3015,2956,3049,3072,3161,2905,3382,3377,3212,3279,2935,3278,3308,3030,0.009993554,1.519992896,1.519020208,0.401425719261,4500.0,0.38280287385,0.0118552939966,-0.0186228435487,83.8027954102,0.0,6000.0,0.00579953193665,0.00358440051787,0.0,0.0,0.349065840244,0.0216827709228,-0.0130932107568,0.29986089468,-0.00410226266831,-0.00410226266831,0.00366109935567,0.00418514572084,153.802856445,153.802856445,-52.4785308838,-0.877478599548,2012,2009,2596,2044,2044,2970,3423,3424,3257,3362,3096,2999,3126,3100,3210,2780,3387,3401,3235,3356,3123,3336,3379,3186
1508409753473731905,153,1508409753473278396,plot_matl,0.25,-4000.0,0.233830660582,0.0153223415837,-0.0161693394184,-60.9643096924,0.349065840244,0.0337370336056,0.00577257527038,0.233867064118,0.00614790199324,0.00614790199324,0.00412606075406,0.0145925236866,-61.9998207092,-61.9998207092,-0.624625980854,83.6000442505,2012,2050,2114,2026,2026,2728,3326,3344,3155,3294,3015,2957,3051,3074,3162,2906,3379,3379,3214,3279,2935,3278,3308,3030,0.010002695,1.529995621,1.530412335,0.401425719261,4500.0,0.38415235281,0.037885222584,-0.0172733608633,77.7301254272,0.0,6000.0,0.00581945804879,0.00318815000355,0.0,0.0,0.349065840244,0.0216827709228,-0.0130932107568,0.29986089468,-0.00410226266831,-0.00410226266831,0.00366109935567,0.00418514572084,153.802856445,153.802856445,-52.4785308838,-0.877478599548,2015,2021,2596,2044,2044,2970,3423,3424,3257,3363,3096,2999,3128,3100,3213,2780,3387,3400,3233,3356,3123,3336,3379,3186
1508409753483989783,154,1508409753483288899,plot_matl,0.25,-4000.0,0.233859419823,-0.0232326630503,-0.0161405745894,-70.0246429443,0.349065840244,0.0337370336056,0.00577257527038,0.233867064118,0.00614790199324,0.00614790199324,0.00412606075406,0.0145925236866,-61.9998207092,-61.9998207092,-0.624625980854,83.6000442505,2020,2071,2113,2023,2023,2728,3327,3344,3155,3294,3015,2957,3051,3074,3162,2906,3379,3379,3214,3282,2935,3278,3307,3031,0.01001112,1.540006645,1.54171248,0.401425719261,4500.0,0.38145339489,-0.0151140037924,-0.0199723243713,89.8754577637,0.0,6000.0,0.00580255920067,0.00354702561162,0.0,0.0,0.349065840244,0.0216827709228,-0.0130932107568,0.29986089468,-0.00410226266831,-0.00410226266831,0.00366109935567,0.00418514572084,153.802856445,153.802856445,-52.4785308838,-0.877478599548,2033,2038,2597,2041,2041,2972,3424,3424,3257,3363,3096,2999,3128,3100,3213,2780,3387,3400,3233,3354,3121,3337,3379,3186
1508409753493668521,155,1508409753493330703,plot_matl,0.25,-4000.0,0.233784243464,0.0161782149225,-0.0162157546729,-60.7964820862,0.349065840244,0.0323875546455,0.00580255920067,0.233859419823,-0.0075570018962,-0.0075570018962,0.00354702561162,-0.0232326630503,-61.9999198914,-61.9999198914,-0.280894249678,83.4319534302,2006,2031,2113,2023,2023,2728,3327,3347,3158,3297,3017,2956,3049,3072,3161,2904,3381,3379,3214,3282,2935,3278,3307,3031,0.010039919,1.550047742,1.556187445,0.401425719261,4500.0,0.38145339489,-0.0133482255042,-0.0199723243713,89.8754577637,0.0,6000.0,0.00579939456657,0.00362959387712,0.0,0.0,0.349065840244,0.0216827709228,-0.0131717482582,0.299855470657,-0.00494037335739,-0.00494037335739,0.00525932898745,0.00429109251127,153.911392212,153.911392212,-52.2542953491,-0.859129786491,2013,2007,2597,2041,2041,2972,3424,3423,3257,3363,3093,2999,3128,3100,3211,2780,3388,3400,3233,3354,3121,3337,3379,3186
