%time,field.header.seq,field.header.stamp,field.header.frame_id,field.FFJ4_set_point,field.FFJ4_position_gain,field.FFJ4_process_value,field.FFJ4_process_value_dot,field.FFJ4_error,field.FFJ4_command,field.FFJ1,field.FFJ2,field.FFJ3,field.FFJ4,field.FFJ1_dot,field.FFJ2_dot,field.FFJ3_dot,field.FFJ4_dot,field.FFJ1_tao,field.FFJ2_tao,field.FFJ3_tao,field.FFJ4_tao,field.pac0,field.pac1,field.pdc0,field.tac0,field.tdc0,field.el0,field.el1,field.el2,field.el3,field.el4,field.el5,field.el6,field.el7,field.el8,field.el9,field.el10,field.el11,field.el12,field.el13,field.el14,field.el15,field.el16,field.el17,field.el18,field.dt,field.time,field.test_time2,field.FFJ0_set_point,field.FFJ0_position_gain,field.FFJ0_process_value,field.FFJ0_process_value_dot,field.FFJ0_error,field.FFJ0_command,field.FFJ3_set_point,field.FFJ3_position_gain,field.FFJ3_process_value,field.FFJ3_process_value_dot,field.FFJ3_error,field.FFJ3_command,field.MFJ1,field.MFJ2,field.MFJ3,field.MFJ4,field.MFJ1_dot,field.MFJ2_dot,field.MFJ3_dot,field.MFJ4_dot,field.MFJ1_tao,field.MFJ2_tao,field.MFJ3_tao,field.MFJ4_tao,field.Mpac0,field.Mpac1,field.Mpdc0,field.Mtac0,field.Mtdc0,field.Mel0,field.Mel1,field.Mel2,field.Mel3,field.Mel4,field.Mel5,field.Mel6,field.Mel7,field.Mel8,field.Mel9,field.Mel10,field.Mel11,field.Mel12,field.Mel13,field.Mel14,field.Mel15,field.Mel16,field.Mel17,field.Mel18
1508406493196490710,79,1508406493195955843,plot_matl,0.25,-1000.0,0.199845597148,0.0193094350398,-0.0501544065773,-45.3255004883,0.349065840244,0.0283391084522,0.00410517398268,0.199845597148,0.00448087090626,0.00448087090626,-0.00239541241899,0.0193094350398,-70.7696380615,-70.7696380615,1.10325598717,98.3611373901,2008,2053,2116,2045,2045,2668,3306,3334,3138,3285,2999,2952,3035,3073,3157,2937,3387,3380,3223,3280,2940,3272,3303,3023,0.009987826,0.789996101,0.789038254,0.401425719261,4500.0,0.37740495801,0.00896174181253,-0.024020768702,108.093460083,0.0,6000.0,0.00410517398268,-0.00239541241899,0.0,0.0,0.349065840244,0.0240919683129,-0.0144000230357,0.297563880682,0.0142576508224,0.0142576508224,-0.000632572569884,0.0507500953972,152.363876343,152.363876343,-53.3095817566,-0.41696190834,2018,2021,2600,2059,2059,2963,3421,3418,3251,3358,3088,2991,3121,3093,3207,2780,3388,3399,3233,3355,3122,3332,3374,3180
1508406493206593077,80,1508406493206025540,plot_matl,0.25,-1000.0,0.199782162905,-0.0172308776528,-0.0502178370953,-54.031955719,0.349065840244,0.0283391084522,0.00409447262064,0.199782162905,0.00467051425949,0.00467051425949,-0.00217898748815,-0.0172308776528,-70.7693023682,-70.7693023682,1.2021228075,98.6268615723,2029,2051,2116,2046,2046,2669,3308,3333,3139,3284,3001,2951,3040,3073,3157,2937,3387,3380,3223,3280,2940,3272,3303,3023,0.01007092,0.800066243,0.8056736,0.401425719261,4500.0,0.37740495801,0.00934102851897,-0.024020768702,108.093460083,0.0,6000.0,0.00409447262064,-0.00217898748815,0.0,0.0,0.349065840244,0.0216827709228,-0.0144057739526,0.297578960657,-0.0108724664897,-0.0108724664897,-0.000518383574672,-0.0113533977419,152.598022461,152.598022461,-53.2056083679,-0.215707376599,2031,2029,2600,2060,2060,2962,3419,3420,3253,3357,3089,2990,3122,3093,3207,2780,3388,3399,3233,3355,3122,3332,3374,3180
1508406493216332199,81,1508406493215943259,plot_matl,0.25,-1000.0,0.199804678559,0.0202467758209,-0.0501953288913,-45.3176498413,0.349065840244,0.0283391084522,0.00410923175514,0.199804678559,0.00452572107315,0.00452572107315,-0.00247045862488,0.0202467758209,-71.0310211182,-71.0310211182,1.16339230537,98.5552825928,2021,2050,2116,2046,2046,2669,3308,3333,3139,3284,3001,2951,3040,3074,3157,2938,3384,3379,3224,3280,2938,3272,3305,3023,0.009914635,0.80998304,0.803085435,0.401425719261,4500.0,0.37740495801,0.0090514421463,-0.024020768702,108.093460083,0.0,6000.0,0.00410923175514,-0.00247045862488,0.0,0.0,0.349065840244,0.0240919683129,-0.0143827563152,0.297817051411,0.0136205172166,0.0136205172166,0.014353800565,0.0457022041082,152.832366943,152.832366943,-53.125919342,-0.397284209728,2024,2021,2600,2060,2060,2962,3419,3420,3253,3357,3089,2990,3122,3094,3205,2780,3385,3400,3233,3355,3122,3333,3374,3180
1508406493226326696,82,1508406493225955208,plot_matl,0.25,-1000.0,0.199850425124,0.0193062182516,-0.0501495786011,-45.6776390076,0.349065840244,0.0269896276295,0.00411109626293,0.199850425124,-0.00917843356729,-0.00917843356729,-0.00249855336733,0.0193062182516,-71.1985626221,-71.1985626221,0.979986965656,98.3206481934,2014,2054,2115,2049,2049,2669,3309,3334,3137,3285,2999,2951,3040,3074,3157,2938,3384,3379,3224,3280,2938,3272,3305,3023,0.010012761,0.819995697,0.821046402,0.401425719261,4500.0,0.37605547905,-0.0183568671346,-0.0253702495247,114.166122437,0.0,6000.0,0.00411109626293,-0.00249855336733,0.0,0.0,0.349065840244,0.0240919683129,-0.014361904934,0.297838509083,0.0133120361716,0.0133120361716,0.0139366174117,0.0452182590961,152.714752197,152.714752197,-53.2542152405,-0.330299288034,2026,2030,2600,2059,2059,2962,3419,3419,3252,3358,3090,2990,3122,3094,3205,2780,3385,3400,3233,3355,3122,3333,3374,3181
1508406493236421474,83,1508406493235946772,plot_matl,0.25,-1000.0,0.199884861708,0.0185988135636,-0.0501151382923,-45.6826896667,0.349065840244,0.0283391084522,0.00408855173737,0.199884861708,0.00416873395443,0.00416873395443,-0.00204539904371,0.0185988135636,-71.3045425415,-71.3045425415,1.0568921566,98.1928253174,2015,2068,2115,2049,2049,2669,3309,3334,3137,3285,2999,2952,3038,3073,3156,2937,3386,3378,3224,3280,2939,3272,3305,3023,0.009989966,0.829986611,0.829167178,0.401425719261,4500.0,0.37740495801,0.00833746790886,-0.024020768702,108.093460083,0.0,6000.0,0.00408855173737,-0.00204539904371,0.0,0.0,0.349065840244,0.0240919683129,-0.0143745960668,0.2979131639,0.0121810976416,0.0121810976416,-0.00115610426292,0.0437333211303,152.783462524,152.783462524,-53.3951911926,-0.448141336441,2027,2029,2600,2059,2059,2962,3419,3419,3252,3358,3090,2989,3122,3093,3207,2779,3386,3401,3232,3352,3123,3333,3374,3181
1508406493246333724,84,1508406493245963034,plot_matl,0.25,-1000.0,0.199781686068,0.0206627156585,-0.0502183102071,-45.3137130737,0.349065840244,0.0283391084522,0.00408855173737,0.199884861708,0.00416873395443,0.00416873395443,-0.00204539904371,0.0185988135636,-71.3045425415,-71.3045425415,1.0568921566,98.1928253174,2016,2064,2114,2049,2049,2668,3306,3334,3137,3285,2999,2952,3038,3073,3156,2937,3386,3378,3224,3280,2939,3270,3300,3023,0.010016811,0.840003091,0.841412124,0.401425719261,4500.0,0.37605547905,-0.017504259944,-0.0253702495247,114.166122437,0.0,6000.0,0.00408855173737,-0.00204539904371,0.0,0.0,0.349065840244,0.0240919683129,-0.0143745960668,0.2979131639,0.0121810976416,0.0121810976416,-0.00115610426292,0.0437333211303,152.783462524,152.783462524,-53.3951911926,-0.448141336441,2028,2037,2600,2060,2060,2962,3418,3418,3251,3358,3090,2989,3122,3093,3207,2779,3386,3401,3232,3352,3123,3331,3374,3181
1508406493256378119,85,1508406493255957385,plot_matl,0.25,-1000.0,0.199793487787,-0.0174887403846,-0.0502065122128,-54.4773750305,0.349065840244,0.0283391084522,0.00408898061141,0.199793487787,0.00496009131894,0.00496009131894,-0.0020423005335,-0.0174887403846,-71.1247711182,-71.1247711182,0.954897403717,98.3794403076,2015,2059,2114,2049,2049,2668,3306,3334,3137,3286,3000,2952,3039,3073,3154,2938,3385,3380,3222,3280,2939,3270,3300,3023,0.009994371,0.849997788,0.849521535,0.401425719261,4500.0,0.37740495801,0.00992018263787,-0.024020768702,108.093460083,0.0,6000.0,0.00408898061141,-0.0020423005335,0.0,0.0,0.349065840244,0.0216827709228,-0.0143691664562,0.297869771719,-0.0118487169966,-0.0118487169966,-0.00127317989245,-0.0172454118729,153.007263184,153.007263184,-53.3053894043,-0.333079248667,2025,2035,2600,2060,2060,2962,3418,3418,3251,3358,3089,2989,3118,3091,3205,2779,3385,3400,3234,3352,3123,3331,3374,3181
1508406493266251751,86,1508406493265954332,plot_matl,0.25,-1000.0,0.19983869791,-0.0184029117227,-0.050161305815,-54.5623779297,0.349065840244,0.0269896276295,0.00409333826974,0.19983869791,-0.00881063938141,-0.00881063938141,-0.00213819788769,-0.0184029117227,-71.2094497681,-71.2094497681,1.13441979885,98.5175018311,2026,2061,2115,2050,2050,2670,3308,3334,3137,3286,3000,2952,3039,3073,3154,2938,3385,3380,3222,3281,2940,3273,3303,3025,0.009996812,0.8599949,0.859725832,0.401425719261,4500.0,0.37605547905,-0.0176212787628,-0.0253702495247,114.166122437,0.0,6000.0,0.00409333826974,-0.00213819788769,0.0,0.0,0.349065840244,0.0240919683129,-0.0143952788785,0.297879785299,0.0115283476189,0.0115283476189,-0.000745148048736,-0.0174561217427,152.998794556,152.998794556,-53.2931022644,-0.350326836109,2032,2028,2600,2060,2060,2963,3419,3418,3251,3358,3089,2989,3118,3091,3205,2779,3385,3400,3234,3354,3121,3333,3375,3181
1508406493276318116,87,1508406493275970022,plot_matl,0.25,-1000.0,0.199876442552,-0.0191667899489,-0.0501235574484,-54.9219245911,0.349065840244,0.0269896276295,0.00408591143787,0.199876442552,-0.00844398979098,-0.00844398979098,-0.00199027149938,-0.0191667899489,-71.236579895,-71.236579895,1.00312054157,98.5394058228,2020,2056,2115,2050,2050,2670,3308,3333,3136,3285,2999,2953,3037,3073,3157,2939,3385,3380,3222,3281,2940,3273,3303,3025,0.010015288,0.870010479,0.871330056,0.401425719261,4500.0,0.37605547905,-0.016887979582,-0.0253702495247,114.166122437,0.0,6000.0,0.00408591143787,-0.00199027149938,0.0,0.0,0.349065840244,0.0216827709228,-0.0144019434229,0.298006504774,-0.0135726565495,-0.0135726565495,-0.000609476759564,0.0419146120548,153.043243408,153.043243408,-53.3912849426,-0.252278447151,2026,2028,2600,2060,2060,2963,3419,3420,3249,3357,3090,2990,3118,3094,3205,2782,3387,3400,3234,3354,3121,3333,3375,3181
1508406493286284343,88,1508406493285988412,plot_matl,0.25,-1000.0,0.199843361974,0.0194010324776,-0.0501566380262,-45.8438072205,0.349065840244,0.0283391084522,0.00412769988179,0.199843361974,0.00498204631731,0.00498204631731,0.0105626070872,0.0194010324776,-71.3137512207,-71.3137512207,0.890572667122,98.3270492554,2025,2071,2114,2048,2048,2670,3308,3333,3136,3285,2999,2953,3037,3073,3157,2939,3385,3380,3224,3279,2939,3271,3301,3024,0.010017424,0.880028735,0.881533312,0.401425719261,4500.0,0.37740495801,0.00996409263462,-0.024020768702,108.093460083,0.0,6000.0,0.00412769988179,0.0105626070872,0.0,0.0,0.349065840244,0.0240919683129,-0.0143934274092,0.298004537821,0.0100648924708,0.0100648924708,0.0145522626117,0.0419436395168,153.052017212,153.052017212,-53.3355484009,-0.289285451174,2029,2037,2600,2061,2061,2963,3419,3420,3249,3357,3090,2990,3118,3094,3205,2782,3387,3399,3234,3354,3122,3332,3375,3181
1508406493296195946,89,1508406493295956439,plot_matl,0.25,-1000.0,0.199778869748,0.0206723865122,-0.0502211339772,-45.2778358459,0.349065840244,0.0283391084522,0.00410215789452,0.199778869748,0.00456236489117,0.00456236489117,-0.00234503601678,0.0206723865122,-71.218963623,-71.218963623,0.908410012722,98.3644790649,2016,2061,2114,2048,2048,2669,3306,3332,3138,3285,3000,2953,3037,3071,3156,2939,3385,3380,3224,3279,2939,3271,3301,3024,0.009967581,0.889996616,0.887114709,0.401425719261,4500.0,0.37740495801,0.00912472978234,-0.024020768702,108.093460083,0.0,6000.0,0.00410215789452,-0.00234503601678,0.0,0.0,0.349065840244,0.0240919683129,-0.0144003983587,0.29788467288,0.0103981737047,0.0103981737047,-0.000652043905575,-0.01756375283,152.950241089,152.950241089,-53.1627922058,-0.416733950377,2022,2038,2600,2061,2061,2963,3418,3419,3252,3357,3088,2989,3119,3093,3207,2782,3387,3399,3234,3354,3122,3332,3375,3181
1508406493306149057,90,1508406493305935823,plot_matl,0.25,-1000.0,0.199724420905,0.0217770654708,-0.0502755828202,-45.0173416138,0.349065840244,0.0296885911375,0.00410553300753,0.199724420905,0.0180900022388,0.0180900022388,0.010996222496,0.0217770654708,-71.0746841431,-71.0746841431,1.07154798508,98.2919082642,2017,2067,2114,2048,2048,2669,3306,3332,3138,3285,3000,2953,3037,3071,3156,2937,3385,3380,3222,3281,2938,3271,3301,3025,0.009978544,0.899975825,0.89806896,0.401425719261,4500.0,0.37875443697,0.0361800044775,-0.0226712878793,102.0207901,0.0,6000.0,0.00410553300753,0.010996222496,0.0,0.0,0.349065840244,0.0216827709228,-0.0143916867673,0.29777649045,-0.014488988556,-0.014488988556,-0.000825528113637,-0.0153956813738,152.851974487,152.851974487,-53.3074836731,-0.531297564507,2018,2029,2600,2061,2061,2963,3418,3419,3252,3357,3088,2989,3119,3093,3207,2781,3383,3400,3233,3353,3122,3331,3375,3182
1508406493316156064,91,1508406493315948067,plot_matl,0.25,-1000.0,0.199745371938,0.0212909728289,-0.050254624337,-45.2183761597,0.349065840244,0.0269896276295,0.00410703616217,0.199745371938,-0.00899638514966,-0.00899638514966,-0.00247519626282,0.0212909728289,-71.0344314575,-71.0344314575,1.09852099419,98.0709991455,2021,2059,2114,2049,2049,2668,3306,3333,3137,3283,3000,2951,3037,3071,3156,2937,3385,3380,3222,3281,2938,3271,3301,3025,0.010012922,0.90998828,0.911175902,0.401425719261,4500.0,0.37605547905,-0.0179927702993,-0.0253702495247,114.166122437,0.0,6000.0,0.00410703616217,-0.00247519626282,0.0,0.0,0.349065840244,0.0240919683129,-0.014398961328,0.2979644835,0.0102601060644,0.0102601060644,-0.000676114228554,0.0425723157823,152.968383789,152.968383789,-53.1572952271,-0.578028678894,2022,2027,2600,2055,2055,2962,3419,3419,3250,3358,3088,2990,3119,3093,3207,2781,3383,3400,3233,3353,3122,3331,3375,3182
1508406493326340606,92,1508406493325941221,plot_matl,0.25,-1000.0,0.199804544449,0.020101422444,-0.0501954555511,-45.4399871826,0.349065840244,0.0296885911375,0.00409784261137,0.199804544449,0.0176641400903,0.0176641400903,-0.00226181233302,0.020101422444,-71.0655899048,-71.0655899048,1.01478087902,98.0994415283,2021,2043,2114,2049,2049,2668,3306,3333,3137,3283,3000,2951,3037,3071,3155,2937,3386,3382,3226,3282,2939,3271,3305,3025,0.00999174,0.919981057,0.91924008,0.401425719261,4500.0,0.37875443697,0.0353282801807,-0.0226712878793,102.0207901,0.0,6000.0,0.00409784261137,-0.00226181233302,0.0,0.0,0.349065840244,0.0240919683129,-0.014404932037,0.297952562571,0.00879509560764,0.00879509560764,-0.000553500198293,-0.0192044619471,152.990402222,152.990402222,-53.0108909607,-0.65298730135,2025,2020,2600,2055,2055,2962,3419,3419,3250,3358,3088,2990,3119,3094,3207,2779,3386,3399,3234,3351,3123,3332,3376,3182
1508406493336388198,93,1508406493335962142,plot_matl,0.25,-1000.0,0.199881508946,-0.0193122439086,-0.0501184873283,-54.6858482361,0.349065840244,0.0283391084522,0.00409060856327,0.199881508946,0.00499827461317,0.00499827461317,-0.00210396619514,-0.0193122439086,-71.0798034668,-71.0798034668,0.824706733227,98.0134506226,2013,2055,2116,2050,2050,2668,3306,3332,3137,3285,3000,2951,3037,3071,3155,2937,3386,3382,3226,3282,2939,3271,3305,3022,0.010021523,0.930002615,0.932001639,0.401425719261,4500.0,0.37740495801,0.00999654922634,-0.024020768702,108.093460083,0.0,6000.0,0.00409060856327,-0.00210396619514,0.0,0.0,0.349065840244,0.0216827709228,-0.0144098279998,0.298065662384,-0.0149283353239,-0.0149283353239,-0.000452932261396,-0.0213710293174,152.964584351,152.964584351,-52.9539031982,-0.304760456085,2028,2033,2601,2054,2054,2963,3417,3420,3251,3357,3089,2990,3119,3094,3207,2779,3386,3399,3234,3351,3123,3332,3376,3180
1508406493346381036,94,1508406493345945699,plot_matl,0.25,-1000.0,0.199881508946,-0.0193122439086,-0.0501184873283,-54.6858482361,0.349065840244,0.0283391084522,0.00409060856327,0.199881508946,0.00499827461317,0.00499827461317,-0.00210396619514,-0.0193122439086,-71.0798034668,-71.0798034668,0.824706733227,98.0134506226,2018,2057,2116,2050,2050,2668,3306,3332,3137,3285,3000,2952,3039,3071,3156,2937,3385,3382,3226,3283,2941,3271,3305,3022,0.00998264,0.939985766,0.93836816,0.401425719261,4500.0,0.37740495801,0.00870613008738,-0.024020768702,108.093460083,0.0,6000.0,0.00409060856327,-0.00210396619514,0.0,0.0,0.349065840244,0.0216827709228,-0.0144098279998,0.298065662384,-0.0149283353239,-0.0149283353239,-0.000452932261396,-0.0213710293174,152.964584351,152.964584351,-52.9539031982,-0.304760456085,2026,2026,2601,2054,2054,2963,3417,3420,3251,3357,3089,2991,3119,3093,3207,2780,3385,3400,3234,3352,3121,3332,3376,3180
1508406493356434280,95,1508406493355972669,plot_matl,0.25,-1000.0,0.199919044971,0.0178629606962,-0.0500809587538,-45.7040328979,0.349065840244,0.0283391084522,0.0041096014902,0.199874997139,0.00405036006123,0.00405036006123,0.010938514024,0.0186954066157,-70.9380493164,-70.9380493164,0.824990212917,97.9119415283,2026,2068,2115,2046,2046,2667,3304,3333,3136,3285,3000,2952,3039,3071,3156,2937,3385,3382,3226,3283,2941,3271,3303,3023,0.010028077,0.950013573,0.952667315,0.401425719261,4500.0,0.37740495801,0.00870613008738,-0.024020768702,108.093460083,0.0,6000.0,0.0041096014902,0.010938514024,0.0,0.0,0.349065840244,0.0240919683129,-0.0144170988351,0.297875672579,0.00986845232546,0.00986845232546,-0.000303598091705,0.0443449504673,152.869903564,152.869903564,-53.0413742065,-0.65905725956,2030,2037,2600,2057,2057,2961,3419,3420,3252,3357,3089,2991,3119,3093,3207,2780,3385,3400,3234,3352,3121,3333,3377,3181
1508406493366411918,96,1508406493366002811,plot_matl,0.25,-1000.0,0.199703797698,-0.0157346259803,-0.0502962060273,-54.0285606384,0.349065840244,0.0269896276295,0.00411248859018,0.199703797698,-0.010289054364,-0.010289054364,-0.00253862841055,-0.0157346259803,-70.7681045532,-70.7681045532,0.849660933018,97.9495544434,2031,2073,2115,2046,2046,2667,3304,3333,3136,3286,2998,2951,3038,3071,3156,2935,3385,3381,3224,3283,2941,3271,3303,3023,0.010028855,0.960043189,0.96277008,0.401425719261,4500.0,0.37605547905,-0.0205781087279,-0.0253702495247,114.166122437,0.0,6000.0,0.00411248859018,-0.00253862841055,0.0,0.0,0.349065840244,0.0240919683129,-0.0144197773188,0.297823309898,0.00931672938168,0.00931672938168,-0.000248594791628,-0.0164523087442,152.892608643,152.892608643,-53.1741676331,-0.827254593372,2037,2041,2600,2057,2057,2961,3419,3420,3252,3357,3088,2990,3120,3095,3208,2781,3386,3399,3235,3352,3121,3333,3377,3181
1508406493376375420,97,1508406493375986628,plot_matl,0.25,-1000.0,0.199736535549,-0.016343139112,-0.0502634644508,-54.1622161865,0.349065840244,0.0283391084522,0.00411599129438,0.199736535549,0.00296273850836,0.00296273850836,0.0108174588531,-0.016343139112,-71.0662841797,-71.0662841797,1.05921339989,98.0651473999,2035,2072,2115,2046,2046,2669,3308,3333,3136,3286,2998,2951,3038,3071,3156,2935,3385,3381,3224,3282,2938,3270,3302,3024,0.0099831,0.970026871,0.9683607,0.401425719261,4500.0,0.37740495801,0.00592547701672,-0.024020768702,108.093460083,0.0,6000.0,0.00411599129438,0.0108174588531,0.0,0.0,0.349065840244,0.0240919683129,-0.014408566989,0.297841697931,0.00888078846037,0.00888078846037,-0.000473820779007,-0.0168075803667,152.942596436,152.942596436,-53.0346870422,-0.788173019886,2039,2039,2600,2060,2060,2964,3420,3420,3252,3357,3088,2990,3120,3095,3208,2781,3386,3399,3235,3354,3121,3332,3377,3184
1508406493386359162,98,1508406493385993285,plot_matl,0.25,-1000.0,0.199758529663,-0.0167915448546,-0.0502414628863,-54.2049827576,0.349065840244,0.0269896276295,0.00412826053798,0.199758529663,-0.0104134436697,-0.0104134436697,-0.00287594203837,-0.0167915448546,-71.0863037109,-71.0863037109,0.79230684042,98.1217651367,2042,2071,2115,2046,2046,2669,3308,3332,3137,3286,3000,2952,3037,3073,3155,2935,3386,3381,3224,3282,2938,3270,3302,3024,0.010006896,0.980033888,0.980675808,0.401425719261,4500.0,0.37605547905,-0.0208268873394,-0.0253702495247,114.166122437,0.0,6000.0,0.00412826053798,-0.00287594203837,0.0,0.0,0.349065840244,0.0216827709228,-0.0144128007814,0.297904670238,-0.0148515356705,-0.0148515356705,-0.000387761567254,-0.0181722082198,152.989242554,152.989242554,-53.1811943054,-0.853110313416,2045,2039,2600,2060,2060,2964,3420,3421,3250,3357,3090,2989,3119,3095,3205,2781,3384,3399,3235,3354,3121,3332,3377,3184
1508406493396281090,99,1508406493395989257,plot_matl,0.25,-1000.0,0.199744656682,-0.0164875201881,-0.0502553470433,-53.9224624634,0.349065840244,0.0269896276295,0.00412718905136,0.199744656682,-0.010239274241,-0.010239274241,0.010562219657,-0.0164875201881,-71.3692474365,-71.3692474365,0.692379772663,98.0684509277,2040,2071,2114,2046,2046,2669,3308,3332,3137,3286,3000,2952,3037,3073,3155,2935,3386,3380,3221,3281,2939,3273,3300,3025,0.0099958,0.990029875,0.9895842,0.401425719261,4500.0,0.37605547905,-0.0204785484821,-0.0253702495247,114.166122437,0.0,6000.0,0.00412718905136,0.010562219657,0.0,0.0,0.349065840244,0.0240919683129,-0.0144033739343,0.297850906849,0.00993023905903,0.00993023905903,-0.000591840653215,-0.0170796792954,152.897766113,152.897766113,-52.9707641602,-0.703815221786,2041,2039,2599,2057,2057,2964,3420,3421,3250,3357,3090,2989,3119,3095,3205,2781,3384,3399,3233,3352,3123,3331,3374,3183
1508406493406057357,100,1508406493405934161,plot_matl,0.25,-1000.0,0.199702516198,0.022333856672,-0.0502974875271,-44.9611854553,0.349065840244,0.0283391084522,0.00413879938424,0.199702516198,0.00378207629547,0.00378207629547,-0.00307627511211,0.022333856672,-71.1195068359,-71.1195068359,0.679602742195,98.0956497192,2036,2069,2114,2046,2046,2667,3307,3333,3136,3286,3000,2952,3038,3074,3155,2935,3386,3380,3221,3281,2939,3273,3300,3025,0.00994179,0.999973353,0.994179,0.401425719261,4500.0,0.37740495801,0.00756415259093,-0.024020768702,108.093460083,0.0,6000.0,0.00413879938424,-0.00307627511211,0.0,0.0,0.349065840244,0.0240919683129,-0.0144085735083,0.297982543707,0.00986711028963,0.00986711028963,-0.000483890937176,0.0422210022807,152.918228149,152.918228149,-52.8983688354,-0.935232579708,2035,2037,2599,2057,2057,2962,3419,3418,3252,3356,3089,2990,3119,3094,3207,2781,3384,3399,3233,3352,3123,3331,3374,3183
1508406493416295423,101,1508406493415955959,plot_matl,0.25,-1000.0,0.199739575386,0.0216268002987,-0.050260424614,-45.0970077515,0.349065840244,0.0269896276295,0.00413604686037,0.199739575386,-0.00954186636955,-0.00954186636955,0.0103977918625,0.0216268002987,-71.1359481812,-71.1359481812,0.45469135046,97.901763916,2020,2065,2115,2046,2046,2667,3307,3333,3136,3286,3000,2952,3038,3074,3155,2937,3385,3378,3224,3279,2937,3272,3301,3024,0.010023569,1.009996157,1.012380469,0.401425719261,4500.0,0.37605547905,-0.0190837327391,-0.0253702495247,114.166122437,0.0,6000.0,0.00413604686037,0.0103977918625,0.0,0.0,0.349065840244,0.0240919683129,-0.0144127756357,0.297980129719,0.00941614434123,0.00941614434123,-0.000396650924813,0.0423007905483,152.866592407,152.866592407,-52.7256889343,-0.8885653615,2032,2034,2599,2057,2057,2962,3419,3418,3252,3356,3089,2990,3119,3094,3207,2781,3385,3399,3231,3353,3123,3331,3374,3180
1508406493426215561,102,1508406493425947639,plot_matl,0.25,-1000.0,0.19976170361,0.0211434159428,-0.0502382926643,-45.4782600403,0.349065840244,0.0269896276295,0.00413270061836,0.19976170361,-0.00953760370612,-0.00953760370612,-0.00294829951599,0.0211434159428,-71.3279800415,-71.3279800415,0.407133847475,97.8471221924,2016,2069,2115,2048,2048,2668,3307,3334,3136,3286,2999,2952,3037,3074,3155,2937,3385,3378,3224,3279,2937,3272,3301,3024,0.009991925,1.019988127,1.01917635,0.401425719261,4500.0,0.37605547905,-0.0190752074122,-0.0253702495247,114.166122437,0.0,6000.0,0.00413270061836,-0.00294829951599,0.0,0.0,0.349065840244,0.0216827709228,-0.0144162336364,0.297864079475,-0.0143929217011,-0.0143929217011,-0.000324854132487,-0.0171312876046,152.708312988,152.708312988,-52.9961509705,-0.833728253841,2025,2031,2599,2057,2057,2963,3420,3419,3253,3356,3088,2990,3120,3094,3207,2781,3385,3399,3231,3353,3123,3331,3374,3180
1508406493436290589,103,1508406493435966977,plot_matl,0.25,-1000.0,0.19981919229,-0.0178757291287,-0.050180811435,-54.4261741638,0.349065840244,0.0283391084522,0.00412860326469,0.19981919229,0.00362685602158,0.00362685602158,-0.00286785908975,-0.0178757291287,-71.2794799805,-71.2794799805,0.203967630863,98.1262207031,2011,2057,2115,2048,2048,2668,3307,3334,3136,3286,2999,2952,3037,3071,3154,2938,3385,3378,3224,3281,2939,3272,3303,3024,0.010018446,1.030007114,1.031899938,0.401425719261,4500.0,0.37740495801,0.00725371204317,-0.024020768702,108.093460083,0.0,6000.0,0.00412860326469,-0.00286785908975,0.0,0.0,0.349065840244,0.0240919683129,-0.0144054526463,0.297875106335,0.0102361338213,0.0102361338213,-0.000550154189114,0.04436705634,152.729400635,152.729400635,-53.2569465637,-0.796812772751,2023,2025,2599,2057,2057,2963,3420,3419,3253,3356,3088,2990,3120,3094,3206,2781,3386,3400,3235,3354,3122,3331,3376,3180
1508406493446218782,104,1508406493445947642,plot_matl,0.25,-1000.0,0.19981919229,-0.0178757291287,-0.050180811435,-54.4261741638,0.349065840244,0.0283391084522,0.00412860326469,0.19981919229,0.00362685602158,0.00362685602158,-0.00286785908975,-0.0178757291287,-71.2794799805,-71.2794799805,0.203967630863,98.1262207031,2011,2044,2114,2048,2048,2668,3308,3332,3137,3283,3000,2952,3037,3071,3154,2938,3385,3378,3224,3281,2939,3272,3303,3024,0.009980154,1.039987674,1.037936016,0.401425719261,4500.0,0.37740495801,0.00725371204317,-0.024020768702,108.093460083,0.0,6000.0,0.00412860326469,-0.00286785908975,0.0,0.0,0.349065840244,0.0240919683129,-0.0144054526463,0.297875106335,0.0102361338213,0.0102361338213,-0.000550154189114,0.04436705634,152.729400635,152.729400635,-53.2569465637,-0.796812772751,2018,2018,2599,2059,2059,2962,3418,3419,3251,3357,3089,2990,3120,3094,3206,2781,3386,3400,3235,3354,3122,3331,3376,3182
1508406493456310784,105,1508406493455944408,plot_matl,0.25,-1000.0,0.199869945645,-0.0189345143735,-0.0501300618052,-54.784538269,0.349065840244,0.0269896276295,0.00413578003645,0.199869945645,-0.0101974867284,-0.0101974867284,-0.0030105067417,-0.0189345143735,-71.1528396606,-71.1528396606,0.0506172180176,97.8061218262,2011,2048,2114,2048,2048,2668,3308,3332,3137,3283,3000,2952,3038,3073,3154,2937,3386,3380,3224,3280,2939,3272,3303,3024,0.009996025,1.04998424,1.049582625,0.401425719261,4500.0,0.37605547905,-0.0203949734569,-0.0253702495247,114.166122437,0.0,6000.0,0.00413578003645,-0.0030105067417,0.0,0.0,0.349065840244,0.0216827709228,-0.0143916532397,0.297932118177,-0.0146451443434,-0.0146451443434,-0.000841359957121,-0.0805543884635,152.891403198,152.891403198,-53.3094062805,-0.685678720474,2016,2022,2599,2059,2059,2962,3418,3419,3251,3357,3089,2990,3120,3093,3205,2780,3385,3400,3233,3351,3121,3331,3376,3182
1508406493466240353,106,1508406493465953543,plot_matl,0.25,-1000.0,0.199836820364,0.0196424778551,-0.0501631833613,-45.456703186,0.349065840244,0.0283391084522,0.00411985581741,0.199836820364,0.00282290857285,0.00282290857285,-0.00268586422317,0.0196424778551,-71.0578765869,-71.0578765869,0.259994477034,97.7643585205,2020,2060,2114,2046,2046,2667,3307,3331,3137,3283,3000,2952,3038,3073,3154,2937,3386,3380,3224,3280,2939,3271,3303,3026,0.010009431,1.059993806,1.060999686,0.401425719261,4500.0,0.37740495801,0.00564581714571,-0.024020768702,108.093460083,0.0,6000.0,0.00411985581741,-0.00268586422317,0.0,0.0,0.349065840244,0.0216827709228,-0.0143702849746,0.298146784306,-0.0132997632027,-0.0132997632027,0.0140768289566,-0.0230181273073,152.910980225,152.910980225,-53.4902420044,-0.902085542679,2020,2027,2600,2059,2059,2963,3418,3420,3253,3357,3089,2990,3120,3093,3205,2780,3385,3400,3233,3351,3121,3330,3374,3182
1508406493476266712,107,1508406493475955331,plot_matl,0.25,-1000.0,0.199767589569,-0.0169024225324,-0.0502324067056,-54.5024147034,0.349065840244,0.0296885911375,0.00413190387189,0.199767589569,0.0163904763758,0.0163904763758,-0.00292352354154,-0.0169024225324,-71.014289856,-71.014289856,0.278931438923,97.8140945435,2022,2058,2114,2046,2046,2667,3307,3331,3137,3286,2999,2954,3038,3074,3153,2937,3385,3380,3222,3280,2939,3271,3303,3026,0.010001859,1.069995809,1.070198913,0.401425719261,4500.0,0.37740495801,0.00564581714571,-0.024020768702,108.093460083,0.0,6000.0,0.00413190387189,-0.00292352354154,0.0,0.0,0.349065840244,0.0240919683129,-0.0143814869225,0.298005342484,0.011647532694,0.011647532694,-0.00103730219416,0.0417061671615,152.789016724,152.789016724,-53.5412788391,-0.882285416126,2024,2022,2600,2059,2059,2963,3418,3420,3253,3358,3086,2991,3122,3093,3207,2779,3386,3398,3233,3351,3121,3330,3374,3182
1508406493486404288,108,1508406493485969046,plot_matl,0.25,-1000.0,0.199759170413,0.0212682206184,-0.0502408221364,-45.0389175415,0.349065840244,0.0296885911375,0.00412747170776,0.199759170413,0.0153877008706,0.0153877008706,-0.00286304438487,0.0212682206184,-70.9394836426,-70.9394836426,0.16406878829,97.7272644043,2016,2061,2114,2044,2044,2668,3306,3331,3137,3286,2999,2954,3038,3074,3153,2937,3385,3380,3222,3282,2939,3271,3302,3022,0.010013754,1.080009694,1.081485432,0.401425719261,4500.0,0.37875443697,0.0307754017413,-0.0226712878793,102.0207901,0.0,6000.0,0.00412747170776,-0.00286304438487,0.0,0.0,0.349065840244,0.0216827709228,-0.0143752237782,0.29793959856,-0.0125950034708,-0.0125950034708,-0.00113833032083,0.0430085547268,152.825393677,152.825393677,-53.5492286682,-0.800643563271,2024,2027,2600,2056,2056,2963,3420,3420,3253,3358,3086,2991,3122,3093,3207,2779,3386,3398,3233,3352,3123,3333,3374,3180
1508406493496307754,109,1508406493495958982,plot_matl,0.25,-1000.0,0.199819028378,0.0200554095209,-0.050180979073,-45.3143234253,0.349065840244,0.0283391084522,0.00411505205557,0.199819028378,0.00217432063073,0.00217432063073,-0.00259309844114,0.0200554095209,-71.0890808105,-71.0890808105,-0.277987092733,97.6854782104,2032,2050,2114,2044,2044,2668,3306,3332,3135,3286,2998,2952,3037,3071,3155,2937,3385,3380,3222,3282,2939,3271,3302,3022,0.009988483,1.089999219,1.088744647,0.401425719261,4500.0,0.37740495801,0.00434864126146,-0.024020768702,108.093460083,0.0,6000.0,0.00411505205557,-0.00259309844114,0.0,0.0,0.349065840244,0.0240919683129,-0.0143445590511,0.297941178083,0.0117703583091,0.0117703583091,-0.00176683731843,0.0429170839489,152.801696777,152.801696777,-53.7222557068,-0.724476337433,2037,2036,2600,2056,2056,2963,3420,3418,3252,3358,3089,2989,3121,3095,3207,2780,3388,3398,3233,3352,3123,3333,3374,3180
1508406493506093184,110,1508406493505933475,plot_matl,0.25,-1000.0,0.199828952551,0.0198239479214,-0.0501710474491,-45.4355354309,0.349065840244,0.0269896276295,0.00411503668875,0.199828952551,-0.0106143718585,-0.0106143718585,-0.00259664142504,0.0198239479214,-71.1058502197,-71.1058502197,-0.145408421755,97.5874710083,2028,2061,2114,2043,2043,2668,3306,3332,3135,3286,2998,2952,3037,3071,3155,2937,3385,3380,3223,3280,2939,3273,3303,3024,0.009973157,1.099973186,1.09704727,0.401425719261,4500.0,0.37605547905,-0.0212287437171,-0.0253702495247,114.166122437,0.0,6000.0,0.00411503668875,-0.00259664142504,0.0,0.0,0.349065840244,0.0240919683129,-0.0143329314888,0.297934174538,0.0113692302257,0.0113692302257,-0.00199542939663,-0.0188344474882,152.857299805,152.857299805,-53.7562217712,-0.557916581631,2030,2031,2599,2057,2057,2963,3420,3418,3252,3358,3089,2989,3121,3095,3207,2780,3388,3398,3233,3354,3121,3331,3376,3182
1508406493516049924,111,1508406493515927854,plot_matl,0.25,-1000.0,0.199831217527,-0.0181466024369,-0.0501687787473,-54.7852745056,0.349065840244,0.0269896276295,0.00412607146427,0.199831217527,-0.0108707537875,-0.0108707537875,-0.00281164818443,-0.0181466024369,-70.9742431641,-70.9742431641,-0.146304637194,97.6347198486,2029,2048,2114,2043,2043,2668,3307,3332,3137,3287,2999,2952,3038,3072,3156,2937,3385,3380,3223,3280,2939,3273,3303,3024,0.00999358,1.109967114,1.10928738,0.401425719261,4500.0,0.37605547905,-0.0217415075749,-0.0253702495247,114.166122437,0.0,6000.0,0.00412607146427,-0.00281164818443,0.0,0.0,0.349065840244,0.0240919683129,-0.0143509609625,0.297979474068,0.010625185445,0.010625185445,-0.00163185899146,-0.0815608650446,153.030685425,153.030685425,-53.6771774292,-0.52956110239,2036,2030,2599,2057,2057,2961,3418,3418,3252,3357,3087,2991,3119,3093,3206,2780,3388,3398,3233,3354,3121,3331,3376,3182
1508406493526009036,112,1508406493525928930,plot_matl,0.25,-1000.0,0.199763864279,-0.0168379563838,-0.0502361394465,-53.9605560303,0.349065840244,0.0296885911375,0.00413565570489,0.199763864279,0.015133923851,0.015133923851,-0.0030110697262,-0.0168379563838,-71.0437927246,-71.0437927246,-0.253112047911,97.7716369629,2026,2067,2115,2043,2043,2668,3307,3332,3137,3287,2999,2952,3038,3072,3156,2937,3386,3378,3222,3282,2940,3271,3301,3022,0.010000911,1.119968117,1.120102032,0.401425719261,4500.0,0.37875443697,0.0302678477019,-0.0226712878793,102.0207901,0.0,6000.0,0.00413565570489,-0.0030110697262,0.0,0.0,0.349065840244,0.0240919683129,-0.0143505968153,0.298019468784,0.0104102184996,0.0104102184996,-0.00163035374135,-0.0205222349614,152.881668091,152.881668091,-53.5265159607,-0.586191594601,2027,2035,2599,2057,2057,2961,3418,3418,3252,3357,3087,2991,3119,3093,3206,2781,3386,3399,3232,3354,3123,3332,3376,3181
1508406493536405725,113,1508406493535973471,plot_matl,0.25,-1000.0,0.199747309089,0.0213548317552,-0.050252687186,-45.1897888184,0.349065840244,0.0269896276295,0.00414621410891,0.199747309089,-0.0118829114363,-0.0118829114363,0.0101960897446,0.0213548317552,-71.1185684204,-71.1185684204,-0.324390113354,97.7034072876,2012,2048,2115,2045,2045,2667,3306,3332,3136,3285,2998,2954,3038,3072,3156,2937,3386,3378,3222,3282,2940,3271,3301,3022,0.01004667,1.130013838,1.13527371,0.401425719261,4500.0,0.37605547905,-0.0237658228725,-0.0253702495247,114.166122437,0.0,6000.0,0.00414621410891,0.0101960897446,0.0,0.0,0.349065840244,0.0216827709228,-0.0143653368577,0.297945827246,-0.0135756684467,-0.0135756684467,-0.00133471284062,0.0428058542311,152.952850342,152.952850342,-53.687046051,-0.69707518816,2024,2020,2599,2055,2055,2960,3420,3420,3251,3356,3088,2991,3122,3093,3206,2781,3386,3399,3232,3354,3123,3332,3376,3181
1508406493546255977,114,1508406493545949831,plot_matl,0.25,-1000.0,0.199747309089,0.0213548317552,-0.050252687186,-45.1897888184,0.349065840244,0.0269896276295,0.00414621410891,0.199747309089,-0.0118829114363,-0.0118829114363,0.0101960897446,0.0213548317552,-71.1185684204,-71.1185684204,-0.324390113354,97.7034072876,2012,2048,2115,2045,2045,2667,3306,3332,3136,3285,2998,2954,3038,3072,3156,2937,3386,3378,3222,3282,2940,3271,3301,3022,0.009976075,1.139990334,1.13727255,0.401425719261,4500.0,0.37605547905,-0.0237658228725,-0.0253702495247,114.166122437,0.0,6000.0,0.00414621410891,0.0101960897446,0.0,0.0,0.349065840244,0.0216827709228,-0.0143653368577,0.297945827246,-0.0135756684467,-0.0135756684467,-0.00133471284062,0.0428058542311,152.952850342,152.952850342,-53.687046051,-0.69707518816,2024,2020,2599,2055,2055,2960,3420,3420,3251,3356,3088,2991,3122,3093,3206,2781,3386,3399,3232,3354,3123,3332,3376,3181
1508406493556323427,115,1508406493555951849,plot_matl,0.25,-1000.0,0.199771508574,-0.0170411206782,-0.0502284914255,-54.3090705872,0.349065840244,0.0269896276295,0.0041286717169,0.199771508574,-0.0109222475439,-0.0109222475439,-0.00286243972369,-0.0170411206782,-71.0942153931,-71.0942153931,-0.212953299284,97.4732437134,2013,2053,2115,2046,2046,2667,3306,3332,3138,3287,2999,2954,3038,3074,3156,2937,3388,3382,3223,3281,2939,3271,3304,3023,0.010001312,1.149991861,1.15015088,0.401425719261,4500.0,0.37605547905,-0.0213084239513,-0.0253702495247,114.166122437,0.0,6000.0,0.00411519547924,-0.00259450264275,0.0,0.0,0.349065840244,0.0216827709228,-0.0143487947062,0.29789057374,-0.0128731913865,-0.0128731913865,-0.00167187035549,-0.0178680755198,152.768753052,152.768753052,-53.5954399109,-0.615672230721,2028,2029,2600,2055,2055,2961,3419,3419,3249,3359,3088,2991,3122,3094,3207,2781,3387,3401,3233,3353,3121,3333,3374,3181
1508406493566331641,116,1508406493565960618,plot_matl,0.25,-1000.0,0.199761226773,0.0211100354791,-0.0502387695014,-45.0665969849,0.349065840244,0.0283391084522,0.00411722157151,0.199761226773,0.00318015995435,0.00318015995435,0.0107902316377,0.0211100354791,-71.0757904053,-71.0757904053,-0.126289576292,97.7486190796,2009,2036,2115,2046,2046,2667,3306,3332,3138,3287,2999,2952,3038,3074,3154,2937,3384,3380,3223,3281,2939,3271,3304,3023,0.010008879,1.160001151,1.161029964,0.401425719261,4500.0,0.37740495801,0.00636031990871,-0.024020768702,108.093460083,0.0,6000.0,0.00411722157151,0.0107902316377,0.0,0.0,0.349065840244,0.0216827709228,-0.0143380658701,0.297797709703,-0.0122798848897,-0.0122798848897,-0.00190654699691,0.0459586530924,152.690933228,152.690933228,-53.5648956299,-0.373790919781,2014,2010,2600,2055,2055,2961,3419,3419,3249,3359,3088,2989,3119,3095,3206,2782,3386,3398,3234,3353,3122,3333,3374,3181
1508406493576300923,117,1508406493575956583,plot_matl,0.25,-1000.0,0.199853539467,0.0192439928651,-0.0501464642584,-45.4042243958,0.349065840244,0.0296885911375,0.00412954809144,0.199853539467,0.0167181752622,0.0167181752622,-0.0028765257448,0.0192439928651,-71.1564331055,-71.1564331055,0.043029550463,97.9552841187,2013,2048,2115,2044,2044,2667,3305,3333,3136,3287,2999,2952,3038,3074,3154,2937,3384,3380,3223,3281,2939,3272,3303,3024,0.009994922,1.16999673,1.169405874,0.401425719261,4500.0,0.37875443697,0.0334363505244,-0.0226712878793,102.0207901,0.0,6000.0,0.00412954809144,-0.0028765257448,0.0,0.0,0.349065840244,0.0216827709228,-0.0143550867215,0.297878950834,-0.0131319202483,-0.0131319202483,-0.00156064378098,0.0442526526749,152.72315979,152.72315979,-53.4322128296,-0.480708271265,2021,2020,2600,2055,2055,2963,3419,3420,3253,3359,3088,2989,3119,3095,3206,2782,3386,3398,3234,3353,3122,3331,3377,3180
1508406493586344742,118,1508406493585956266,plot_matl,0.25,-1000.0,0.199865847826,0.0190016850829,-0.0501341484487,-45.0472869873,0.349065840244,0.0283391084522,0.00411426648498,0.199865847826,0.00324887409806,0.00324887409806,-0.00257143098861,0.0190016850829,-71.2247695923,-71.2247695923,0.0296719968319,97.8826065063,2022,2058,2115,2044,2044,2667,3305,3333,3136,3286,3001,2953,3038,3074,3156,2937,3385,3383,3222,3281,2939,3272,3303,3024,0.01000039,1.179997095,1.18004602,0.401425719261,4500.0,0.37740495801,0.00649774819613,-0.024020768702,108.093460083,0.0,6000.0,0.00411426648498,-0.00257143098861,0.0,0.0,0.349065840244,0.0240919683129,-0.0143690872937,0.297951549292,0.0100286444649,0.0100286444649,-0.00127610936761,0.0428401194513,152.866165161,152.866165161,-53.1666679382,-0.545716285706,2021,2025,2600,2055,2055,2963,3419,3420,3253,3357,3089,2988,3119,3093,3206,2779,3385,3400,3232,3353,3122,3331,3377,3180
1508406493596132587,119,1508406493595960196,plot_matl,0.25,-1000.0,0.199836015701,0.0195630937815,-0.050163988024,-45.4286651611,0.349065840244,0.0269896276295,0.0041032913141,0.199836015701,-0.0102408789098,-0.0102408789098,-0.00234969658777,0.0195630937815,-71.0047607422,-71.0047607422,0.188587501645,98.0003814697,2002,2048,2115,2044,2044,2668,3306,3333,3136,3286,3001,2953,3038,3074,3156,2937,3385,3383,3222,3280,2940,3272,3302,3021,0.010002088,1.18999999,1.190248472,0.401425719261,4500.0,0.37605547905,-0.0204817578197,-0.0253702495247,114.166122437,0.0,6000.0,0.0041032913141,-0.00234969658777,0.0,0.0,0.349065840244,0.0240919683129,-0.0143918637186,0.297842264175,0.0108233205974,0.0108233205974,-0.000806892232504,-0.0167758092284,152.881713867,152.881713867,-53.3018684387,-0.447688370943,2015,2022,2600,2059,2059,2962,3419,3420,3253,3357,3089,2988,3119,3093,3206,2779,3385,3400,3232,3353,3122,3332,3374,3180
1508406493606220428,120,1508406493605983355,plot_matl,0.25,-1000.0,0.199778914452,0.0207586344332,-0.0502210818231,-44.653377533,0.349065840244,0.0283391084522,0.00408195657656,0.199778914452,0.00327524146996,0.00327524146996,-0.00191938935313,0.0207586344332,-70.8207550049,-70.8207550049,0.291389107704,97.8607177734,2007,2058,2115,2044,2044,2668,3306,3333,3136,3285,2999,2953,3038,3074,3155,2937,3386,3383,3222,3280,2940,3272,3302,3021,0.010023494,1.200023628,1.20281928,0.401425719261,4500.0,0.37740495801,0.00655048293993,-0.024020768702,108.093460083,0.0,6000.0,0.00408195657656,-0.00191938935313,0.0,0.0,0.349065840244,0.0216827709228,-0.014399192296,0.297865211964,-0.0123287523165,-0.0123287523165,-0.000659123528749,0.0445666238666,152.889190674,152.889190674,-53.1951446533,-0.481479972601,2015,2020,2600,2059,2059,2962,3419,3418,3251,3357,3088,2989,3118,3093,3207,2781,3386,3400,3232,3353,3122,3332,3374,3180
1508406493616255015,121,1508406493615987594,plot_matl,0.25,-1000.0,0.199828356504,0.0197001192719,-0.0501716397703,-45.5383110046,0.349065840244,0.0283391084522,0.00407632533461,0.199828356504,0.00368284224533,0.00368284224533,-0.00181889883243,0.0197001192719,-70.8145599365,-70.8145599365,0.197068795562,97.9549102783,2017,2062,2115,2043,2043,2668,3306,3333,3136,3285,2999,2953,3038,3074,3155,2937,3386,3379,3223,3278,2937,3272,3302,3025,0.010005191,1.210028498,1.210628111,0.401425719261,4500.0,0.37740495801,0.00736568449065,-0.024020768702,108.093460083,0.0,6000.0,0.00407632533461,-0.00181889883243,0.0,0.0,0.349065840244,0.0216827709228,-0.014363729395,0.297974437475,-0.0127480486408,-0.0127480486408,-0.00138572207652,0.0422628819942,152.748718262,152.748718262,-52.9785804749,-0.859826207161,2018,2025,2601,2055,2055,2962,3419,3418,3251,3357,3088,2989,3118,3093,3207,2781,3386,3400,3235,3352,3122,3331,3375,3181
1508406493626342572,122,1508406493625972323,plot_matl,0.25,-1000.0,0.199836999178,-0.0184028241783,-0.0501629933715,-54.4457893372,0.349065840244,0.0283391084522,0.00407285941765,0.199836999178,0.00250823725946,0.00250823725946,0.0116726597771,-0.0184028241783,-71.0006027222,-71.0006027222,0.0940434932709,97.8525466919,2018,2041,2115,2043,2043,2668,3307,3332,3136,3285,3000,2953,3038,3075,3158,2937,3386,3379,3223,3278,2937,3272,3302,3025,0.009983286,1.220012771,1.217960892,0.401425719261,4500.0,0.37740495801,0.00501647451892,-0.024020768702,108.093460083,0.0,6000.0,0.00407285941765,0.0116726597771,0.0,0.0,0.349065840244,0.0240919683129,-0.0143620977178,0.297864258289,0.0103512210771,0.0103512210771,-0.0014142052969,-0.0173023063689,152.756744385,152.756744385,-52.9324798584,-0.957671821117,2017,2015,2601,2055,2055,2962,3416,3420,3253,3357,3088,2989,3121,3093,3208,2781,3386,3400,3235,3352,3122,3331,3375,3181
1508406493636451321,123,1508406493635998010,plot_matl,0.25,-1000.0,0.199917733669,0.0179151017219,-0.050082270056,-46.1852684021,0.349065840244,0.0283391084522,0.00409343838692,0.199917733669,0.00208284775726,0.00208284775726,-0.00215915590525,0.0179151017219,-71.1894226074,-71.1894226074,0.0989707931876,97.966758728,2036,2043,2115,2043,2043,2668,3307,3332,3136,3285,3000,2953,3038,3075,3158,2939,3387,3382,3226,3282,2940,3271,3302,3025,0.010026104,1.230038541,1.233210792,0.401425719261,4500.0,0.37740495801,0.00416569551453,-0.024020768702,108.093460083,0.0,6000.0,0.00409343838692,-0.00215915590525,0.0,0.0,0.349065840244,0.0240919683129,-0.0143747134134,0.297941476107,0.00985932722688,0.00985932722688,-0.00115854945034,-0.0187672264874,152.769592285,152.769592285,-52.8684043884,-0.762998461723,2029,2014,2600,2055,2055,2962,3416,3420,3253,3357,3088,2989,3121,3093,3208,2781,3385,3399,3233,3354,3121,3333,3376,3180
1508406493646347416,124,1508406493645951062,plot_matl,0.25,-1000.0,0.199917733669,0.0179151017219,-0.050082270056,-46.1852684021,0.349065840244,0.0283391084522,0.00409343838692,0.199917733669,0.00208284775726,0.00208284775726,-0.00215915590525,0.0179151017219,-71.1894226074,-71.1894226074,0.0989707931876,97.966758728,2036,2043,2115,2043,2043,2668,3307,3332,3136,3285,3000,2953,3038,3075,3158,2939,3387,3382,3226,3282,2940,3271,3302,3025,0.009952007,1.23999117,1.234048868,0.401425719261,4500.0,0.37740495801,0.00416569551453,-0.024020768702,108.093460083,0.0,6000.0,0.00409343838692,-0.00215915590525,0.0,0.0,0.349065840244,0.0240919683129,-0.0143747134134,0.297941476107,0.00985932722688,0.00985932722688,-0.00115854945034,-0.0187672264874,152.769592285,152.769592285,-52.8684043884,-0.762998461723,2029,2014,2600,2055,2055,2962,3416,3420,3253,3357,3088,2989,3121,3093,3208,2781,3385,3399,3233,3354,3121,3333,3376,3180
1508406493656186251,125,1508406493655935548,plot_matl,0.25,-1000.0,0.199917733669,0.0179151017219,-0.050082270056,-46.1852684021,0.349065840244,0.0283391084522,0.00409343838692,0.199917733669,0.00208284775726,0.00208284775726,-0.00215915590525,0.0179151017219,-71.1894226074,-71.1894226074,0.0989707931876,97.966758728,2034,2047,2115,2045,2045,2667,3306,3333,3136,3286,3000,2952,3037,3075,3158,2939,3387,3382,3226,3282,2940,3271,3302,3025,0.00998284,1.249975124,1.247855,0.401425719261,4500.0,0.37740495801,0.00416569551453,-0.024020768702,108.093460083,0.0,6000.0,0.00409343838692,-0.00215915590525,0.0,0.0,0.349065840244,0.0240919683129,-0.0143747134134,0.297941476107,0.00985932722688,0.00985932722688,-0.00115854945034,-0.0187672264874,152.769592285,152.769592285,-52.8684043884,-0.762998461723,2033,2021,2600,2057,2057,2962,3418,3418,3252,3357,3090,2990,3119,3093,3208,2781,3385,3399,3233,3354,3121,3333,3376,3180
1508406493666172566,126,1508406493665967663,plot_matl,0.25,-1000.0,0.200114801526,-0.0239684712142,-0.0498851984739,-55.6705741882,0.349065840244,0.0269896276295,0.00406846450642,0.200105577707,-0.0117126889527,-0.0117126889527,-0.00165095215198,0.0141340270638,-70.6681137085,-70.6681137085,0.0978675857186,97.5250854492,2021,2052,2115,2045,2045,2667,3306,3333,3136,3286,3000,2952,3037,3089,3172,2952,3400,3393,3234,3291,2946,3280,3308,3025,0.010033691,1.260008421,1.264245066,0.401425719261,4500.0,0.37605547905,-0.0243861973286,-0.0253702495247,114.166122437,0.0,6000.0,0.00407181447372,-0.00171866791788,0.0,0.0,0.349065840244,0.0216827709228,-0.0143535295501,0.297863543034,-0.0150566138327,-0.0150566138327,-0.00158299074974,-0.0205636303872,153.127609253,153.127609253,-53.4201698303,-0.662927508354,2032,2025,2600,2057,2057,2962,3418,3418,3252,3357,3090,2990,3119,3109,3222,2793,3399,3412,3242,3363,3131,3339,3383,3180
1508406493676246970,127,1508406493675959296,plot_matl,0.25,-1000.0,0.200114801526,-0.0239684712142,-0.0498851984739,-55.6705741882,0.349065840244,0.0269896276295,0.00406846450642,0.200105577707,-0.0117126889527,-0.0117126889527,-0.00165095215198,0.0141340270638,-70.6681137085,-70.6681137085,0.0978675857186,97.5250854492,2014,2059,2116,2045,2045,2673,3314,3336,3141,3289,3003,2952,3037,3089,3172,2952,3400,3393,3234,3291,2946,3280,3308,3033,0.009990386,1.269999342,1.268779022,0.401425719261,4500.0,0.37740495801,0.00425712810829,-0.024020768702,108.093460083,0.0,6000.0,0.00408047670498,-0.00189040950499,0.0,0.0,0.349065840244,0.0216827709228,-0.0143535295501,0.297863543034,-0.0150566138327,-0.0150566138327,-0.00158299074974,-0.0205636303872,153.127609253,153.127609253,-53.4201698303,-0.662927508354,2033,2031,2601,2058,2058,2967,3425,3424,3256,3362,3091,2990,3119,3109,3222,2793,3399,3412,3242,3363,3131,3339,3383,3188
1508406493686254939,128,1508406493685943696,plot_matl,0.25,-1000.0,0.200012475252,0.0539228245616,-0.0499875321984,-37.600025177,0.349065840244,0.0283391084522,0.00407220423222,0.200007140636,0.00239983666688,0.00239983666688,-0.0017279376043,-0.0217842049897,-70.6676101685,-70.6676101685,-0.197384551167,97.7244262695,2011,2060,2116,2045,2045,2673,3314,3336,3141,3289,3003,2954,3042,3075,3158,2939,3388,3381,3224,3283,2941,3280,3308,3033,0.009983749,1.279983778,1.277919872,0.401425719261,4500.0,0.37740495801,0.00499353650957,-0.024020768702,108.093460083,0.0,6000.0,0.00407565385103,-0.00179773068521,0.0,0.0,0.349065840244,0.0240919683129,-0.0143922446296,0.297740846872,0.00875546783209,0.00875546783209,-0.000803148257546,-0.0169586185366,152.955490112,152.955490112,-53.4270172119,-0.543746352196,2025,2026,2601,2058,2058,2967,3425,3424,3256,3362,3091,2993,3122,3096,3209,2783,3388,3402,3236,3354,3123,3339,3383,3188
1508406493696123406,129,1508406493695949353,plot_matl,0.25,-1000.0,0.200022831559,0.0157988592982,-0.0499771721661,-46.2383041382,0.349065840244,0.0269896276295,0.00406809384003,0.200017303228,-0.011212836951,-0.011212836951,-0.0016523116501,-0.0219912100583,-70.6948471069,-70.6948471069,-0.0428678840399,97.9224090576,2015,2053,2116,2044,2044,2670,3304,3334,3137,3289,3003,2954,3042,3075,3158,2939,3388,3381,3224,3283,2941,3276,3304,3027,0.010005887,1.289989575,1.290759423,0.401425719261,4500.0,0.37740495801,0.00447781616822,-0.024020768702,108.093460083,0.0,6000.0,0.00407141726464,-0.00171985349152,0.0,0.0,0.349065840244,0.0240919683129,-0.0143843060359,0.297773301601,0.00804420933127,0.00804420933127,-0.000955739989877,-0.0171866361052,153.109558105,153.109558105,-53.3931770325,-0.562889397144,2026,2029,2599,2058,2058,2963,3421,3422,3253,3362,3091,2993,3122,3096,3209,2783,3388,3402,3236,3354,3123,3334,3379,3184
1508406493706235406,130,1508406493705976308,plot_matl,0.25,-1000.0,0.199960425496,0.0170674640685,-0.0500395745039,-46.1393241882,0.349065840244,0.0269896276295,0.00407863082364,0.199957191944,-0.00988028198481,-0.00988028198481,-0.001857932657,0.0171343684196,-70.8103179932,-70.8103179932,-0.0072552091442,98.1649093628,2011,2040,2116,2044,2044,2670,3304,3334,3137,3285,3002,2954,3038,3074,3157,2938,3386,3380,3224,3283,2941,3276,3304,3027,0.010027677,1.300017052,1.30359801,0.401425719261,4500.0,0.37605547905,-0.0205706749111,-0.0253702495247,114.166122437,0.0,6000.0,0.00406891899183,-0.00166170450393,0.0,0.0,0.349065840244,0.0240919683129,-0.0143793253228,0.297913372517,0.00967143196613,0.00967143196613,-0.00104933965486,0.0422316752374,153.049865723,153.049865723,-53.3803405762,-0.368583083153,2021,2018,2599,2058,2058,2963,3421,3422,3253,3359,3091,2991,3121,3093,3208,2782,3387,3401,3234,3354,3123,3334,3379,3184
1508406493716188513,131,1508406493715959228,plot_matl,0.25,-1000.0,0.199836373329,-0.0183609239757,-0.0501636192203,-54.8022956848,0.349065840244,0.0283391084522,0.00408610375598,0.199873358011,0.00403608661145,0.00403608661145,-0.00200907071121,0.0187874231488,-70.9425430298,-70.9425430298,0.067199409008,97.8842468262,2019,2053,2115,2043,2043,2669,3307,3334,3137,3285,3002,2954,3038,3074,3157,2938,3386,3380,3224,3281,2941,3272,3303,3025,0.009981913,1.309999726,1.307630603,0.401425719261,4500.0,0.37740495801,0.00839205179363,-0.024020768702,108.093460083,0.0,6000.0,0.00409003905952,-0.0020886848215,0.0,0.0,0.349065840244,0.0240919683129,-0.0143763516098,0.298028260469,0.00875722710043,0.00875722710043,-0.00111814076081,0.0400914363563,153.008361816,153.008361816,-53.5698165894,-0.123109906912,2021,2021,2600,2056,2056,2963,3417,3422,3253,3359,3091,2991,3121,3093,3208,2782,3387,3401,3234,3354,3125,3332,3374,3181
1508406493726189316,132,1508406493725983417,plot_matl,0.25,-1000.0,0.199840292335,0.019444309175,-0.0501597113907,-45.4170341492,0.349065840244,0.0283391084522,0.00409151474014,0.199842587113,0.00382181373425,0.00382181373425,-0.00213544070721,0.0194184742868,-71.0747375488,-71.0747375488,0.162919119,97.7933349609,2016,2044,2115,2043,2043,2669,3307,3335,3138,3285,2999,2953,3038,3072,3156,2938,3386,3380,3224,3281,2941,3272,3303,3025,0.010023598,1.320023755,1.323114936,0.401425719261,4500.0,0.37740495801,0.00794508401304,-0.024020768702,108.093460083,0.0,6000.0,0.00408299500123,-0.0019576526247,0.0,0.0,0.349065840244,0.0240919683129,-0.014372642152,0.298186182976,0.00844816304743,0.00844816304743,-0.00117744482122,0.0371443964541,152.972732544,152.972732544,-53.519405365,-0.362904310226,2022,2018,2600,2056,2056,2963,3417,3422,3252,3359,3090,2989,3119,3093,3206,2781,3385,3401,3234,3354,3125,3332,3374,3181
1508406493736225540,133,1508406493735965706,plot_matl,0.25,-1000.0,0.199849113822,0.0192938782275,-0.0501508899033,-45.6527099609,0.349065840244,0.0269896276295,0.00410832930356,0.199850797653,-0.0102065661922,-0.0102065661922,0.0109586678445,0.0192735847086,-71.0196990967,-71.0196990967,-0.124364964664,97.590133667,2010,2053,2115,2044,2044,2669,3307,3335,3138,3285,2999,2953,3038,3072,3156,2938,3386,3380,3223,3282,2939,3272,3303,3025,0.009982465,1.330006369,1.327667845,0.401425719261,4500.0,0.37740495801,0.00602401793003,-0.024020768702,108.093460083,0.0,6000.0,0.00409958558157,-0.00228719878942,0.0,0.0,0.349065840244,0.0216827709228,-0.0143833914772,0.298192173243,-0.0152262402698,-0.0152262402698,-0.00096378067974,-0.0864782631397,152.936462402,152.936462402,-53.4031867981,-0.333763509989,2019,2023,2600,2051,2051,2963,3417,3422,3252,3359,3090,2989,3119,3093,3206,2781,3385,3400,3234,3355,3124,3331,3377,3183
1508406493746404820,134,1508406493745963826,plot_matl,0.25,-1000.0,0.199816167355,-0.0179895032197,-0.0501838251948,-54.6020851135,0.349065840244,0.0269896276295,0.00409946870059,0.199781373143,-0.0103037878871,-0.0103037878871,0.0111375171691,-0.0172831024975,-70.9036636353,-70.9036636353,0.0203091315925,97.3916320801,2017,2044,2115,2044,2044,2670,3308,3333,3138,3284,3001,2953,3038,3073,3158,2938,3386,3380,3223,3282,2939,3272,3303,3025,0.009998105,1.340004559,1.33974607,0.401425719261,4500.0,0.37740495801,0.00602401793003,-0.024020768702,108.093460083,0.0,6000.0,0.00409027002752,-0.00210123648867,0.0,0.0,0.349065840244,0.0216827709228,-0.0143922176212,0.298298686743,-0.015076033771,-0.015076033771,-0.00078835117165,-0.0267341267318,152.908843994,152.908843994,-53.1838531494,-0.498070806265,2022,2027,2600,2051,2051,2964,3420,3420,3253,3360,3089,2989,3118,3094,3206,2781,3385,3400,3234,3355,3124,3331,3377,3183
1508406493756323424,135,1508406493755956292,plot_matl,0.25,-1000.0,0.199790760875,-0.0174772050232,-0.0502092391253,-54.7160873413,0.349065840244,0.0269896276295,0.00406705867499,0.199794992805,-0.00984335131943,-0.00984335131943,-0.00163009238895,0.0203505195677,-70.887550354,-70.887550354,0.276214420795,97.3243484497,2026,2062,2116,2044,2044,2670,3308,3333,3138,3284,3001,2953,3038,3073,3158,2938,3387,3379,3224,3281,2939,3271,3304,3025,0.0099916,1.349996484,1.348866,0.401425719261,4500.0,0.37605547905,-0.0204650741071,-0.0253702495247,114.166122437,0.0,6000.0,0.00407023215666,-0.00169454305433,0.0,0.0,0.349065840244,0.0240919683129,-0.0143993850797,0.298232853413,0.0106854792684,0.0106854792684,-0.000645900086965,0.0366173572838,152.924377441,152.924377441,-53.4076156616,-0.485768854618,2030,2034,2600,2051,2051,2964,3420,3420,3253,3360,3089,2989,3118,3094,3206,2781,3387,3401,3232,3352,3122,3332,3377,3181
1508406493766242375,136,1508406493766012448,plot_matl,0.25,-1000.0,0.199790760875,-0.0174772050232,-0.0502092391253,-54.7160873413,0.349065840244,0.0269896276295,0.00406705867499,0.199794992805,-0.00984335131943,-0.00984335131943,-0.00163009238895,0.0203505195677,-70.887550354,-70.887550354,0.276214420795,97.3243484497,2022,2056,2116,2045,2045,2668,3307,3336,3136,3285,2999,2953,3038,3073,3158,2938,3387,3379,3224,3281,2939,3271,3304,3025,0.010056252,1.360053147,1.367650272,0.401425719261,4500.0,0.37740495801,0.00793184526265,-0.024020768702,108.093460083,0.0,6000.0,0.00406647473574,-0.00161875342019,0.0,0.0,0.349065840244,0.0240919683129,-0.0143993850797,0.298232853413,0.0106854792684,0.0106854792684,-0.000645900086965,0.0366173572838,152.924377441,152.924377441,-53.4076156616,-0.485768854618,2027,2030,2600,2055,2055,2963,3418,3419,3254,3358,3090,2989,3120,3094,3206,2781,3387,3401,3232,3352,3122,3332,3377,3181
1508406493776136141,137,1508406493775972793,plot_matl,0.25,-1000.0,0.199811920524,-0.0178843326867,-0.0501880832016,-54.5243377686,0.349065840244,0.0283391084522,0.0040633152239,0.199804648757,0.00354110728949,0.00354110728949,-0.00155456655193,-0.0177486371249,-70.9800796509,-70.9800796509,0.550712883472,97.5953598022,2026,2050,2116,2045,2045,2668,3307,3336,3136,3285,2999,2953,3038,3073,3156,2939,3387,3381,3222,3283,2940,3272,3304,3025,0.009958991,1.37001307,1.364381767,0.401425719261,4500.0,0.37605547905,-0.0197469703853,-0.0253702495247,114.166122437,0.0,6000.0,0.00406647473574,-0.00161875342019,0.0,0.0,0.349065840244,0.0240919683129,-0.0144052859396,0.298112213612,0.00913841463625,0.00913841463625,-0.000528616656084,-0.0845882669091,152.976242065,152.976242065,-53.2257423401,-0.581172943115,2026,2021,2600,2055,2055,2963,3418,3419,3254,3358,3090,2989,3120,3093,3206,2782,3386,3401,3235,3354,3122,3332,3374,3181
1508406493786254194,138,1508406493785966462,plot_matl,0.25,-1000.0,0.199753344059,-0.0166773665696,-0.050246655941,-54.1978340149,0.349065840244,0.0283391084522,0.0040633152239,0.199804648757,0.00354110728949,0.00354110728949,-0.00155456655193,-0.0177486371249,-70.9800796509,-70.9800796509,0.550712883472,97.5953598022,2032,2060,2115,2045,2045,2668,3305,3334,3135,3284,2999,2953,3038,3073,3156,2939,3387,3381,3222,3283,2940,3272,3304,3023,0.009993753,1.380007065,1.379137914,0.401425719261,4500.0,0.37740495801,0.00814041960984,-0.024020768702,108.093460083,0.0,6000.0,0.00409481627867,-0.00218325713649,0.0,0.0,0.349065840244,0.0240919683129,-0.0144052859396,0.298112213612,0.00913841463625,0.00913841463625,-0.000528616656084,-0.0845882669091,152.976242065,152.976242065,-53.2257423401,-0.581172943115,2036,2034,2600,2052,2052,2961,3418,3420,3252,3357,3089,2989,3120,3093,3206,2782,3386,3401,3235,3354,3122,3332,3374,3181
1508406493796269094,139,1508406493795994935,plot_matl,0.25,-1000.0,0.199739441276,0.0215671993792,-0.0502605624497,-44.7411270142,0.349065840244,0.0283391084522,0.0040633152239,0.199804648757,0.00354110728949,0.00354110728949,-0.00155456655193,-0.0177486371249,-70.9800796509,-70.9800796509,0.550712883472,97.5953598022,2021,2062,2115,2045,2045,2668,3305,3334,3135,3284,2999,2953,3037,3074,3156,2938,3387,3380,3225,3281,2939,3272,3304,3023,0.010027327,1.390034941,1.393798453,0.401425719261,4500.0,0.37605547905,-0.0181832630187,-0.0253702495247,114.166122437,0.0,6000.0,0.00408795382828,-0.00203512934968,0.0,0.0,0.349065840244,0.0240919683129,-0.0144052859396,0.298112213612,0.00913841463625,0.00913841463625,-0.000528616656084,-0.0845882669091,152.976242065,152.976242065,-53.2257423401,-0.581172943115,2023,2029,2600,2052,2052,2961,3418,3420,3252,3357,3089,2990,3121,3094,3209,2780,3388,3398,3234,3353,3122,3332,3374,3181
1508406493806291042,140,1508406493805949702,plot_matl,0.25,-1000.0,0.19976182282,0.0211518127471,-0.0502381771803,-44.8650436401,0.349065840244,0.0283391084522,0.00409669568762,0.199779987335,0.00436325976625,0.00436325976625,-0.00221028272063,0.0207477007061,-71.1358032227,-71.1358032227,0.477945297956,97.217590332,2003,2062,2115,2046,2046,2668,3306,3332,3136,3284,2999,2953,3037,3074,3156,2938,3387,3380,3225,3281,2939,3271,3303,3023,0.009954777,1.399989819,1.39366878,0.401425719261,4500.0,0.37605547905,-0.0192355774343,-0.0253702495247,114.166122437,0.0,6000.0,0.0040802997537,-0.00188053911552,0.0,0.0,0.349065840244,0.0240919683129,-0.0144172757864,0.298101991415,0.00941227935255,0.00941227935255,-0.000290296564344,0.0396204926074,152.710159302,152.710159302,-53.0705757141,-0.742824137211,2015,2027,2601,2054,2054,2961,3420,3421,3252,3357,3089,2990,3121,3094,3209,2780,3388,3398,3234,3353,3122,3332,3376,3182
1508406493816353897,141,1508406493815970466,plot_matl,0.25,-1000.0,0.199816912413,0.020082751289,-0.0501830875874,-45.4955482483,0.349065840244,0.0283391084522,0.00409669568762,0.199779987335,0.00436325976625,0.00436325976625,-0.00221028272063,0.0207477007061,-71.1358032227,-71.1358032227,0.477945297956,97.217590332,2023,2069,2115,2046,2046,2668,3306,3332,3136,3285,2998,2952,3040,3071,3156,2940,3386,3379,3223,3281,2939,3271,3303,3023,0.01002003,1.410010516,1.41282423,0.401425719261,4500.0,0.37740495801,0.00816765241325,-0.024020768702,108.093460083,0.0,6000.0,0.00407467782497,-0.00177620607428,0.0,0.0,0.349065840244,0.0240919683129,-0.0144172757864,0.298101991415,0.00941227935255,0.00941227935255,-0.000290296564344,0.0396204926074,152.710159302,152.710159302,-53.0705757141,-0.742824137211,2031,2044,2601,2054,2054,2961,3420,3421,3252,3357,3088,2989,3120,3094,3206,2782,3387,3400,3233,3353,3122,3332,3376,3182
