%time,field.header.seq,field.header.stamp,field.header.frame_id,field.FFJ4_set_point,field.FFJ4_position_gain,field.FFJ4_process_value,field.FFJ4_process_value_dot,field.FFJ4_error,field.FFJ4_command,field.FFJ1,field.FFJ2,field.FFJ3,field.FFJ4,field.FFJ1_dot,field.FFJ2_dot,field.FFJ3_dot,field.FFJ4_dot,field.FFJ1_tao,field.FFJ2_tao,field.FFJ3_tao,field.FFJ4_tao,field.pac0,field.pac1,field.pdc0,field.tac0,field.tdc0,field.el0,field.el1,field.el2,field.el3,field.el4,field.el5,field.el6,field.el7,field.el8,field.el9,field.el10,field.el11,field.el12,field.el13,field.el14,field.el15,field.el16,field.el17,field.el18,field.dt,field.time,field.test_time2,field.FFJ0_set_point,field.FFJ0_position_gain,field.FFJ0_process_value,field.FFJ0_process_value_dot,field.FFJ0_error,field.FFJ0_command,field.FFJ3_set_point,field.FFJ3_position_gain,field.FFJ3_process_value,field.FFJ3_process_value_dot,field.FFJ3_error,field.FFJ3_command,field.MFJ1,field.MFJ2,field.MFJ3,field.MFJ4,field.MFJ1_dot,field.MFJ2_dot,field.MFJ3_dot,field.MFJ4_dot,field.MFJ1_tao,field.MFJ2_tao,field.MFJ3_tao,field.MFJ4_tao,field.Mpac0,field.Mpac1,field.Mpdc0,field.Mtac0,field.Mtdc0,field.Mel0,field.Mel1,field.Mel2,field.Mel3,field.Mel4,field.Mel5,field.Mel6,field.Mel7,field.Mel8,field.Mel9,field.Mel10,field.Mel11,field.Mel12,field.Mel13,field.Mel14,field.Mel15,field.Mel16,field.Mel17,field.Mel18
1508409815100528693,104,1508409815100101626,plot_matl,0.25,-5000.0,0.232256755233,0.0090576633811,-0.0177432410419,-86.5135116577,0.349065840244,0.0269896276295,0.00704513024539,0.232256755233,-0.00377318589017,-0.00377318589017,0.00532866921276,0.0090576633811,-76.2766723633,-76.2766723633,1.01427447796,90.8305435181,2024,2066,2106,2046,2046,2711,3321,3343,3147,3292,3007,2966,3052,3078,3162,2914,3383,3376,3213,3278,2928,3279,3306,3025,0.010010808,1.040027764,1.041124032,0.401425719261,4500.0,0.37605547905,-0.00754637178034,-0.0253702495247,114.166122437,0.0,6000.0,0.00704513024539,0.00532866921276,0.0,0.0,0.349065840244,0.0216827709228,-0.0130292586982,0.300503343344,0.000438473391114,0.000438473391114,0.00231293635443,-0.00888098124415,154.088973999,154.088973999,-55.2532691956,0.890399754047,2030,2039,2591,2058,2058,3001,3430,3429,3267,3366,3100,3008,3134,3100,3217,2746,3383,3397,3226,3353,3116,3337,3379,3185
1508409815110378081,105,1508409815110085437,plot_matl,0.25,-5000.0,0.232235535979,-0.0284066423774,-0.0177644602954,-95.1661834717,0.349065840244,0.0269896276295,0.00705640437081,0.232235535979,-0.00434773229063,-0.00434773229063,-0.00830916501582,-0.0284066423774,-76.3025131226,-76.3025131226,0.898794412613,90.7397613525,2000,2057,2105,2047,2047,2711,3320,3340,3150,3292,3007,2966,3052,3078,3162,2914,3383,3376,3213,3278,2928,3279,3305,3027,0.009982689,1.050011194,1.048182345,0.401425719261,4500.0,0.37605547905,-0.00869546458125,-0.0253702495247,114.166122437,0.0,6000.0,0.00705640437081,-0.00830916501582,0.0,0.0,0.349065840244,0.0216827709228,-0.0130224870518,0.300547063351,-0.000553244899493,-0.000553244899493,0.00219640228897,-0.00963427685201,154.000228882,154.000228882,-55.259059906,0.954281926155,2018,2027,2590,2059,2059,3001,3430,3426,3267,3366,3100,3008,3134,3100,3217,2746,3383,3397,3226,3353,3116,3337,3380,3186
1508409815120510205,106,1508409815120096056,plot_matl,0.25,-5000.0,0.232248604298,0.00925135239959,-0.0177514012903,-86.5147018433,0.349065840244,0.0269896276295,0.00708953430876,0.232248604298,-0.00355919846334,-0.00355919846334,0.00444629043341,0.00925135239959,-76.3422164917,-76.3422164917,0.725498914719,90.7381362915,1995,2045,2105,2047,2047,2711,3320,3340,3150,3293,3007,2965,3052,3077,3162,2916,3383,3373,3213,3278,2928,3279,3305,3027,0.01001025,1.060021793,1.0610865,0.401425719261,4500.0,0.37605547905,-0.00711839692667,-0.0253702495247,114.166122437,0.0,6000.0,0.00708953430876,0.00444629043341,0.0,0.0,0.349065840244,0.0216827709228,-0.013016520068,0.300461292267,-0.000452904729173,-0.000452904729173,0.00207936065271,-0.00788693968207,154.000183105,154.000183105,-55.08959198,1.0381860733,2010,2021,2590,2059,2059,3001,3430,3426,3267,3365,3100,3006,3134,3100,3217,2747,3381,3399,3226,3353,3116,3337,3380,3186
1508409815130574052,107,1508409815130092061,plot_matl,0.25,-5000.0,0.232194960117,-0.0275549404323,-0.01780503802,-95.8319625854,0.349065840244,0.0283391084522,0.00707054557279,0.232194960117,0.0104430587962,0.0104430587962,0.00484803505242,-0.0275549404323,-76.3198776245,-76.3198776245,0.728725671768,90.7433929443,2022,2054,2106,2047,2047,2711,3321,3340,3150,3293,3007,2965,3052,3077,3162,2916,3383,3373,3213,3278,2929,3279,3307,3026,0.009996215,1.070018009,1.069595005,0.401425719261,4500.0,0.37740495801,0.0208861175925,-0.024020768702,108.093460083,0.0,6000.0,0.00707054557279,0.00484803505242,0.0,0.0,0.349065840244,0.0216827709228,-0.0130654331297,0.300446480513,-0.000792452541646,-0.000792452541646,0.00308376923203,-0.00752817234024,154.020568848,154.020568848,-55.2002296448,1.03234827518,2025,2028,2591,2059,2059,3001,3429,3426,3267,3365,3100,3006,3134,3100,3217,2747,3381,3399,3226,3352,3117,3339,3380,3184
1508409815140550293,108,1508409815140097111,plot_matl,0.25,-5000.0,0.232226267457,0.00973926577717,-0.0177737269551,-86.6722335815,0.349065840244,0.0269896276295,0.00704225338995,0.232226267457,-0.0031573807355,-0.0031573807355,-0.00801368616521,0.00973926577717,-76.4610900879,-76.4610900879,0.848126351833,90.533531189,2002,2032,2106,2047,2047,2711,3321,3344,3149,3291,3008,2965,3051,3079,3162,2916,3383,3373,3213,3278,2929,3279,3307,3026,0.010004364,1.080023049,1.080471312,0.401425719261,4500.0,0.37605547905,-0.006314761471,-0.0253702495247,114.166122437,0.0,6000.0,0.00704225338995,-0.00801368616521,0.0,0.0,0.349065840244,0.0216827709228,-0.0130932657048,0.300379127264,0.000222118120291,0.000222118120291,0.00362347741611,-0.00616675196216,154.06729126,154.06729126,-55.2541427612,0.947075307369,2014,2007,2591,2059,2059,3001,3429,3428,3266,3367,3098,3005,3133,3101,3217,2748,3383,3399,3226,3352,3117,3339,3380,3184
1508409815150599830,109,1508409815150087924,plot_matl,0.25,-5000.0,0.232281222939,0.00867610983551,-0.0177187770605,-86.5034179688,0.349065840244,0.0269896276295,0.00706710340455,0.232281222939,-0.0028527083341,-0.0028527083341,0.00489490292966,0.00867610983551,-76.3695449829,-76.3695449829,0.937737882137,90.1084671021,1994,2049,2107,2048,2048,2711,3321,3344,3149,3291,3008,2965,3051,3079,3162,2916,3383,3374,3213,3278,2929,3276,3305,3026,0.009990056,1.090013456,1.088916104,0.401425719261,4500.0,0.37605547905,-0.00570541666821,-0.0253702495247,114.166122437,0.0,6000.0,0.00706710340455,0.00489490292966,0.0,0.0,0.349065840244,0.0216827709228,-0.0130734127015,0.300374180079,-0.000223587296205,-0.000223587296205,0.00321947457269,-0.00610752310604,154.055038452,154.055038452,-55.281375885,1.25047552586,2010,2017,2592,2060,2060,3001,3429,3428,3266,3367,3098,3005,3133,3101,3217,2748,3383,3398,3225,3354,3117,3339,3380,3184
1508409815160543275,110,1508409815160101088,plot_matl,0.25,-5000.0,0.232265248895,0.00903413444757,-0.0177347548306,-86.423324585,0.349065840244,0.0269896276295,0.00706459069625,0.232265248895,-0.00285106385127,-0.00285106385127,0.00494684744626,0.00903413444757,-76.3021697998,-76.3021697998,0.895032525063,89.7406539917,2012,2050,2107,2048,2048,2713,3320,3342,3150,3289,3008,2964,3051,3077,3162,2916,3383,3374,3213,3278,2929,3276,3305,3026,0.010014101,1.100027417,1.10155111,0.401425719261,4500.0,0.37605547905,-0.00570212770253,-0.0253702495247,114.166122437,0.0,6000.0,0.00706459069625,0.00494684744626,0.0,0.0,0.349065840244,0.0216827709228,-0.0130710722879,0.300492525101,-0.00110313144978,-0.00110313144978,0.00319086061791,-0.00839937292039,154.043762207,154.043762207,-55.4136886597,1.21571743488,2021,2027,2592,2060,2060,3001,3429,3429,3266,3366,3100,3005,3133,3100,3215,2748,3383,3398,3225,3354,3117,3339,3380,3184
1508409815170397303,111,1508409815170088774,plot_matl,0.25,-5000.0,0.232271134853,-0.0290686488152,-0.0177288595587,-95.8169250488,0.349065840244,0.0269896276295,0.00706049241126,0.232271134853,-0.00284882704727,-0.00284882704727,0.00502326898277,-0.0290686488152,-76.277305603,-76.277305603,0.88648223877,89.9233703613,2003,2052,2106,2048,2048,2713,3320,3342,3150,3289,3008,2964,3051,3077,3162,2917,3381,3377,3214,3275,2928,3277,3307,3026,0.009986267,1.110014631,1.108475637,0.401425719261,4500.0,0.37605547905,-0.00569765409455,-0.0253702495247,114.166122437,0.0,6000.0,0.00706049241126,0.00502326898277,0.0,0.0,0.349065840244,0.0216827709228,-0.0130721125752,0.300354391336,-0.000940750178415,-0.000940750178415,-0.0121334744617,-0.0674919635057,154.125823975,154.125823975,-55.395740509,1.14895093441,2012,2026,2592,2060,2060,3001,3429,3429,3266,3366,3100,3005,3133,3100,3215,2747,3382,3396,3226,3352,3118,3339,3380,3183
1508409815180480741,112,1508409815180145391,plot_matl,0.25,-5000.0,0.232283502817,0.00859507825226,-0.0177164971828,-86.5494842529,0.349065840244,0.0269896276295,0.00702189374715,0.232283502817,-0.00255425251089,-0.00255425251089,0.00580735318363,0.00859507825226,-76.1557312012,-76.1557312012,0.975948929787,90.056312561,2010,2063,2106,2048,2048,2711,3320,3344,3150,3292,3009,2965,3050,3077,3162,2917,3381,3377,3214,3275,2928,3277,3307,3026,0.010056036,1.120071073,1.126276032,0.401425719261,4500.0,0.37605547905,-0.00510850502178,-0.0253702495247,114.166122437,0.0,6000.0,0.00702189374715,0.00580735318363,0.0,0.0,0.349065840244,0.0240919683129,-0.0130722066388,0.300410687923,0.0218332596123,0.0218332596123,0.00321651203558,-0.00677961204201,154.119125366,154.119125366,-55.3594322205,1.27272188663,2019,2028,2592,2059,2059,3002,3430,3428,3268,3365,3100,3005,3133,3100,3215,2747,3382,3396,3226,3352,3118,3339,3380,3183
1508409815190545006,113,1508409815190104713,plot_matl,0.25,-5000.0,0.232216387987,-0.0279763303697,-0.0177836138755,-96.0064620972,0.349065840244,0.0269896276295,0.00698826275766,0.232216387987,-0.0025704249274,-0.0025704249274,-0.00694103306159,-0.0279763303697,-75.9875564575,-75.9875564575,1.09029626846,89.9952392578,2025,2071,2106,2048,2048,2711,3320,3344,3150,3292,3009,2965,3050,3079,3161,2917,3382,3377,3214,3278,2928,3278,3306,3026,0.009959036,1.13003048,1.125371068,0.401425719261,4500.0,0.37605547905,-0.0051408498548,-0.0253702495247,114.166122437,0.0,6000.0,0.00698826275766,-0.00694103306159,0.0,0.0,0.349065840244,0.0240919683129,-0.0130872409791,0.300349533558,0.0213721096516,0.0213721096516,-0.0118467155844,-0.00554768787697,154.097473145,154.097473145,-55.465877533,1.29586577415,2039,2042,2592,2059,2059,3002,3430,3428,3268,3365,3100,3005,3133,3100,3216,2746,3383,3397,3225,3353,3118,3339,3379,3183
1508409815200532316,114,1508409815200116313,plot_matl,0.25,-5000.0,0.232236012816,0.00950284395367,-0.0177639909089,-86.4239730835,0.349065840244,0.0269896276295,0.00697310548276,0.232236012816,-0.00210331240669,-0.00210331240669,-0.00664223823696,0.00950284395367,-75.9801635742,-75.9801635742,0.830263197422,90.0953903198,2037,2067,2107,2048,2048,2711,3320,3343,3150,3293,3006,2965,3050,3079,3161,2917,3382,3377,3214,3278,2928,3278,3306,3025,0.010011454,1.140042241,1.141305756,0.401425719261,4500.0,0.37605547905,-0.00420662481338,-0.0253702495247,114.166122437,0.0,6000.0,0.00697310548276,-0.00664223823696,0.0,0.0,0.349065840244,0.0216827709228,-0.0130812777206,0.30036175251,-0.00201292219572,-0.00201292219572,0.00338341691531,-0.0057930322364,154.119216919,154.119216919,-55.4932327271,1.25200426579,2037,2041,2592,2056,2056,3001,3427,3429,3269,3365,3098,3005,3133,3100,3216,2746,3383,3397,3225,3353,3118,3339,3379,3184
1508409815210574175,115,1508409815210122857,plot_matl,0.25,-5000.0,0.232330352068,0.0455558486283,-0.0176696460694,-78.025680542,0.349065840244,0.0269896276295,0.00696209212765,0.232330352068,-0.00198180950247,-0.00198180950247,0.00698560243472,0.0455558486283,-75.8788833618,-75.8788833618,0.797306954861,90.1973876953,2038,2067,2107,2048,2048,2711,3320,3343,3150,3293,3006,2965,3053,3078,3160,2916,3381,3378,3214,3277,2928,3278,3306,3025,0.010006449,1.1500489,1.150741635,0.401425719261,4500.0,0.37605547905,-0.00396361900494,-0.0253702495247,114.166122437,0.0,6000.0,0.00696209212765,0.00698560243472,0.0,0.0,0.349065840244,0.0216827709228,-0.0130794160068,0.300419747829,-0.00248687854037,-0.00248687854037,-0.0120074814186,-0.00701323477551,154.133605957,154.133605957,-55.5302391052,1.28107857704,2039,2037,2592,2056,2056,3001,3427,3429,3269,3365,3098,3005,3134,3100,3214,2747,3381,3397,3225,3351,3119,3339,3379,3184
1508409815220472273,116,1508409815220086914,plot_matl,0.25,-5000.0,0.232329964638,-0.0302593521774,-0.0176700390875,-95.4425354004,0.349065840244,0.0269896276295,0.00697618955746,0.232329964638,-0.00234264833853,-0.00234264833853,0.00671003712341,-0.0302593521774,-75.6774902344,-75.6774902344,0.680888593197,90.1990890503,2030,2072,2107,2049,2049,2711,3321,3342,3148,3293,3006,2965,3053,3078,3160,2916,3381,3378,3214,3277,2928,3276,3305,3025,0.009962834,1.160012326,1.155688744,0.401425719261,4500.0,0.37605547905,-0.00468529667705,-0.0253702495247,114.166122437,0.0,6000.0,0.00697618955746,0.00671003712341,0.0,0.0,0.349065840244,0.0216827709228,-0.0130639392883,0.300303459167,-0.00246847467497,-0.00246847467497,-0.0123077863827,-0.00466759223491,154.143447876,154.143447876,-55.5422859192,1.41482794285,2040,2041,2592,2058,2058,2999,3429,3429,3266,3365,3098,3005,3134,3100,3214,2747,3381,3397,3225,3351,3119,3338,3377,3184
1508409815230579996,117,1508409815230136039,plot_matl,0.25,-5000.0,0.232329756021,0.00762559752911,-0.0176702383906,-86.6094818115,0.349065840244,0.0269896276295,0.0069512668997,0.232329756021,-0.00193574093282,-0.00193574093282,-0.0062047271058,0.00762559752911,-75.8192977905,-75.8192977905,0.84769064188,90.0585632324,2026,2065,2107,2049,2049,2711,3321,3342,3148,3290,3008,2965,3051,3079,3162,2919,3384,3377,3213,3277,2928,3276,3305,3025,0.010049181,1.170061681,1.175754177,0.401425719261,4500.0,0.37605547905,-0.00387148186564,-0.0253702495247,114.166122437,0.0,6000.0,0.0069512668997,-0.0062047271058,0.0,0.0,0.349065840244,0.0216827709228,-0.0130491945893,0.300314158201,-0.00197097589262,-0.00197097589262,0.00275125680491,-0.0666634663939,154.272964478,154.272964478,-55.6255874634,1.41424274445,2033,2036,2592,2058,2058,2999,3429,3429,3266,3364,3098,3005,3135,3102,3214,2749,3381,3398,3226,3351,3119,3338,3377,3184
1508409815240651893,118,1508409815240162528,plot_matl,0.25,-5000.0,0.232297942042,0.0462183132768,-0.0177020598203,-77.3235168457,0.349065840244,0.0283391084522,0.00693067302927,0.232297942042,0.0117454621941,0.0117454621941,-0.00580374104902,0.0462183132768,-75.8557281494,-75.8557281494,0.731231868267,90.0287704468,2023,2047,2107,2049,2049,2710,3320,3342,3148,3290,3008,2965,3051,3079,3162,2919,3384,3377,3213,3279,2931,3278,3304,3025,0.010027606,1.180088476,1.183257508,0.401425719261,4500.0,0.37740495801,0.0234909243882,-0.024020768702,108.093460083,0.0,6000.0,0.00693067302927,-0.00580374104902,0.0,0.0,0.349065840244,0.0216827709228,-0.0130518404767,0.30026692152,-0.00286551006138,-0.00286551006138,0.00281574507244,-0.00384788075462,154.204162598,154.204162598,-55.4578666687,1.45673394203,2029,2021,2591,2058,2058,2999,3429,3429,3266,3364,3098,3005,3135,3102,3214,2749,3381,3398,3226,3353,3118,3338,3380,3186
1508409815250622450,119,1508409815250119825,plot_matl,0.25,-5000.0,0.232271641493,0.00881124101579,-0.0177283566445,-86.610710144,0.349065840244,0.0269896276295,0.00693871686235,0.232271641493,-0.00200482201762,-0.00200482201762,0.0074595301412,0.00881124101579,-75.7322387695,-75.7322387695,0.786447823048,90.3859100342,2010,2044,2107,2049,2049,2710,3320,3343,3149,3292,3007,2965,3051,3078,3164,2917,3381,3377,3213,3279,2931,3278,3304,3025,0.00995631,1.190045913,1.18480089,0.401425719261,4500.0,0.37605547905,-0.00400964403525,-0.0253702495247,114.166122437,0.0,6000.0,0.00693871686235,0.0074595301412,0.0,0.0,0.349065840244,0.0216827709228,-0.0130384108052,0.300232231617,-0.00281845568679,-0.00281845568679,0.00255248858593,-0.00315503915772,154.217697144,154.217697144,-55.4501571655,1.34660100937,2016,2018,2591,2058,2058,2999,3429,3427,3268,3365,3099,3004,3134,3101,3216,2749,3382,3398,3226,3353,3118,3338,3380,3186
1508409815260507142,120,1508409815260103041,plot_matl,0.25,-5000.0,0.232217162848,0.00993665587157,-0.0177828390151,-86.5803451538,0.349065840244,0.0269896276295,0.00695938011631,0.232217162848,-0.00235063489527,-0.00235063489527,0.00705171981826,0.00993665587157,-75.6731033325,-75.6731033325,0.819579660892,90.5743179321,2001,2055,2106,2053,2053,2710,3320,3343,3149,3292,3007,2965,3051,3078,3164,2917,3381,3378,3214,3276,2929,3276,3305,3023,0.009982986,1.200029204,1.19795832,0.401425719261,4500.0,0.37605547905,-0.00470126979053,-0.0253702495247,114.166122437,0.0,6000.0,0.00695938011631,0.00705171981826,0.0,0.0,0.349065840244,0.0240919683129,-0.0130450064316,0.300207853317,0.0215516146272,0.0215516146272,-0.0126537438482,-0.00266953068785,154.231552124,154.231552124,-55.4880256653,1.17193639278,2009,2023,2592,2061,2061,2999,3429,3427,3268,3365,3099,3004,3134,3101,3216,2749,3382,3398,3225,3352,3119,3336,3380,3184
1508409815270425947,121,1508409815270101592,plot_matl,0.25,-5000.0,0.232272073627,0.00881336908787,-0.0177279226482,-86.5588760376,0.349065840244,0.0269896276295,0.00697482842952,0.232272073627,-0.00192368414719,-0.00192368414719,0.00674819527194,0.00881336908787,-75.878578186,-75.878578186,0.872287333012,90.6511383057,1988,2048,2106,2053,2053,2711,3319,3343,3147,3291,3007,2965,3051,3078,3162,2917,3381,3378,3214,3276,2929,3276,3305,3023,0.009997208,1.210027384,1.209662168,0.401425719261,4500.0,0.37605547905,-0.00384736829437,-0.0253702495247,114.166122437,0.0,6000.0,0.00697482842952,0.00674819527194,0.0,0.0,0.349065840244,0.0240919683129,-0.0130340149626,0.300300270319,0.0211449302733,0.0211449302733,0.00247268099338,-0.00451724790037,154.210281372,154.210281372,-55.4076843262,0.995233058929,2005,2015,2592,2061,2061,3001,3430,3429,3266,3366,3100,3005,3134,3100,3217,2749,3382,3398,3225,3352,3119,3336,3380,3184
1508409815280421842,122,1508409815280113277,plot_matl,0.25,-5000.0,0.232315137982,0.00791739858687,-0.0176848620176,-86.4430923462,0.349065840244,0.0283391084522,0.00698727276176,0.232315137982,0.0120241157711,0.0120241157711,0.00648487964645,0.00791739858687,-75.826965332,-75.826965332,0.860370397568,90.6898269653,1988,2048,2106,2053,2053,2711,3319,3343,3147,3291,3007,2965,3051,3078,3162,2917,3381,3378,3214,3276,2929,3276,3305,3023,0.010012542,1.220039541,1.221530124,0.401425719261,4500.0,0.37740495801,0.0240482315421,-0.024020768702,108.093460083,0.0,6000.0,0.00698727276176,0.00648487964645,0.0,0.0,0.349065840244,0.0216827709228,-0.0130249354988,0.30042591691,-0.00351808173582,-0.00351808173582,0.0022855612915,0.0547408238053,154.172042847,154.172042847,-55.3711395264,1.17647564411,2005,2015,2592,2061,2061,3001,3430,3429,3266,3366,3100,3005,3134,3100,3217,2749,3382,3398,3225,3352,3119,3336,3380,3184
1508409815290480929,123,1508409815290113647,plot_matl,0.25,-5000.0,0.232216224074,-0.0279692001641,-0.017783774063,-95.6608428955,0.349065840244,0.0269896276295,0.00697464682162,0.232216224074,-0.00227738777176,-0.00227738777176,0.00674270838499,-0.0279692001641,-75.6700210571,-75.6700210571,1.13685429096,90.6924514771,2008,2060,2106,2050,2050,2712,3321,3343,3150,3291,3009,2966,3053,3078,3162,2916,3381,3376,3211,3276,2929,3277,3304,3026,0.009999022,1.23003946,1.229879706,0.401425719261,4500.0,0.37605547905,-0.00455477554351,-0.0253702495247,114.166122437,0.0,6000.0,0.00697464682162,0.00674270838499,0.0,0.0,0.349065840244,0.0216827709228,-0.0130047537386,0.300479203463,-0.00378058687784,-0.00378058687784,0.00187444791663,-0.00812462437898,154.287460327,154.287460327,-55.3565864563,1.1057767868,2021,2031,2592,2065,2065,3001,3432,3430,3268,3366,3098,3005,3135,3100,3217,2747,3381,3398,3225,3352,3118,3338,3377,3184
1508409815300681473,124,1508409815300175421,plot_matl,0.25,-5000.0,0.232208773494,0.0100995665416,-0.0177912190557,-86.5451278687,0.349065840244,0.0269896276295,0.00694834114984,0.232208773494,-0.00234055076726,-0.00234055076726,-0.00616271002218,0.0100995665416,-75.6214828491,-75.6214828491,0.938832461834,90.7629318237,2014,2052,2106,2050,2050,2712,3321,3343,3150,3291,3009,2966,3053,3077,3160,2918,3380,3375,3212,3278,2929,3276,3305,3026,0.010063072,1.240101439,1.247820928,0.401425719261,4500.0,0.37605547905,-0.00468110153452,-0.0253702495247,114.166122437,0.0,6000.0,0.00694834114984,-0.00616271002218,0.0,0.0,0.349065840244,0.0216827709228,-0.0130028994754,0.300412803888,-0.0026510998141,-0.0026510998141,-0.013508901,-0.00680447649211,154.235092163,154.235092163,-55.4389076233,1.12915527821,2014,2020,2592,2065,2065,3001,3432,3430,3268,3366,3098,3005,3135,3100,3216,2747,3382,3398,3225,3351,3116,3336,3379,3184
1508409815310546807,125,1508409815310096836,plot_matl,0.25,-5000.0,0.232263669372,0.00899667851627,-0.0177363287657,-86.4451675415,0.349065840244,0.0269896276295,0.0069408165291,0.232263669372,-0.00188901962247,-0.00188901962247,-0.00599318230525,0.00899667851627,-75.6403579712,-75.6403579712,0.877902507782,90.8458938599,2022,2055,2107,2050,2050,2713,3321,3342,3151,3293,3009,2966,3053,3077,3160,2918,3380,3375,3212,3278,2929,3276,3305,3023,0.009919396,1.250022629,1.2399245,0.401425719261,4500.0,0.37605547905,-0.00377803924493,-0.0253702495247,114.166122437,0.0,6000.0,0.0069408165291,-0.00599318230525,0.0,0.0,0.349065840244,0.0240919683129,-0.0130006782711,0.300582498312,0.0208219662309,0.0208219662309,0.00176756468136,0.0516679957509,154.192565918,154.192565918,-55.5323867798,1.25841355324,2031,2027,2592,2057,2057,3000,3430,3429,3267,3364,3101,3005,3135,3100,3216,2747,3382,3398,3225,3351,3116,3336,3379,3183
1508409815320542822,126,1508409815320113253,plot_matl,0.25,-5000.0,0.232244238257,0.00943313352764,-0.0177557561547,-86.5088043213,0.349065840244,0.0283391084522,0.00693647097796,0.232244238257,0.0120587609708,0.0120587609708,0.007538321428,0.00943313352764,-75.8283996582,-75.8283996582,1.19617927074,91.2328948975,2033,2062,2107,2050,2050,2713,3321,3342,3151,3293,3009,2964,3053,3080,3161,2916,3382,3375,3214,3279,2928,3276,3305,3023,0.01001592,1.260039065,1.26200592,0.401425719261,4500.0,0.37740495801,0.0241175219417,-0.024020768702,108.093460083,0.0,6000.0,0.00693647097796,0.007538321428,0.0,0.0,0.349065840244,0.0216827709228,-0.0130273038521,0.300602853298,-0.00328141171485,-0.00328141171485,0.00231619412079,-0.0105487229303,154.191574097,154.191574097,-55.415977478,1.1331230402,2043,2038,2592,2057,2057,3000,3430,3429,3267,3364,3101,3005,3136,3101,3216,2746,3384,3399,3224,3352,3119,3336,3379,3183
1508409815330498375,127,1508409815330117551,plot_matl,0.25,-5000.0,0.232326105237,0.00780928321183,-0.017673894763,-86.4526367188,0.349065840244,0.0269896276295,0.00697898911312,0.232326105237,-0.0018056667177,-0.0018056667177,0.00665829051286,0.00780928321183,-76.0765075684,-76.0765075684,1.05826187134,91.5087280273,2020,2058,2106,2051,2051,2713,3320,3343,3150,3293,3009,2964,3053,3080,3161,2916,3382,3375,3214,3279,2928,3277,3307,3026,0.010004835,1.270043755,1.270614045,0.401425719261,4500.0,0.37605547905,-0.0036113334354,-0.0253702495247,114.166122437,0.0,6000.0,0.00697898911312,0.00665829051286,0.0,0.0,0.349065840244,0.0216827709228,-0.0130064915866,0.3006696105,-0.00227319868281,-0.00227319868281,0.00189542665612,-0.0118855191395,154.247283936,154.247283936,-55.4702224731,1.36400258541,2030,2026,2592,2061,2061,3001,3428,3429,3266,3364,3101,3005,3136,3101,3216,2746,3384,3399,3224,3352,3119,3337,3379,3184
1508409815340515347,128,1508409815340103087,plot_matl,0.25,-5000.0,0.232324674726,-0.0300758872181,-0.0176753271371,-95.2021560669,0.349065840244,0.0269896276295,0.00697838608176,0.232324674726,-0.00171778874937,-0.00171778874937,-0.00674446625635,-0.0300758872181,-76.1341323853,-76.1341323853,1.23079657555,91.5900192261,2030,2067,2106,2051,2051,2713,3320,3343,3150,3291,3008,2965,3051,3079,3163,2916,3382,3378,3214,3279,2928,3277,3307,3026,0.009984243,1.28002888,1.277983104,0.401425719261,4500.0,0.37605547905,-0.00343557749875,-0.0253702495247,114.166122437,0.0,6000.0,0.00697838608176,-0.00674446625635,0.0,0.0,0.349065840244,0.0216827709228,-0.0130040533841,0.30061596632,-0.00142871809658,-0.00142871809658,0.0018397931708,-0.0109132304788,154.218795776,154.218795776,-55.5488586426,1.39926445484,2032,2035,2592,2061,2061,3001,3428,3429,3266,3365,3101,3004,3136,3101,3216,2747,3382,3397,3224,3352,3119,3337,3379,3184
1508409815350494469,129,1508409815350114137,plot_matl,0.25,-5000.0,0.232295781374,0.00842663366348,-0.0177042204887,-86.4656600952,0.349065840244,0.0269896276295,0.00702602183446,0.232295781374,-0.00166270160116,-0.00166270160116,0.00571814505383,0.00842663366348,-76.2924880981,-76.2924880981,1.34059584141,91.5869216919,2037,2081,2105,2050,2050,2711,3321,3343,3150,3291,3008,2965,3051,3079,3163,2916,3382,3378,3214,3278,2928,3276,3306,3025,0.010010764,1.290039954,1.291388556,0.401425719261,4500.0,0.37605547905,-0.00332540320233,-0.0253702495247,114.166122437,0.0,6000.0,0.00702602183446,0.00571814505383,0.0,0.0,0.349065840244,0.0216827709228,-0.0130279930308,0.300517678261,-0.00247994810343,-0.00247994810343,-0.0130175454542,-0.00893320981413,154.213638306,154.213638306,-55.5890426636,1.2496201992,2041,2051,2590,2059,2059,3000,3431,3429,3266,3365,3101,3004,3136,3101,3216,2747,3382,3397,3224,3350,3119,3338,3381,3185
1508409815360536302,130,1508409815360089254,plot_matl,0.25,-5000.0,0.232233181596,0.00966841448098,-0.0177668184042,-86.503578186,0.349065840244,0.0269896276295,0.00706548104063,0.232233181596,-0.00110991997644,-0.00110991997644,0.00492842402309,0.00966841448098,-76.1671676636,-76.1671676636,1.4209305048,91.5071258545,2031,2065,2105,2050,2050,2711,3321,3342,3150,3294,3008,2966,3051,3079,3162,2919,3383,3378,3214,3278,2928,3276,3306,3025,0.009975399,1.300015192,1.29680187,0.401425719261,4500.0,0.37605547905,-0.00221983995289,-0.0253702495247,114.166122437,0.0,6000.0,0.00706548104063,0.00492842402309,0.0,0.0,0.349065840244,0.0216827709228,-0.013034763746,0.300495713949,-0.0024754893966,-0.0024754893966,0.00245796679519,-0.00851020310074,154.209976196,154.209976196,-55.5561218262,1.32138967514,2032,2034,2590,2059,2059,3000,3431,3427,3267,3367,3099,3003,3135,3100,3217,2749,3381,3397,3224,3350,3119,3338,3381,3185
1508409815370466293,131,1508409815370097306,plot_matl,0.25,-5000.0,0.232185095549,0.0106051396579,-0.0178149007261,-86.4883956909,0.349065840244,0.0269896276295,0.0070613832213,0.232185095549,-0.000908543821424,-0.000908543821424,-0.00841296929866,0.0106051396579,-76.1260299683,-76.1260299683,1.33650457859,91.2663345337,2029,2074,2106,2051,2051,2711,3321,3342,3150,3294,3008,2966,3051,3079,3162,2919,3383,3376,3211,3277,2929,3278,3306,3025,0.010006799,1.310022923,1.310890669,0.401425719261,4500.0,0.37605547905,-0.00181708764285,-0.0253702495247,114.166122437,0.0,6000.0,0.0070613832213,-0.00841296929866,0.0,0.0,0.349065840244,0.0216827709228,-0.0130388988182,0.30041924119,-0.00244799139909,-0.00244799139909,0.00255991285667,-0.00696617132053,154.171875,154.171875,-55.4236335754,1.16205620766,2037,2038,2591,2062,2062,3000,3431,3427,3267,3367,3099,3003,3135,3100,3217,2749,3381,3398,3224,3352,3117,3338,3380,3184
1508409815380479346,132,1508409815380109407,plot_matl,0.25,-5000.0,0.232245177031,0.00933585502207,-0.0177548285574,-86.3417358398,0.349065840244,0.0283391084522,0.0070923846215,0.232245177031,0.01234992221,0.01234992221,-0.00905139930546,0.00933585502207,-76.3312454224,-76.3312454224,1.24612855911,91.3185501099,2037,2067,2106,2051,2051,2711,3321,3345,3147,3293,3007,2966,3054,3078,3162,2919,3383,3376,3211,3277,2929,3278,3306,3025,0.010012266,1.320035205,1.321619112,0.401425719261,4500.0,0.37740495801,0.02469984442,-0.024020768702,108.093460083,0.0,6000.0,0.0070923846215,-0.00905139930546,0.0,0.0,0.349065840244,0.0216827709228,-0.0130303092301,0.300476670265,-0.00242712185718,-0.00242712185718,0.00237310049124,-0.00800041668117,154.212677002,154.212677002,-55.5594291687,1.16328501701,2041,2035,2591,2062,2062,3000,3429,3427,3267,3362,3100,3004,3134,3100,3215,2749,3381,3398,3224,3352,3117,3338,3380,3184
1508409815390566683,133,1508409815390128519,plot_matl,0.25,-5000.0,0.232263952494,0.00895675364882,-0.0177360419184,-86.4336929321,0.349065840244,0.0256401468068,0.00707042217255,0.232263952494,-0.0148896770552,-0.0148896770552,-0.00859825219959,0.00895675364882,-76.2400131226,-76.2400131226,1.20004105568,90.9825363159,2020,2055,2106,2051,2051,2711,3321,3345,3147,3293,3007,2966,3054,3078,3162,2917,3381,3377,3211,3277,2929,3277,3305,3026,0.010018882,1.330054538,1.332511306,0.401425719261,4500.0,0.37470600009,-0.0297793541104,-0.02671973221,120.238792419,0.0,6000.0,0.00707042217255,-0.00859825219959,0.0,0.0,0.349065840244,0.0216827709228,-0.0130529431626,0.300578266382,-0.0028546215035,-0.0028546215035,-0.0125264562666,-0.0100608337671,154.174194336,154.174194336,-55.5976600647,1.12892973423,2018,2022,2591,2062,2062,3000,3429,3427,3267,3362,3100,3004,3134,3100,3215,2747,3381,3396,3225,3354,3116,3337,3379,3184
1508409815400515957,134,1508409815400089736,plot_matl,0.25,-5000.0,0.232307747006,0.00808117538691,-0.0176922604442,-86.4848937988,0.349065840244,0.0269896276295,0.00706527940929,0.232307747006,-0.00129885051865,-0.00129885051865,-0.00850223656744,0.00808117538691,-76.1251983643,-76.1251983643,1.11735928059,91.0393066406,2017,2062,2106,2049,2049,2711,3320,3343,3151,3291,3007,2965,3051,3078,3162,2917,3381,3377,3211,3277,2929,3277,3305,3026,0.009960474,1.340015368,1.334703516,0.401425719261,4500.0,0.37605547905,-0.0025977010373,-0.0253702495247,114.166122437,0.0,6000.0,0.00706527940929,-0.00850223656744,0.0,0.0,0.349065840244,0.0216827709228,-0.0130821894854,0.300486922264,-0.00233735633083,-0.00233735633083,0.00339671969414,-0.00823778286576,154.216384888,154.216384888,-55.4726257324,1.17681860924,2015,2026,2591,2059,2059,3001,3427,3428,3266,3362,3098,3006,3135,3100,3215,2747,3381,3396,3225,3354,3116,3337,3379,3184
1508409815410440643,135,1508409815410137523,plot_matl,0.25,-5000.0,0.232344433665,0.00729076005518,-0.0176555644721,-86.4669113159,0.349065840244,0.0283391084522,0.00703770341352,0.232344433665,0.0122940149158,0.0122940149158,0.00548680638894,0.00729076005518,-76.1289520264,-76.1289520264,1.05714523792,91.108039856,2017,2062,2106,2049,2049,2711,3320,3343,3151,3291,3007,2965,3051,3078,3162,2917,3381,3377,3211,3277,2929,3277,3305,3026,0.010047481,1.350063456,1.356409935,0.401425719261,4500.0,0.37740495801,0.0245880298316,-0.024020768702,108.093460083,0.0,6000.0,0.00703770341352,0.00548680638894,0.0,0.0,0.349065840244,0.0216827709228,-0.0130635108799,0.300632953644,-0.00327547173947,-0.00327547173947,0.00303021795116,0.0505933389068,154.177261353,154.177261353,-55.4415092468,1.29015302658,2015,2026,2591,2059,2059,3001,3427,3428,3266,3362,3098,3006,3135,3100,3215,2747,3381,3396,3225,3354,3116,3337,3379,3184
1508409815420516065,136,1508409815420088010,plot_matl,0.25,-5000.0,0.232443585992,0.00531623419374,-0.0175564065576,-86.5541152954,0.349065840244,0.0269896276295,0.00701166456565,0.232409536839,-0.000769122852944,-0.000769122852944,0.00546193495393,0.00599441397935,-75.96824646,-75.96824646,0.997890710831,91.444442749,2010,2041,2106,2049,2049,2711,3320,3343,3151,3291,3007,2965,3051,3077,3161,2920,3384,3379,3213,3293,2941,3288,3314,3026,0.009950211,1.360013662,1.353228696,0.401425719261,4500.0,0.37605547905,-0.00136421585921,-0.0253702495247,114.166122437,0.0,6000.0,0.00699349166825,-0.00756217166781,0.0,0.0,0.349065840244,0.0240919683129,-0.0130367027596,0.300533592701,0.0211569853127,0.0211569853127,0.00249142479151,-0.00926890876144,154.145751953,154.145751953,-55.6278991699,1.38584280014,2022,2017,2591,2059,2059,3001,3427,3428,3266,3362,3098,3006,3135,3101,3216,2749,3382,3397,3226,3365,3129,3349,3386,3184
1508409815430576922,137,1508409815430098352,plot_matl,0.25,-5000.0,0.232395768166,0.00633595045656,-0.0176042281091,-86.4979629517,0.349065840244,0.0269896276295,0.00699169049039,0.232394739985,-0.000629830814432,-0.000629830814432,-0.00749179953709,0.00632384466007,-76.0673370361,-76.0673370361,1.1387668848,91.160736084,2005,2034,2106,2052,2052,2716,3323,3346,3155,3293,3009,2965,3051,3077,3161,2920,3384,3379,3213,3293,2941,3288,3314,3037,0.010009515,1.370023904,1.371303555,0.401425719261,4500.0,0.37605547905,-0.00158568192273,-0.0253702495247,114.166122437,0.0,6000.0,0.00697706872597,0.00627621170133,0.0,0.0,0.349065840244,0.0216827709228,-0.0130260810256,0.300568968058,-0.00389938754961,-0.00389938754961,0.0023006524425,0.0518780350685,154.119354248,154.119354248,-55.7587738037,1.19492101669,2007,2005,2592,2062,2062,3003,3433,3432,3270,3369,3103,3006,3135,3101,3216,2749,3382,3397,3226,3365,3129,3349,3386,3195
1508409815440555467,138,1508409815440111986,plot_matl,0.25,-5000.0,0.232418850064,0.00585817685351,-0.0175811517984,-86.5126266479,0.349065840244,0.0269896276295,0.00697742588818,0.232419922948,-0.00099096109625,-0.00099096109625,0.00630445079878,0.00584977399558,-76.1744155884,-76.1744155884,1.11804711819,91.2949066162,2007,2032,2106,2052,2052,2716,3323,3346,3155,3293,3009,2969,3055,3081,3164,2922,3384,3381,3216,3281,2931,3288,3314,3037,0.010014472,1.380038135,1.381997136,0.401425719261,4500.0,0.37605547905,-0.00175769685302,-0.0253702495247,114.166122437,0.0,6000.0,0.00699028559029,-0.00731404544786,0.0,0.0,0.349065840244,0.0240919683129,-0.0130628151819,0.300536692142,0.0198202412575,0.0198202412575,-0.0123249972239,-0.00929071567953,154.111618042,154.111618042,-55.9137115479,0.937847912312,2011,2012,2592,2062,2062,3003,3433,3432,3270,3369,3103,3007,3139,3102,3217,2751,3384,3399,3228,3356,3120,3349,3386,3195
1508409815450483994,139,1508409815450116761,plot_matl,0.25,-5000.0,0.232403025031,0.00619254307821,-0.0175969805568,-86.4939193726,0.349065840244,0.0283391084522,0.00700132362545,0.232441142201,0.0125473383814,0.0125473383814,-0.00751764513552,0.0054104924202,-76.1730728149,-76.1730728149,1.1022452116,91.1347885132,2017,2036,2106,2051,2051,2711,3322,3341,3150,3293,3009,2969,3055,3081,3164,2922,3384,3381,3216,3281,2931,3279,3308,3027,0.010003953,1.390042674,1.390549467,0.401425719261,4500.0,0.37605547905,-0.00192630430683,-0.0253702495247,114.166122437,0.0,6000.0,0.00698530953377,-0.00716177327558,0.0,0.0,0.349065840244,0.0216827709228,-0.013035768643,0.300731927156,-0.00455553783104,-0.00455553783104,0.00249891146086,0.0486054196954,154.132278442,154.132278442,-55.834777832,0.733278930187,2021,2012,2592,2059,2059,3000,3430,3429,3269,3369,3103,3007,3139,3102,3217,2751,3384,3399,3228,3356,3120,3338,3380,3184
1508409815460425946,140,1508409815460114941,plot_matl,0.25,-5000.0,0.232403025031,0.00619254307821,-0.0175969805568,-86.4939193726,0.349065840244,0.0283391084522,0.00700132362545,0.232441142201,0.0125473383814,0.0125473383814,-0.00751764513552,0.0054104924202,-76.1730728149,-76.1730728149,1.1022452116,91.1347885132,2017,2036,2106,2051,2051,2711,3322,3341,3150,3293,3009,2969,3055,3081,3164,2922,3384,3381,3216,3281,2931,3279,3308,3027,0.009997318,1.400040658,1.39962452,0.401425719261,4500.0,0.37605547905,-0.00192630430683,-0.0253702495247,114.166122437,0.0,6000.0,0.00698530953377,-0.00716177327558,0.0,0.0,0.349065840244,0.0216827709228,-0.013035768643,0.300731927156,-0.00455553783104,-0.00455553783104,0.00249891146086,0.0486054196954,154.132278442,154.132278442,-55.834777832,0.733278930187,2021,2012,2592,2059,2059,3000,3430,3429,3269,3369,3103,3007,3139,3102,3217,2751,3384,3399,3228,3356,3120,3338,3380,3184
1508409815470486191,141,1508409815470107062,plot_matl,0.25,-5000.0,0.232504546642,0.00414831610397,-0.0174954552203,-86.4380645752,0.349065840244,0.0269896276295,0.00698677776381,0.232478141785,-0.00120750779752,-0.00120750779752,0.00630884664133,0.00467984983698,-76.0461730957,-76.0461730957,1.11621248722,91.1827163696,2005,2046,2107,2050,2050,2711,3321,3341,3150,3291,3008,2967,3052,3080,3164,2919,3383,3378,3214,3280,2931,3279,3307,3027,0.009991695,1.410032694,1.408828995,0.401425719261,4500.0,0.37605547905,-0.00259221810848,-0.0253702495247,114.166122437,0.0,6000.0,0.00701024523005,0.00585393048823,0.0,0.0,0.349065840244,0.0216827709228,-0.0130061227828,0.300703972578,-0.00347168766893,-0.00347168766893,0.00189546588808,-0.0126740792766,153.970474243,153.970474243,-55.6910552979,0.585024833679,2013,2022,2592,2060,2060,3001,3429,3429,3269,3366,3101,3006,3134,3103,3216,2749,3383,3398,3228,3353,3118,3340,3380,3184
1508409815480804096,142,1508409815480162025,plot_matl,0.25,-5000.0,0.232504546642,0.00414831610397,-0.0174954552203,-86.4380645752,0.349065840244,0.0269896276295,0.00700690457597,0.232486665249,-0.00121213309467,-0.00121213309467,-0.00749351317063,0.00452718371525,-75.7847061157,-75.7847061157,1.33926188946,91.3364562988,2012,2054,2107,2050,2050,2711,3321,3344,3149,3290,3009,2965,3051,3078,3161,2920,3384,3378,3214,3280,2931,3279,3307,3027,0.010056472,1.420087943,1.428019024,0.401425719261,4500.0,0.37605547905,-0.00215181149542,-0.0253702495247,114.166122437,0.0,6000.0,0.00701024523005,0.00585393048823,0.0,0.0,0.349065840244,0.0216827709228,-0.0129891512915,0.300691187382,-0.00376430456527,-0.00376430456527,0.00155100354459,-0.012460783124,154.012817383,154.012817383,-55.5692710876,0.593387186527,2027,2028,2592,2060,2060,3001,3429,3431,3266,3364,3100,3004,3132,3101,3215,2749,3383,3398,3228,3353,3118,3340,3380,3184
1508409815490441999,143,1508409815490100064,plot_matl,0.25,-5000.0,0.232521370053,0.0037779409904,-0.0174786243588,-86.4712905884,0.349065840244,0.0269896276295,0.00700690457597,0.232486665249,-0.00121213309467,-0.00121213309467,-0.00749351317063,0.00452718371525,-75.7847061157,-75.7847061157,1.33926188946,91.3364562988,2017,2083,2108,2049,2049,2711,3321,3344,3149,3290,3009,2965,3051,3078,3161,2920,3384,3377,3212,3279,2930,3280,3306,3026,0.009935824,1.430025596,1.420822832,0.401425719261,4500.0,0.37740495801,0.024024957791,-0.024020768702,108.093460083,0.0,6000.0,0.00700909923762,0.00592023180798,0.0,0.0,0.349065840244,0.0216827709228,-0.0129891512915,0.300691187382,-0.00376430456527,-0.00376430456527,0.00155100354459,-0.012460783124,154.012817383,154.012817383,-55.5692710876,0.593387186527,2024,2037,2592,2058,2058,3001,3429,3431,3266,3364,3100,3004,3132,3101,3215,2749,3383,3398,3225,3354,3118,3338,3378,3185
1508409815500527236,144,1508409815500114365,plot_matl,0.25,-5000.0,0.232460677624,0.0429168306291,-0.0175393205136,-77.6997299194,0.349065840244,0.0269896276295,0.00700690457597,0.232486665249,-0.00121213309467,-0.00121213309467,-0.00749351317063,0.00452718371525,-75.7847061157,-75.7847061157,1.33926188946,91.3364562988,2034,2081,2108,2049,2049,2710,3321,3341,3151,3291,3008,2964,3052,3078,3162,2920,3384,3377,3212,3279,2930,3280,3306,3026,0.010014136,1.440040168,1.442035584,0.401425719261,4500.0,0.37740495801,0.0246043596417,-0.024020768702,108.093460083,0.0,6000.0,0.00699200155213,-0.00713510112837,0.0,0.0,0.349065840244,0.0216827709228,-0.0129891512915,0.300691187382,-0.00376430456527,-0.00376430456527,0.00155100354459,-0.012460783124,154.012817383,154.012817383,-55.5692710876,0.593387186527,2032,2044,2592,2058,2058,2999,3431,3430,3266,3366,3098,3003,3136,3101,3216,2749,3383,3398,3225,3354,3118,3338,3378,3185
1508409815510595074,145,1508409815510120974,plot_matl,0.25,-5000.0,0.232470691204,0.00474292691797,-0.017529303208,-86.5141525269,0.349065840244,0.0269896276295,0.00700690457597,0.232486665249,-0.00121213309467,-0.00121213309467,-0.00749351317063,0.00452718371525,-75.7847061157,-75.7847061157,1.33926188946,91.3364562988,2033,2078,2106,2049,2049,2710,3321,3341,3151,3291,3008,2964,3052,3078,3162,2919,3381,3376,3213,3276,2930,3278,3306,3025,0.01000707,1.450047137,1.45102515,0.401425719261,4500.0,0.37605547905,-0.00269866082817,-0.0253702495247,114.166122437,0.0,6000.0,0.0070237047039,0.00565550662577,0.0,0.0,0.349065840244,0.0216827709228,-0.0129891512915,0.300691187382,-0.00376430456527,-0.00376430456527,0.00155100354459,-0.012460783124,154.012817383,154.012817383,-55.5692710876,0.593387186527,2045,2045,2592,2058,2058,2999,3431,3430,3266,3366,3098,3003,3136,3101,3216,2749,3381,3398,3227,3352,3116,3339,3378,3187
1508409815520579738,146,1508409815520101569,plot_matl,0.25,-5000.0,0.232513353229,0.00392758054659,-0.0174866467714,-86.4847488403,0.349065840244,0.0269896276295,0.00701637100428,0.23244009912,-0.0012293063337,-0.0012293063337,0.00580764189363,0.00534784328192,-76.0346984863,-76.0346984863,1.34369838238,91.6567459106,2046,2074,2106,2048,2048,2711,3321,3344,3151,3293,3008,2964,3051,3078,3162,2919,3381,3376,3213,3276,2930,3278,3306,3025,0.009979733,1.460027427,1.457041018,0.401425719261,4500.0,0.37605547905,-0.0032614688389,-0.0253702495247,114.166122437,0.0,6000.0,0.00705064320937,0.00513794878498,0.0,0.0,0.349065840244,0.0216827709228,-0.0130192497745,0.300818115473,-0.00287931505591,-0.00287931505591,0.00219278922305,-0.0150711843744,154.067352295,154.067352295,-55.3291778564,0.493754267693,2046,2040,2592,2060,2060,2999,3429,3428,3266,3367,3100,3003,3133,3101,3216,2749,3381,3398,3227,3352,3116,3339,3378,3187
1508409815530496087,147,1508409815530090774,plot_matl,0.25,-5000.0,0.232511013746,0.00395281193778,-0.0174889881164,-86.5224533081,0.349065840244,0.0269896276295,0.00701637100428,0.23244009912,-0.0012293063337,-0.0012293063337,0.00580764189363,0.00534784328192,-76.0346984863,-76.0346984863,1.34369838238,91.6567459106,2046,2073,2106,2048,2048,2711,3321,3344,3151,3293,3008,2964,3051,3077,3164,2920,3381,3378,3213,3280,2929,3276,3307,3025,0.009988733,1.470016451,1.468343751,0.401425719261,4500.0,0.37605547905,-0.00265434500761,-0.0253702495247,114.166122437,0.0,6000.0,0.00703487964347,0.00546888867393,0.0,0.0,0.349065840244,0.0216827709228,-0.0130192497745,0.300818115473,-0.00287931505591,-0.00287931505591,0.00219278922305,-0.0150711843744,154.067352295,154.067352295,-55.3291778564,0.493754267693,2043,2041,2592,2060,2060,2999,3429,3428,3266,3367,3100,3003,3133,3102,3217,2748,3383,3398,3225,3353,3117,3337,3379,3187
1508409815540542782,148,1508409815540144790,plot_matl,0.25,-5000.0,0.232508078218,0.00395161984488,-0.0174919236451,-86.4043731689,0.349065840244,0.0269896276295,0.00701637100428,0.23244009912,-0.0012293063337,-0.0012293063337,0.00580764189363,0.00534784328192,-76.0346984863,-76.0346984863,1.34369838238,91.6567459106,2026,2054,2106,2047,2047,2711,3320,3342,3149,3291,3006,2964,3051,3077,3164,2920,3381,3378,3213,3280,2929,3276,3307,3026,0.01005363,1.480070693,1.48793724,0.401425719261,4500.0,0.37605547905,-0.00270187435672,-0.0253702495247,114.166122437,0.0,6000.0,0.00702769961208,0.00565090076998,0.0,0.0,0.349065840244,0.0216827709228,-0.0130192497745,0.300818115473,-0.00287931505591,-0.00287931505591,0.00219278922305,-0.0150711843744,154.067352295,154.067352295,-55.3291778564,0.493754267693,2023,2015,2591,2058,2058,2998,3430,3428,3267,3364,3098,3003,3133,3102,3217,2748,3383,3398,3225,3353,3117,3337,3379,3185
1508409815550494612,149,1508409815550122478,plot_matl,0.25,-5000.0,0.232470467687,-0.0332187227905,-0.0175295304507,-96.3353881836,0.349065840244,0.0269896276295,0.00701637100428,0.23244009912,-0.0012293063337,-0.0012293063337,0.00580764189363,0.00534784328192,-76.0346984863,-76.0346984863,1.34369838238,91.6567459106,2003,2045,2106,2047,2047,2711,3320,3342,3149,3291,3006,2966,3051,3077,3164,2917,3382,3377,3213,3278,2930,3276,3307,3026,0.009977032,1.490048161,1.486577768,0.401425719261,4500.0,0.37605547905,-0.00264518847689,-0.0253702495247,114.166122437,0.0,6000.0,0.0069821998477,-0.00684104207903,0.0,0.0,0.349065840244,0.0216827709228,-0.0130192497745,0.300818115473,-0.00287931505591,-0.00287931505591,0.00219278922305,-0.0150711843744,154.067352295,154.067352295,-55.3291778564,0.493754267693,2014,2018,2591,2058,2058,2998,3430,3428,3267,3364,3098,3005,3136,3100,3216,2748,3381,3397,3226,3353,3117,3337,3379,3185
1508409815560602931,150,1508409815560125569,plot_matl,0.25,-5000.0,0.232446730137,0.00515206437558,-0.0175532773137,-86.4290313721,0.349065840244,0.0283391084522,0.00699812360108,0.232523709536,0.0118674496189,0.0118674496189,-0.00716300774366,0.00364650436677,-76.1586380005,-76.1586380005,1.1758992672,91.7277450562,2034,2074,2106,2049,2049,2711,3318,3343,3149,3291,3006,2966,3051,3077,3164,2917,3382,3377,3213,3278,2930,3276,3307,3025,0.010003021,1.500051402,1.50045315,0.401425719261,4500.0,0.37605547905,-0.00264194887131,-0.0253702495247,114.166122437,0.0,6000.0,0.00694566080347,-0.00610769540071,0.0,0.0,0.349065840244,0.0240919683129,-0.0130300149322,0.300547450781,0.0210366565734,0.0210366565734,0.00240427767858,-0.00971715245396,154.250137329,154.250137329,-55.2544975281,0.115987554193,2045,2050,2590,2061,2061,3001,3429,3428,3266,3364,3098,3005,3136,3100,3216,2748,3381,3397,3226,3353,3117,3337,3381,3184
1508409815570541812,151,1508409815570089471,plot_matl,0.25,-5000.0,0.232392445207,0.00625537801534,-0.0176075529307,-86.5029602051,0.349065840244,0.0283391084522,0.00699812360108,0.232523709536,0.0118674496189,0.0118674496189,-0.00716300774366,0.00364650436677,-76.1586380005,-76.1586380005,1.1758992672,91.7277450562,2023,2047,2106,2049,2049,2711,3318,3343,3149,3291,3006,2964,3051,3078,3160,2917,3381,3376,3214,3278,2930,3276,3307,3025,0.009963676,1.510015384,1.504515076,0.401425719261,4500.0,0.37605547905,-0.00216680276208,-0.0253702495247,114.166122437,0.0,6000.0,0.00695363152772,0.0071515943855,0.0,0.0,0.349065840244,0.0240919683129,-0.0130300149322,0.300547450781,0.0210366565734,0.0210366565734,0.00240427767858,-0.00971715245396,154.250137329,154.250137329,-55.2544975281,0.115987554193,2025,2019,2590,2061,2061,3001,3429,3428,3266,3364,3101,3005,3133,3098,3216,2748,3383,3398,3226,3353,3117,3337,3381,3184
1508409815580492679,152,1508409815580107656,plot_matl,0.25,-5000.0,0.232482776046,0.00444069271907,-0.0175172220916,-86.463973999,0.349065840244,0.0283391084522,0.00699812360108,0.232523709536,0.0118674496189,0.0118674496189,-0.00716300774366,0.00364650436677,-76.1586380005,-76.1586380005,1.1758992672,91.7277450562,2014,2043,2106,2050,2050,2713,3321,3343,3149,3291,3006,2964,3051,3078,3160,2917,3381,3376,3214,3278,2930,3276,3305,3026,0.010017498,1.520033449,1.522659696,0.401425719261,4500.0,0.37740495801,0.0239926837385,-0.024020768702,108.093460083,0.0,6000.0,0.00694418698549,0.00732917757705,0.0,0.0,0.349065840244,0.0240919683129,-0.0130300149322,0.300547450781,0.0210366565734,0.0210366565734,0.00240427767858,-0.00971715245396,154.250137329,154.250137329,-55.2544975281,0.115987554193,2011,2015,2592,2058,2058,3001,3430,3428,3266,3364,3101,3005,3133,3098,3216,2748,3383,3398,3226,3352,3117,3337,3379,3185
1508409815590209792,153,1508409815590074331,plot_matl,0.25,-5000.0,0.23249207437,0.00431003049016,-0.017507923767,-86.4791107178,0.349065840244,0.0283391084522,0.00699812360108,0.232523709536,0.0118674496189,0.0118674496189,-0.00716300774366,0.00364650436677,-76.1586380005,-76.1586380005,1.1758992672,91.7277450562,2036,2073,2106,2050,2050,2713,3321,3344,3149,3292,3011,2965,3052,3078,3163,2915,3383,3376,3214,3278,2930,3276,3305,3026,0.009964334,1.529999053,1.524543102,0.401425719261,4500.0,0.37605547905,-0.00171654229052,-0.0253702495247,114.166122437,0.0,6000.0,0.00697499839589,-0.00668566301465,0.0,0.0,0.349065840244,0.0240919683129,-0.0130300149322,0.300547450781,0.0210366565734,0.0210366565734,0.00240427767858,-0.00971715245396,154.250137329,154.250137329,-55.2544975281,0.115987554193,2042,2038,2592,2058,2058,3001,3430,3428,3265,3367,3100,3005,3133,3099,3216,2746,3383,3398,3226,3352,3117,3337,3379,3185
1508409815600535684,154,1508409815600127634,plot_matl,0.25,-5000.0,0.232468679547,0.00481397658587,-0.0175313167274,-86.432800293,0.349065840244,0.0256401468068,0.00696049164981,0.232464179397,-0.0148710086942,-0.0148710086942,0.00701061543077,0.00486022187397,-75.9679946899,-75.9679946899,0.955850541592,91.8465805054,2031,2065,2106,2050,2050,2713,3321,3344,3149,3292,3011,2965,3052,3078,3163,2915,3383,3377,3214,3279,2929,3277,3304,3024,0.010056323,1.540053983,1.548673742,0.401425719261,4500.0,0.37605547905,-0.00236076954752,-0.0253702495247,114.166122437,0.0,6000.0,0.00698868883774,0.00646647950634,0.0,0.0,0.349065840244,0.0240919683129,-0.013052416034,0.300412684679,0.0194071903825,0.0194071903825,0.00284649548121,-0.00688379770145,154.223876953,154.223876953,-55.0349731445,0.440161705017,2030,2028,2590,2056,2056,3001,3430,3428,3265,3367,3100,3005,3133,3099,3216,2746,3383,3398,3225,3352,3115,3338,3378,3185
1508409815610529444,155,1508409815610102972,plot_matl,0.25,-5000.0,0.232441321015,-0.0325346253812,-0.0175586752594,-95.6106643677,0.349065840244,0.0256401468068,0.00696049164981,0.232464179397,-0.0148710086942,-0.0148710086942,0.00701061543077,0.00486022187397,-75.9679946899,-75.9679946899,0.955850541592,91.8465805054,2009,2045,2106,2050,2050,2713,3319,3344,3147,3291,3008,2963,3052,3077,3162,2915,3383,3377,3214,3279,2929,3277,3304,3024,0.009973734,1.55002861,1.54592877,0.401425719261,4500.0,0.37605547905,-0.00196283310652,-0.0253702495247,114.166122437,0.0,6000.0,0.00701206922531,0.00599795999005,0.0,0.0,0.349065840244,0.0240919683129,-0.013052416034,0.300412684679,0.0194071903825,0.0194071903825,0.00284649548121,-0.00688379770145,154.223876953,154.223876953,-55.0349731445,0.440161705017,2006,2015,2590,2056,2056,3001,3428,3428,3267,3365,3098,3004,3134,3100,3216,2746,3383,3398,3225,3352,3115,3338,3378,3185
1508409815620464886,156,1508409815620104374,plot_matl,0.25,-5000.0,0.232457488775,0.00506673846394,-0.0175425056368,-86.5597610474,0.349065840244,0.0256401468068,0.00696049164981,0.232464179397,-0.0148710086942,-0.0148710086942,0.00701061543077,0.00486022187397,-75.9679946899,-75.9679946899,0.955850541592,91.8465805054,2030,2069,2106,2050,2050,2713,3319,3344,3147,3291,3008,2963,3052,3077,3162,2918,3383,3374,3214,3278,2930,3277,3305,3026,0.010000771,1.560029962,1.560120276,0.401425719261,4500.0,0.37605547905,-0.00165006821044,-0.0253702495247,114.166122437,0.0,6000.0,0.00699346000329,-0.00703410990536,0.0,0.0,0.349065840244,0.0240919683129,-0.013052416034,0.300412684679,0.0194071903825,0.0194071903825,0.00284649548121,-0.00688379770145,154.223876953,154.223876953,-55.0349731445,0.440161705017,2038,2035,2592,2056,2056,3001,3428,3428,3267,3365,3098,3004,3134,3100,3216,2748,3383,3398,3226,3352,3116,3338,3379,3184
1508409815630741658,157,1508409815630150879,plot_matl,0.25,-5000.0,0.232406035066,0.00612147618085,-0.0175939593464,-86.5066146851,0.349065840244,0.0256401468068,0.00696049164981,0.232464179397,-0.0148710086942,-0.0148710086942,0.00701061543077,0.00486022187397,-75.9679946899,-75.9679946899,0.955850541592,91.8465805054,2011,2039,2106,2051,2051,2711,3318,3343,3147,3291,3006,2964,3052,3077,3162,2918,3383,3374,3214,3278,2930,3277,3305,3026,0.010048048,1.570076807,1.577543536,0.401425719261,4500.0,0.37605547905,-0.000863597902935,-0.0253702495247,114.166122437,0.0,6000.0,0.00700157089159,-0.00720811495557,0.0,0.0,0.349065840244,0.0240919683129,-0.013052416034,0.300412684679,0.0194071903825,0.0194071903825,0.00284649548121,-0.00688379770145,154.223876953,154.223876953,-55.0349731445,0.440161705017,2022,2019,2592,2055,2055,3000,3429,3429,3267,3364,3101,3005,3133,3100,3216,2748,3383,3398,3226,3352,3116,3338,3379,3184
1508409815640694966,158,1508409815640113784,plot_matl,0.25,-5000.0,0.232461005449,0.00501664727926,-0.017538998276,-86.5838012695,0.349065840244,0.0269896276295,0.00699225440621,0.232404619455,-0.000762289913837,-0.000762289913837,0.00641335686669,-0.0317658931017,-75.8419723511,-75.8419723511,0.951605081558,91.7959671021,1999,2032,2106,2051,2051,2711,3318,3343,3147,3291,3006,2964,3052,3076,3163,2917,3381,3375,3212,3278,2930,3279,3306,3026,0.009962895,1.580039842,1.57413741,0.401425719261,4500.0,0.37605547905,-0.00171043665614,-0.0253702495247,114.166122437,0.0,6000.0,0.00698627810925,0.00650955084711,0.0,0.0,0.349065840244,0.0240919683129,-0.013044660911,0.300332456827,0.0204350296408,0.0204350296408,0.0026989588514,-0.00515497522429,154.331253052,154.331253052,-54.6812400818,0.544555366039,2008,2010,2592,2055,2055,3000,3429,3429,3267,3364,3101,3005,3133,3100,3214,2750,3385,3397,3226,3352,3118,3339,3378,3184
1508409815650592653,159,1508409815650102251,plot_matl,0.25,-5000.0,0.232442736626,0.00539296865463,-0.0175572559237,-86.403717041,0.349065840244,0.0269896276295,0.00699225440621,0.232404619455,-0.000762289913837,-0.000762289913837,0.00641335686669,-0.0317658931017,-75.8419723511,-75.8419723511,0.951605081558,91.7959671021,2011,2065,2107,2049,2049,2708,3321,3342,3150,3290,3006,2964,3052,3076,3163,2917,3381,3375,3212,3278,2930,3279,3306,3025,0.009986107,1.590027773,1.587791013,0.401425719261,4500.0,0.37605547905,-0.000920186052099,-0.0253702495247,114.166122437,0.0,6000.0,0.00698656728491,0.00650568585843,0.0,0.0,0.349065840244,0.0240919683129,-0.013044660911,0.300332456827,0.0204350296408,0.0204350296408,0.0026989588514,-0.00515497522429,154.331253052,154.331253052,-54.6812400818,0.544555366039,2024,2032,2592,2059,2059,2999,3431,3426,3266,3365,3099,3005,3133,3100,3214,2750,3385,3397,3226,3352,3118,3339,3378,3184
1508409815660590843,160,1508409815660114668,plot_matl,0.25,-5000.0,0.232455939054,0.00514234928414,-0.0175440590829,-86.5818252563,0.349065840244,0.0269896276295,0.00699225440621,0.232404619455,-0.000762289913837,-0.000762289913837,0.00641335686669,-0.0317658931017,-75.8419723511,-75.8419723511,0.951605081558,91.7959671021,2009,2065,2107,2049,2049,2708,3321,3342,3150,3290,3006,2965,3050,3079,3163,2918,3383,3375,3216,3279,2931,3279,3306,3025,0.010012658,1.600040711,1.60202528,0.401425719261,4500.0,0.37605547905,-0.00123159575742,-0.0253702495247,114.166122437,0.0,6000.0,0.00699727935717,-0.00710988044739,0.0,0.0,0.349065840244,0.0240919683129,-0.013044660911,0.300332456827,0.0204350296408,0.0204350296408,0.0026989588514,-0.00515497522429,154.331253052,154.331253052,-54.6812400818,0.544555366039,2014,2025,2592,2059,2059,2999,3431,3426,3266,3365,3099,3005,3134,3102,3215,2749,3382,3399,3227,3353,3117,3339,3378,3184
1508409815670577105,161,1508409815670100510,plot_matl,0.25,-5000.0,0.232501104474,0.00420070951805,-0.0174988918006,-86.5508575439,0.349065840244,0.0269896276295,0.00699225440621,0.232404619455,-0.000762289913837,-0.000762289913837,0.00641335686669,-0.0317658931017,-75.8419723511,-75.8419723511,0.951605081558,91.7959671021,1998,2065,2106,2049,2049,2711,3320,3341,3150,3290,3006,2965,3050,3079,3163,2918,3383,3375,3216,3279,2931,3277,3307,3024,0.009985176,1.610026222,1.607613336,0.401425719261,4500.0,0.37605547905,-0.00197253609076,-0.0253702495247,114.166122437,0.0,6000.0,0.00700753880665,0.00611164420843,0.0,0.0,0.349065840244,0.0240919683129,-0.013044660911,0.300332456827,0.0204350296408,0.0204350296408,0.0026989588514,-0.00515497522429,154.331253052,154.331253052,-54.6812400818,0.544555366039,2011,2028,2592,2057,2057,3001,3429,3429,3266,3365,3099,3005,3134,3102,3215,2749,3382,3399,3227,3353,3117,3338,3377,3186
1508409815680532523,162,1508409815680140805,plot_matl,0.25,-5000.0,0.232503220439,0.00406328029931,-0.0174967776984,-86.5536804199,0.349065840244,0.0269896276295,0.00699883513153,0.232463285327,-0.000424794765422,-0.000424794765422,0.00627011852339,0.00497922068462,-75.8933410645,-75.8933410645,0.951957881451,92.0145187378,2021,2062,2106,2049,2049,2711,3320,3341,3150,3293,3007,2967,3051,3080,3160,2918,3381,3377,3215,3279,2931,3277,3307,3024,0.010040867,1.620066738,1.626620454,0.401425719261,4500.0,0.37605547905,-0.00111657730304,-0.0253702495247,114.166122437,0.0,6000.0,0.00700150383636,-0.00716972909868,0.0,0.0,0.349065840244,0.0216827709228,-0.0130222225562,0.300441294909,-0.00442159362137,-0.00442159362137,0.00224233535118,-0.00731284916401,154.314712524,154.314712524,-54.7987785339,0.410001307726,2035,2037,2592,2057,2057,3001,3429,3429,3266,3363,3100,3005,3134,3101,3215,2750,3385,3398,3227,3353,3117,3338,3377,3186
1508409815690501036,163,1508409815690097852,plot_matl,0.25,-5000.0,0.232545256615,0.00324581516907,-0.0174547471106,-86.4674758911,0.349065840244,0.0269896276295,0.00699883513153,0.232463285327,-0.000424794765422,-0.000424794765422,0.00627011852339,0.00497922068462,-75.8933410645,-75.8933410645,0.951957881451,92.0145187378,2034,2068,2106,2046,2046,2709,3318,3341,3150,3293,3007,2967,3051,3080,3160,2918,3381,3377,3215,3276,2931,3277,3305,3026,0.009955969,1.630023835,1.622822947,0.401425719261,4500.0,0.37605547905,-0.00094309868291,-0.0253702495247,114.166122437,0.0,6000.0,0.00699884537607,0.00630733696744,0.0,0.0,0.349065840244,0.0216827709228,-0.0130222225562,0.300441294909,-0.00442159362137,-0.00442159362137,0.00224233535118,-0.00731284916401,154.314712524,154.314712524,-54.7987785339,0.410001307726,2035,2038,2592,2059,2059,2999,3429,3429,3266,3363,3100,3005,3134,3101,3215,2750,3385,3398,3227,3353,3117,3338,3379,3187
1508409815700480096,164,1508409815700083007,plot_matl,0.25,-5000.0,0.232544511557,0.00330576649867,-0.0174554865807,-86.421005249,0.349065840244,0.0269896276295,0.00699883513153,0.232463285327,-0.000424794765422,-0.000424794765422,0.00627011852339,0.00497922068462,-75.8933410645,-75.8933410645,0.951957881451,92.0145187378,2034,2056,2106,2046,2046,2709,3318,3343,3148,3291,3007,2965,3051,3077,3163,2918,3383,3377,3215,3276,2931,3277,3305,3026,0.009984213,1.640008459,1.637410932,0.401425719261,4500.0,0.37605547905,-0.00122177787125,-0.0253702495247,114.166122437,0.0,6000.0,0.00701674958691,-0.00748985540122,0.0,0.0,0.349065840244,0.0216827709228,-0.0130222225562,0.300441294909,-0.00442159362137,-0.00442159362137,0.00224233535118,-0.00731284916401,154.314712524,154.314712524,-54.7987785339,0.410001307726,2033,2029,2592,2059,2059,2999,3429,3430,3268,3364,3100,3005,3134,3101,3216,2749,3382,3398,3227,3353,3117,3338,3379,3187
1508409815710696963,165,1508409815710150243,plot_matl,0.25,-5000.0,0.232544511557,0.00330576649867,-0.0174554865807,-86.421005249,0.349065840244,0.0269896276295,0.0069825113751,0.232475742698,-0.000567909097299,-0.000567909097299,-0.00681159133092,0.00474244402722,-75.940536499,-75.940536499,0.998833060265,91.9904251099,2048,2078,2107,2049,2049,2709,3318,3343,3148,3291,3007,2965,3051,3077,3163,2918,3383,3377,3213,3278,2929,3279,3303,3026,0.010068078,1.650076382,1.66123287,0.401425719261,4500.0,0.37605547905,-0.00122177787125,-0.0253702495247,114.166122437,0.0,6000.0,0.00701674958691,-0.00748985540122,0.0,0.0,0.349065840244,0.0216827709228,-0.013041915372,0.300374776125,-0.00448540365323,-0.00448540365323,0.00262155639939,-0.00598799763247,154.330352783,154.330352783,-54.9480857849,0.484602808952,2047,2047,2592,2056,2056,2999,3429,3430,3268,3364,3100,3005,3134,3101,3216,2749,3382,3396,3226,3351,3117,3338,3377,3185
1508409815720496066,166,1508409815720114085,plot_matl,0.25,-5000.0,0.232460722327,0.00634091999382,-0.0175392795354,-86.4851531982,0.349065840244,0.0269896276295,0.0069825113751,0.232475742698,-0.000567909097299,-0.000567909097299,-0.00681159133092,0.00474244402722,-75.940536499,-75.940536499,0.998833060265,91.9904251099,2040,2062,2107,2049,2049,2722,3330,3351,3156,3299,3014,2973,3055,3083,3165,2918,3383,3377,3213,3278,2929,3279,3303,3026,0.009962514,1.660039883,1.653777324,0.401425719261,4500.0,0.37605547905,-0.00194849679247,-0.0253702495247,114.166122437,0.0,6000.0,0.00704149249941,0.00535557791591,0.0,0.0,0.349065840244,0.0216827709228,-0.013041915372,0.300374776125,-0.00448540365323,-0.00448540365323,0.00262155639939,-0.00598799763247,154.330352783,154.330352783,-54.9480857849,0.484602808952,2043,2037,2592,2056,2056,3011,3441,3438,3273,3373,3105,3012,3139,3104,3220,2749,3382,3396,3226,3351,3117,3338,3377,3185
