%time,field.header.seq,field.header.stamp,field.header.frame_id,field.FFJ4_set_point,field.FFJ4_position_gain,field.FFJ4_process_value,field.FFJ4_process_value_dot,field.FFJ4_error,field.FFJ4_command,field.FFJ1,field.FFJ2,field.FFJ3,field.FFJ4,field.FFJ1_dot,field.FFJ2_dot,field.FFJ3_dot,field.FFJ4_dot,field.FFJ1_tao,field.FFJ2_tao,field.FFJ3_tao,field.FFJ4_tao,field.pac0,field.pac1,field.pdc0,field.tac0,field.tdc0,field.el0,field.el1,field.el2,field.el3,field.el4,field.el5,field.el6,field.el7,field.el8,field.el9,field.el10,field.el11,field.el12,field.el13,field.el14,field.el15,field.el16,field.el17,field.el18,field.dt,field.time,field.test_time2,field.FFJ0_set_point,field.FFJ0_position_gain,field.FFJ0_process_value,field.FFJ0_process_value_dot,field.FFJ0_error,field.FFJ0_command,field.FFJ3_set_point,field.FFJ3_position_gain,field.FFJ3_process_value,field.FFJ3_process_value_dot,field.FFJ3_error,field.FFJ3_command,field.MFJ1,field.MFJ2,field.MFJ3,field.MFJ4,field.MFJ1_dot,field.MFJ2_dot,field.MFJ3_dot,field.MFJ4_dot,field.MFJ1_tao,field.MFJ2_tao,field.MFJ3_tao,field.MFJ4_tao,field.Mpac0,field.Mpac1,field.Mpdc0,field.Mtac0,field.Mtdc0,field.Mel0,field.Mel1,field.Mel2,field.Mel3,field.Mel4,field.Mel5,field.Mel6,field.Mel7,field.Mel8,field.Mel9,field.Mel10,field.Mel11,field.Mel12,field.Mel13,field.Mel14,field.Mel15,field.Mel16,field.Mel17,field.Mel18
1508409697659050962,183,1508409697658601945,plot_matl,0.25,-3000.0,0.222488105297,-0.020958179608,-0.0275119002908,-87.5520019531,0.349065840244,0.0269896276295,0.00609059259295,0.222544327378,-0.00469410652295,-0.00469410652295,-0.0022241899278,-0.0221299882978,-75.7932510376,-75.7932510376,1.19152581692,87.8113632202,2020,2050,2107,2027,2027,2694,3312,3337,3142,3288,3001,2957,3044,3073,3156,2916,3381,3374,3213,3277,2929,3274,3303,3022,0.009990163,1.829965021,1.828199829,0.401425719261,4500.0,0.37605547905,-0.0106566688046,-0.0253702495247,114.166122437,0.0,6000.0,0.00605701794848,-0.00155165907927,0.0,0.0,0.349065840244,0.0216827709228,-0.0136900488287,0.299481332302,-0.00547589035705,-0.00547589035705,0.000355265045073,0.0126190325245,153.201263428,153.201263428,-53.9335136414,-0.240052491426,2021,2026,2595,2041,2041,2970,3420,3422,3256,3361,3092,2996,3126,3098,3211,2778,3387,3400,3232,3354,3124,3337,3379,3184
1508409697669084302,184,1508409697668597879,plot_matl,0.25,-3000.0,0.222537755966,0.0159452538937,-0.0274622421712,-78.4633483887,0.349065840244,0.0269896276295,0.00609059259295,0.222544327378,-0.00469410652295,-0.00469410652295,-0.0022241899278,-0.0221299882978,-75.7932510376,-75.7932510376,1.19152581692,87.8113632202,2022,2045,2108,2027,2027,2692,3312,3337,3142,3288,3001,2957,3044,3073,3156,2916,3381,3374,3213,3277,2928,3272,3301,3024,0.009994854,1.839960523,1.839053136,0.401425719261,4500.0,0.37605547905,-0.00974742881954,-0.0253702495247,114.166122437,0.0,6000.0,0.00605484750122,-0.00151346425992,0.0,0.0,0.349065840244,0.0216827709228,-0.0136900488287,0.299481332302,-0.00547589035705,-0.00547589035705,0.000355265045073,0.0126190325245,153.201263428,153.201263428,-53.9335136414,-0.240052491426,2026,2013,2595,2040,2040,2969,3424,3424,3256,3361,3092,2996,3126,3098,3211,2778,3387,3400,3232,3354,3120,3333,3377,3182
1508409697679056282,185,1508409697678645852,plot_matl,0.25,-3000.0,0.222612410784,0.01450445503,-0.0273875873536,-78.6204833984,0.349065840244,0.0269896276295,0.00609059259295,0.222544327378,-0.00469410652295,-0.00469410652295,-0.0022241899278,-0.0221299882978,-75.7932510376,-75.7932510376,1.19152581692,87.8113632202,2009,2038,2108,2027,2027,2692,3312,3337,3143,3288,3000,2957,3044,3071,3156,2915,3380,3377,3213,3277,2928,3272,3301,3024,0.010050572,1.850009842,1.85935582,0.401425719261,4500.0,0.37740495801,0.0167838297784,-0.024020768702,108.093460083,0.0,6000.0,0.00607489235699,-0.00191585056018,0.0,0.0,0.349065840244,0.0216827709228,-0.0136900488287,0.299481332302,-0.00547589035705,-0.00547589035705,0.000355265045073,0.0126190325245,153.201263428,153.201263428,-53.9335136414,-0.240052491426,2011,2008,2595,2040,2040,2969,3424,3424,3255,3360,3094,2999,3126,3098,3211,2779,3387,3400,3232,3354,3120,3333,3377,3182
1508409697689030428,186,1508409697688641070,plot_matl,0.25,-3000.0,0.222565203905,0.0154104102403,-0.0274347886443,-78.5396957397,0.349065840244,0.0296885911375,0.00608273921534,0.222626537085,0.0218610055745,0.0218610055745,-0.00207459274679,0.0141518060118,-75.6992950439,-75.6992950439,0.648694217205,88.0648040771,2010,2042,2108,2029,2029,2693,3312,3337,3143,3288,3000,2957,3044,3071,3156,2915,3380,3377,3212,3276,2929,3275,3305,3023,0.009994356,1.860004819,1.858950216,0.401425719261,4500.0,0.37740495801,0.0152424387634,-0.024020768702,108.093460083,0.0,6000.0,0.00608161231503,-0.00205747201107,0.0,0.0,0.349065840244,0.0240919683129,-0.0137146534398,0.299358129501,0.0203086063266,0.0203086063266,0.000869497540407,0.0148387691006,153.419326782,153.419326782,-54.1281967163,-0.545743048191,2017,2020,2596,2040,2040,2969,3424,3424,3255,3360,3094,2999,3126,3098,3211,2779,3387,3400,3233,3355,3121,3337,3377,3185
1508409697698993683,187,1508409697698619034,plot_matl,0.25,-3000.0,0.222565203905,0.0154104102403,-0.0274347886443,-78.5396957397,0.349065840244,0.0296885911375,0.00608273921534,0.222626537085,0.0218610055745,0.0218610055745,-0.00207459274679,0.0141518060118,-75.6992950439,-75.6992950439,0.648694217205,88.0648040771,2010,2042,2108,2029,2029,2693,3312,3337,3143,3288,3000,2957,3044,3071,3156,2915,3380,3377,3212,3276,2929,3275,3305,3023,0.009976596,1.869982347,1.865623452,0.401425719261,4500.0,0.37740495801,0.0152424387634,-0.024020768702,108.093460083,0.0,6000.0,0.00608161231503,-0.00205747201107,0.0,0.0,0.349065840244,0.0240919683129,-0.0137146534398,0.299358129501,0.0203086063266,0.0203086063266,0.000869497540407,0.0148387691006,153.419326782,153.419326782,-54.1281967163,-0.545743048191,2017,2020,2596,2040,2040,2969,3424,3424,3255,3360,3094,2999,3126,3098,3211,2779,3387,3400,3233,3355,3121,3337,3377,3185
1508409697709042899,188,1508409697708640852,plot_matl,0.25,-3000.0,0.222492963076,-0.0210601165891,-0.0275070331991,-87.6473617554,0.349065840244,0.0296885911375,0.00608273921534,0.222626537085,0.0218610055745,0.0218610055745,-0.00207459274679,0.0141518060118,-75.6992950439,-75.6992950439,0.648694217205,88.0648040771,2002,2046,2108,2027,2027,2693,3312,3337,3141,3286,3001,2958,3042,3073,3156,2916,3381,3375,3214,3275,2930,3272,3302,3021,0.010022705,1.880004747,1.88426854,0.401425719261,4500.0,0.37605547905,-0.0113686285913,-0.0253702495247,114.166122437,0.0,6000.0,0.00607235031202,0.0115558737889,0.0,0.0,0.349065840244,0.0240919683129,-0.0137146534398,0.299358129501,0.0203086063266,0.0203086063266,0.000869497540407,0.0148387691006,153.419326782,153.419326782,-54.1281967163,-0.545743048191,2004,2014,2596,2038,2038,2969,3421,3424,3255,3361,3092,2998,3127,3099,3211,2777,3387,3402,3230,3354,3122,3335,3379,3185
1508409697719185370,189,1508409697718668634,plot_matl,0.25,-3000.0,0.222401589155,-0.0192060880363,-0.0275984145701,-87.8168182373,0.349065840244,0.0296885911375,0.00608273921534,0.222626537085,0.0218610055745,0.0218610055745,-0.00207459274679,0.0141518060118,-75.6992950439,-75.6992950439,0.648694217205,88.0648040771,2010,2042,2108,2027,2027,2694,3314,3336,3142,3287,3001,2957,3043,3073,3156,2916,3381,3375,3214,3275,2930,3272,3302,3021,0.010027636,1.890032539,1.895223204,0.401425719261,4500.0,0.37605547905,-0.00977046787739,-0.0253702495247,114.166122437,0.0,6000.0,0.00606982829049,0.0116179734468,0.0,0.0,0.349065840244,0.0240919683129,-0.0137146534398,0.299358129501,0.0203086063266,0.0203086063266,0.000869497540407,0.0148387691006,153.419326782,153.419326782,-54.1281967163,-0.545743048191,2013,2013,2596,2038,2038,2969,3421,3422,3255,3362,3094,2998,3126,3098,3211,2777,3387,3402,3230,3354,3122,3335,3379,3185
1508409697728986614,190,1508409697728627304,plot_matl,0.25,-3000.0,0.222365349531,0.0194342955947,-0.0276346560568,-78.2785720825,0.349065840244,0.0283391084522,0.00609002402052,0.222616672516,0.0076944604516,0.0076944604516,-0.00222811871208,0.0143613498658,-75.5360641479,-75.5360641479,0.574367582798,88.1520462036,2030,2058,2108,2027,2027,2694,3314,3336,3142,3287,3001,2957,3043,3073,3156,2917,3382,3377,3213,3278,2929,3271,3303,3024,0.009957498,1.899990908,1.89192462,0.401425719261,4500.0,0.37605547905,-0.00938971806318,-0.0253702495247,114.166122437,0.0,6000.0,0.0060535762459,-0.00147444522008,0.0,0.0,0.349065840244,0.0216827709228,-0.0137326745316,0.299379259348,-0.0042398548685,-0.0042398548685,0.00125843239948,0.014415322803,153.487335205,153.487335205,-54.2931289673,-0.528861701488,2039,2034,2596,2038,2038,2969,3421,3422,3255,3362,3094,2998,3126,3098,3209,2779,3386,3401,3232,3354,3121,3335,3377,3184
1508409697739045082,191,1508409697738689607,plot_matl,0.25,-3000.0,0.222299233079,0.0207393579185,-0.0277007687837,-78.2453231812,0.349065840244,0.0283391084522,0.00609002402052,0.222616672516,0.0076944604516,0.0076944604516,-0.00222811871208,0.0143613498658,-75.5360641479,-75.5360641479,0.574367582798,88.1520462036,2027,2053,2107,2026,2026,2694,3313,3336,3142,3289,3003,2957,3043,3073,3156,2917,3382,3377,3213,3278,2929,3271,3303,3024,0.01006211,1.910053425,1.92186301,0.401425719261,4500.0,0.37605547905,-0.00958212092519,-0.0253702495247,114.166122437,0.0,6000.0,0.0060532046482,-0.00147125322837,0.0,0.0,0.349065840244,0.0216827709228,-0.0137326745316,0.299379259348,-0.0042398548685,-0.0042398548685,0.00125843239948,0.014415322803,153.487335205,153.487335205,-54.2931289673,-0.528861701488,2024,2025,2595,2041,2041,2971,3422,3422,3256,3361,3093,2998,3126,3098,3209,2779,3386,3401,3232,3354,3121,3335,3377,3184
1508409697748996299,192,1508409697748638202,plot_matl,0.25,-3000.0,0.222221076488,0.0223131515086,-0.0277789290994,-77.937461853,0.349065840244,0.0283391084522,0.00609002402052,0.222616672516,0.0076944604516,0.0076944604516,-0.00222811871208,0.0143613498658,-75.5360641479,-75.5360641479,0.574367582798,88.1520462036,2039,2066,2107,2026,2026,2694,3313,3336,3142,3289,3003,2957,3043,3071,3157,2914,3381,3375,3211,3276,2928,3273,3303,3024,0.009947704,1.92000187,1.909959168,0.401425719261,4500.0,0.37740495801,0.0169001109898,-0.024020768702,108.093460083,0.0,6000.0,0.00605130800977,-0.00143629591912,0.0,0.0,0.349065840244,0.0216827709228,-0.0137326745316,0.299379259348,-0.0042398548685,-0.0042398548685,0.00125843239948,0.014415322803,153.487335205,153.487335205,-54.2931289673,-0.528861701488,2038,2042,2595,2041,2041,2971,3422,3422,3256,3361,3093,2998,3124,3099,3211,2779,3385,3399,3230,3354,3122,3336,3377,3184
1508409697758933916,193,1508409697758617745,plot_matl,0.25,-3000.0,0.222282931209,0.0210408829153,-0.0277170669287,-78.2062301636,0.349065840244,0.0283391084522,0.00609002402052,0.222616672516,0.0076944604516,0.0076944604516,-0.00222811871208,0.0143613498658,-75.5360641479,-75.5360641479,0.574367582798,88.1520462036,2053,2074,2108,2027,2027,2694,3313,3338,3142,3287,3003,2957,3043,3071,3157,2914,3381,3375,3211,3276,2928,3273,3304,3021,0.009979182,1.929981108,1.925982126,0.401425719261,4500.0,0.37740495801,0.0172042027116,-0.024020768702,108.093460083,0.0,6000.0,0.00606056675315,-0.00162110000383,0.0,0.0,0.349065840244,0.0216827709228,-0.0137326745316,0.299379259348,-0.0042398548685,-0.0042398548685,0.00125843239948,0.014415322803,153.487335205,153.487335205,-54.2931289673,-0.528861701488,2052,2044,2596,2039,2039,2969,3423,3423,3255,3362,3093,2998,3124,3099,3211,2779,3385,3399,3230,3354,3122,3336,3377,3184
1508409697769017399,194,1508409697768615032,plot_matl,0.25,-3000.0,0.222265511751,-0.0165367349982,-0.0277344882488,-87.1437835693,0.349065840244,0.0269896276295,0.00606195162982,0.222482711077,-0.00530185503885,-0.00530185503885,-0.00165809760801,0.0170685909688,-75.1840820312,-75.1840820312,0.276797711849,87.665763855,2045,2068,2108,2027,2027,2694,3313,3338,3142,3287,3001,2957,3044,3071,3155,2913,3379,3375,3214,3274,2928,3273,3304,3021,0.009997729,1.939978946,1.939559426,0.401425719261,4500.0,0.37605547905,-0.00918484572321,-0.0253702495247,114.166122437,0.0,6000.0,0.00610412051901,-0.00248976284638,0.0,0.0,0.349065840244,0.0216827709228,-0.0136993685737,0.299191117287,-0.00400288030505,-0.00400288030505,0.000571454816964,0.018054490909,153.550827026,153.550827026,-54.2623634338,-0.972909927368,2037,2039,2596,2039,2039,2969,3423,3423,3255,3362,3093,3001,3124,3099,3210,2778,3386,3400,3232,3354,3122,3336,3377,3184
1508409697778987636,195,1508409697778642613,plot_matl,0.25,-3000.0,0.222296148539,0.0208365488797,-0.0277038458735,-78.0679168701,0.349065840244,0.0269896276295,0.00606195162982,0.222482711077,-0.00530185503885,-0.00530185503885,-0.00165809760801,0.0170685909688,-75.1840820312,-75.1840820312,0.276797711849,87.665763855,2045,2067,2107,2026,2026,2695,3314,3338,3142,3287,3001,2957,3044,3071,3155,2913,3379,3375,3214,3274,2928,3271,3303,3023,0.010026349,1.950006277,1.955138055,0.401425719261,4500.0,0.37605547905,-0.00751780159771,-0.0253702495247,114.166122437,0.0,6000.0,0.00612003589049,0.0106123499572,0.0,0.0,0.349065840244,0.0216827709228,-0.0136993685737,0.299191117287,-0.00400288030505,-0.00400288030505,0.000571454816964,0.018054490909,153.550827026,153.550827026,-54.2623634338,-0.972909927368,2046,2040,2595,2043,2043,2968,3422,3424,3255,3362,3093,3001,3124,3099,3210,2778,3386,3400,3232,3354,3120,3333,3378,3186
1508409697788929371,196,1508409697788628380,plot_matl,0.25,-3000.0,0.222296148539,0.0208365488797,-0.0277038458735,-78.0679168701,0.349065840244,0.0269896276295,0.00606195162982,0.222482711077,-0.00530185503885,-0.00530185503885,-0.00165809760801,0.0170685909688,-75.1840820312,-75.1840820312,0.276797711849,87.665763855,2049,2073,2107,2026,2026,2695,3314,3338,3142,3288,3001,2960,3045,3073,3154,2916,3381,3376,3214,3274,2928,3271,3303,3023,0.009985113,1.95999199,1.957082148,0.401425719261,4500.0,0.37605547905,-0.00707706809044,-0.0253702495247,114.166122437,0.0,6000.0,0.00612003589049,0.0106123499572,0.0,0.0,0.349065840244,0.0216827709228,-0.0136993685737,0.299191117287,-0.00400288030505,-0.00400288030505,0.000571454816964,0.018054490909,153.550827026,153.550827026,-54.2623634338,-0.972909927368,2049,2046,2595,2043,2043,2968,3422,3424,3255,3362,3091,2997,3124,3100,3210,2779,3385,3399,3232,3354,3120,3333,3378,3186
1508409697799078283,197,1508409697798645493,plot_matl,0.25,-3000.0,0.222238600254,-0.0159237422049,-0.027761394158,-87.0981216431,0.349065840244,0.0269896276295,0.00606195162982,0.222482711077,-0.00530185503885,-0.00530185503885,-0.00165809760801,0.0170685909688,-75.1840820312,-75.1840820312,0.276797711849,87.665763855,2017,2061,2107,2027,2027,2691,3314,3338,3142,3288,3001,2960,3045,3073,3154,2916,3381,3376,3213,3275,2928,3274,3303,3023,0.010018061,1.970009407,1.973558017,0.401425719261,4500.0,0.37605547905,-0.00579183967784,-0.0253702495247,114.166122437,0.0,6000.0,0.00611490057781,-0.00269167358056,0.0,0.0,0.349065840244,0.0216827709228,-0.0136993685737,0.299191117287,-0.00400288030505,-0.00400288030505,0.000571454816964,0.018054490909,153.550827026,153.550827026,-54.2623634338,-0.972909927368,2021,2030,2595,2039,2039,2967,3422,3424,3255,3362,3091,2997,3124,3100,3210,2779,3385,3399,3232,3354,3123,3337,3378,3184
1508409697809088053,198,1508409697808647978,plot_matl,0.25,-3000.0,0.222262680531,0.0215089321136,-0.0277373213321,-78.0194854736,0.349065840244,0.0283391084522,0.00606720568612,0.222273364663,0.00875531323254,0.00875531323254,-0.00175499322359,-0.0166775025427,-75.0241622925,-75.0241622925,0.556713879108,87.6228256226,2007,2059,2107,2027,2027,2691,3313,3337,3140,3287,3003,2959,3042,3072,3155,2915,3381,3376,3213,3275,2928,3274,3303,3023,0.010003542,1.980012263,1.980701316,0.401425719261,4500.0,0.37605547905,-0.00619597174227,-0.0253702495247,114.166122437,0.0,6000.0,0.00611487682909,0.0107287270948,0.0,0.0,0.349065840244,0.0240919683129,-0.0137285990641,0.299023121595,0.0186465065926,0.0186465065926,0.00111062102951,0.0214570965618,153.426467896,153.426467896,-53.9309806824,-1.48151254654,2022,2025,2595,2039,2039,2967,3421,3423,3255,3361,3091,2999,3124,3099,3211,2778,3385,3399,3232,3354,3123,3337,3378,3184
1508409697818818254,199,1508409697818623062,plot_matl,0.25,-3000.0,0.222262680531,0.0215089321136,-0.0277373213321,-78.0194854736,0.349065840244,0.0283391084522,0.00606720568612,0.222273364663,0.00875531323254,0.00875531323254,-0.00175499322359,-0.0166775025427,-75.0241622925,-75.0241622925,0.556713879108,87.6228256226,2007,2059,2107,2027,2027,2691,3313,3337,3140,3287,3003,2959,3042,3072,3155,2915,3381,3376,3213,3275,2928,3274,3303,3023,0.009979237,1.989994041,1.985868163,0.401425719261,4500.0,0.37605547905,-0.00619597174227,-0.0253702495247,114.166122437,0.0,6000.0,0.00611487682909,0.0107287270948,0.0,0.0,0.349065840244,0.0240919683129,-0.0137285990641,0.299023121595,0.0186465065926,0.0186465065926,0.00111062102951,0.0214570965618,153.426467896,153.426467896,-53.9309806824,-1.48151254654,2022,2025,2595,2039,2039,2967,3421,3423,3255,3361,3091,2999,3124,3099,3211,2778,3385,3399,3232,3354,3123,3337,3378,3184
1508409697829141248,200,1508409697828652826,plot_matl,0.25,-3000.0,0.222318470478,-0.0175600610673,-0.0276815332472,-87.6923675537,0.349065840244,0.0283391084522,0.00606720568612,0.222273364663,0.00875531323254,0.00875531323254,-0.00175499322359,-0.0166775025427,-75.0241622925,-75.0241622925,0.556713879108,87.6228256226,1995,2053,2107,2024,2024,2692,3310,3336,3141,3288,3001,2958,3043,3070,3155,2915,3379,3374,3211,3278,2930,3273,3302,3023,0.010023615,2.000016805,2.004723,0.401425719261,4500.0,0.37605547905,-0.00648378487676,-0.0253702495247,114.166122437,0.0,6000.0,0.00610444229096,-0.00250064581633,0.0,0.0,0.349065840244,0.0240919683129,-0.0137285990641,0.299023121595,0.0186465065926,0.0186465065926,0.00111062102951,0.0214570965618,153.426467896,153.426467896,-53.9309806824,-1.48151254654,2005,2017,2595,2038,2038,2968,3421,3422,3256,3362,3092,2998,3124,3098,3211,2778,3386,3402,3233,3355,3122,3335,3377,3183
1508409697839126223,201,1508409697838633707,plot_matl,0.25,-3000.0,0.222337007523,0.0199285652488,-0.0276629980654,-77.8305435181,0.349065840244,0.0283391084522,0.00606720568612,0.222273364663,0.00875531323254,0.00875531323254,-0.00175499322359,-0.0166775025427,-75.0241622925,-75.0241622925,0.556713879108,87.6228256226,2008,2029,2107,2024,2024,2692,3310,3336,3141,3288,3001,2958,3043,3070,3157,2916,3380,3375,3212,3276,2928,3273,3303,3023,0.00998064,2.009997897,2.00610864,0.401425719261,4500.0,0.37605547905,-0.00539330253378,-0.0253702495247,114.166122437,0.0,6000.0,0.00608201883733,-0.00204936810769,0.0,0.0,0.349065840244,0.0240919683129,-0.0137285990641,0.299023121595,0.0186465065926,0.0186465065926,0.00111062102951,0.0214570965618,153.426467896,153.426467896,-53.9309806824,-1.48151254654,2010,2005,2595,2038,2038,2968,3421,3422,3256,3362,3092,2998,3124,3098,3210,2780,3388,3400,3232,3354,3121,3334,3379,3185
1508409697849038168,202,1508409697848616983,plot_matl,0.25,-3000.0,0.222417026758,0.0182972326875,-0.0275829732418,-78.2881469727,0.349065840244,0.0283391084522,0.00612613558769,0.222265392542,0.0102101583034,0.0102101583034,-0.00291615817696,0.021437972784,-74.9330368042,-74.9330368042,0.321771502495,87.5269927979,2012,2030,2107,2027,2027,2693,3312,3335,3141,3287,3001,2958,3043,3070,3157,2916,3380,3375,3212,3276,2928,3273,3303,3023,0.00998289,2.019980962,2.01654378,0.401425719261,4500.0,0.37605547905,-0.00538093969226,-0.0253702495247,114.166122437,0.0,6000.0,0.00609853910282,0.0110345287248,0.0,0.0,0.349065840244,0.0216827709228,-0.0136976130307,0.299061357975,-0.00514584919438,-0.00514584919438,0.000499265443068,0.0205266997218,153.364883423,153.364883423,-54.2667121887,-1.046043396,2013,2007,2597,2043,2043,2969,3421,3423,3255,3359,3094,2998,3124,3098,3210,2780,3388,3400,3232,3354,3121,3334,3379,3185
1508409697858889530,203,1508409697858620579,plot_matl,0.25,-3000.0,0.222408875823,0.0184483844787,-0.0275911297649,-78.3584060669,0.349065840244,0.0283391084522,0.00612613558769,0.222265392542,0.0102101583034,0.0102101583034,-0.00291615817696,0.021437972784,-74.9330368042,-74.9330368042,0.321771502495,87.5269927979,2005,2029,2107,2027,2027,2693,3312,3335,3141,3287,3001,2958,3044,3073,3154,2916,3380,3375,3212,3276,2929,3272,3303,3023,0.010001532,2.029983918,2.030310996,0.401425719261,4500.0,0.37605547905,-0.00536805996671,-0.0253702495247,114.166122437,0.0,6000.0,0.0060771247372,-0.00195473595522,0.0,0.0,0.349065840244,0.0216827709228,-0.0136976130307,0.299061357975,-0.00514584919438,-0.00514584919438,0.000499265443068,0.0205266997218,153.364883423,153.364883423,-54.2667121887,-1.046043396,2008,2006,2597,2043,2043,2969,3421,3423,3255,3359,3094,2998,3124,3098,3210,2778,3385,3400,3232,3354,3123,3337,3379,3185
1508409697869010477,204,1508409697868672627,plot_matl,0.25,-3000.0,0.222438454628,0.0557315871119,-0.0275615472347,-68.9910507202,0.349065840244,0.0283391084522,0.00612613558769,0.222265392542,0.0102101583034,0.0102101583034,-0.00291615817696,0.021437972784,-74.9330368042,-74.9330368042,0.321771502495,87.5269927979,1995,2026,2108,2027,2027,2693,3314,3337,3142,3288,3001,2958,3044,3073,3154,2916,3380,3375,3212,3276,2929,3272,3302,3023,0.010053318,2.040036792,2.050876872,0.401425719261,4500.0,0.37605547905,-0.00531376805156,-0.0253702495247,114.166122437,0.0,6000.0,0.0060728113167,0.0115576442331,0.0,0.0,0.349065840244,0.0216827709228,-0.0136976130307,0.299061357975,-0.00514584919438,-0.00514584919438,0.000499265443068,0.0205266997218,153.364883423,153.364883423,-54.2667121887,-1.046043396,2006,2005,2596,2039,2039,2969,3424,3423,3255,3362,3094,2998,3124,3098,3210,2778,3385,3400,3232,3354,3123,3337,3379,3185
1508409697879019823,205,1508409697878627428,plot_matl,0.25,-3000.0,0.222489312291,-0.0211308617145,-0.0275106932968,-87.5396652222,0.349065840244,0.0283391084522,0.00612613558769,0.222265392542,0.0102101583034,0.0102101583034,-0.00291615817696,0.021437972784,-74.9330368042,-74.9330368042,0.321771502495,87.5269927979,2011,2053,2108,2027,2027,2693,3314,3337,3142,3288,3002,2958,3043,3073,3157,2916,3380,3376,3212,3276,2929,3272,3302,3023,0.009954386,2.049991388,2.04064913,0.401425719261,4500.0,0.37605547905,-0.00525457365438,-0.0253702495247,114.166122437,0.0,6000.0,0.00607825955376,-0.00198233290575,0.0,0.0,0.349065840244,0.0216827709228,-0.0136976130307,0.299061357975,-0.00514584919438,-0.00514584919438,0.000499265443068,0.0205266997218,153.364883423,153.364883423,-54.2667121887,-1.046043396,2018,2028,2596,2039,2039,2969,3424,3423,3255,3362,3093,2998,3125,3098,3210,2778,3387,3400,3232,3353,3123,3337,3379,3185
1508409697889016679,206,1508409697888621879,plot_matl,0.25,-3000.0,0.222489312291,-0.0211308617145,-0.0275106932968,-87.5396652222,0.349065840244,0.0269896276295,0.00609051529318,0.222294762731,-0.00264679617248,-0.00264679617248,-0.00222035869956,0.0208183713257,-74.8890533447,-74.8890533447,0.335907965899,87.8327026367,2011,2050,2107,2022,2022,2692,3311,3336,3142,3288,3002,2958,3043,3073,3157,2916,3380,3376,3212,3276,2930,3273,3300,3022,0.009995033,2.059986219,2.058976798,0.401425719261,4500.0,0.37605547905,-0.00525457365438,-0.0253702495247,114.166122437,0.0,6000.0,0.00607825955376,-0.00198233290575,0.0,0.0,0.349065840244,0.0216827709228,-0.0136628020555,0.299004435539,-0.00619833078235,-0.00619833078235,-0.000198972193175,0.0215900242329,153.393386841,153.393386841,-53.8913536072,-0.674951076508,2020,2019,2596,2039,2039,2969,3422,3422,3255,3362,3093,2998,3125,3098,3210,2778,3387,3400,3232,3353,3122,3335,3379,3184
1508409697899045143,207,1508409697898622129,plot_matl,0.25,-3000.0,0.22239087522,-0.0190742444247,-0.0276091303676,-87.2946472168,0.349065840244,0.0269896276295,0.00609051529318,0.222294762731,-0.00264679617248,-0.00264679617248,-0.00222035869956,0.0208183713257,-74.8890533447,-74.8890533447,0.335907965899,87.8327026367,2012,2046,2107,2022,2022,2692,3311,3336,3142,3289,3002,2959,3043,3071,3157,2917,3381,3375,3212,3276,2930,3273,3300,3022,0.00999843,2.069985953,2.06967501,0.401425719261,4500.0,0.37605547905,-0.00486267590895,-0.0253702495247,114.166122437,0.0,6000.0,0.00608947733417,0.0112143009901,0.0,0.0,0.349065840244,0.0216827709228,-0.0136628020555,0.299004435539,-0.00619833078235,-0.00619833078235,-0.000198972193175,0.0215900242329,153.393386841,153.393386841,-53.8913536072,-0.674951076508,2023,2025,2596,2039,2039,2969,3422,3422,3255,3360,3093,2998,3126,3100,3211,2780,3385,3400,3232,3353,3122,3335,3379,3184
1508409697909234797,208,1508409697908654316,plot_matl,0.25,-3000.0,0.22245721519,-0.0204306039959,-0.0275427866727,-87.6329193115,0.349065840244,0.0269896276295,0.00609051529318,0.222294762731,-0.00264679617248,-0.00264679617248,-0.00222035869956,0.0208183713257,-74.8890533447,-74.8890533447,0.335907965899,87.8327026367,2031,2060,2108,2021,2021,2691,3311,3336,3142,3289,3002,2959,3043,3071,3157,2917,3381,3375,3213,3277,2930,3272,3303,3023,0.010032021,2.080018215,2.086660368,0.401425719261,4500.0,0.37605547905,-0.00444865645841,-0.0253702495247,114.166122437,0.0,6000.0,0.00608198065311,-0.00206103618257,0.0,0.0,0.349065840244,0.0216827709228,-0.0136628020555,0.299004435539,-0.00619833078235,-0.00619833078235,-0.000198972193175,0.0215900242329,153.393386841,153.393386841,-53.8913536072,-0.674951076508,2036,2033,2596,2044,2044,2968,3422,3422,3255,3360,3093,2998,3126,3100,3211,2780,3385,3400,3233,3354,3121,3335,3379,3185
1508409697918991594,209,1508409697918644436,plot_matl,0.25,-3000.0,0.222383201122,-0.0188908968121,-0.0276167988777,-87.2997283936,0.349065840244,0.0269896276295,0.00609051529318,0.222294762731,-0.00264679617248,-0.00264679617248,-0.00222035869956,0.0208183713257,-74.8890533447,-74.8890533447,0.335907965899,87.8327026367,2028,2051,2108,2021,2021,2691,3313,3335,3140,3287,3002,2958,3045,3073,3157,2915,3381,3375,3213,3277,2930,3272,3303,3023,0.009989092,2.090008078,2.087720228,0.401425719261,4500.0,0.37605547905,-0.00513980910182,-0.0253702495247,114.166122437,0.0,6000.0,0.00608736323193,0.0112478826195,0.0,0.0,0.349065840244,0.0216827709228,-0.0136628020555,0.299004435539,-0.00619833078235,-0.00619833078235,-0.000198972193175,0.0215900242329,153.393386841,153.393386841,-53.8913536072,-0.674951076508,2030,2029,2596,2044,2044,2968,3422,3422,3255,3360,3092,2998,3125,3100,3211,2781,3385,3400,3233,3354,3121,3335,3379,3185
1508409697928967463,210,1508409697928610389,plot_matl,0.25,-3000.0,0.222388133407,-0.0188965406269,-0.0276118628681,-87.5669174194,0.349065840244,0.0269896276295,0.00607313029468,0.222501322627,-0.00284594018012,-0.00284594018012,-0.00187274359632,0.0165738742799,-75.02293396,-75.02293396,0.289930582047,88.1306304932,2008,2047,2109,2024,2024,2691,3313,3335,3140,3287,3002,2958,3045,3073,3157,2915,3379,3376,3213,3276,2931,3274,3302,3025,0.009965764,2.099974043,2.09281044,0.401425719261,4500.0,0.37605547905,-0.00673786038533,-0.0253702495247,114.166122437,0.0,6000.0,0.00609055161476,-0.00226688757539,0.0,0.0,0.349065840244,0.0216827709228,-0.0136965969577,0.299183547497,-0.00555674685165,-0.00555674685165,0.00046516166185,0.017970867455,153.580383301,153.580383301,-54.0147476196,-1.09960973263,2015,2018,2596,2040,2040,2968,3422,3422,3255,3360,3092,2998,3125,3100,3211,2781,3387,3400,3235,3355,3124,3336,3378,3184
1508409697938782335,211,1508409697938628689,plot_matl,0.25,-3000.0,0.222321942449,0.0203602984548,-0.0276780538261,-77.9934539795,0.349065840244,0.0269896276295,0.00607313029468,0.222501322627,-0.00284594018012,-0.00284594018012,-0.00187274359632,0.0165738742799,-75.02293396,-75.02293396,0.289930582047,88.1306304932,2025,2067,2109,2024,2024,2693,3311,3336,3141,3285,3003,2957,3043,3071,3157,2915,3379,3376,3213,3276,2931,3274,3302,3025,0.010018054,2.109992338,2.113809394,0.401425719261,4500.0,0.37740495801,0.0202318355441,-0.024020768702,108.093460083,0.0,6000.0,0.00609779916704,0.0110398875549,0.0,0.0,0.349065840244,0.0216827709228,-0.0136965969577,0.299183547497,-0.00555674685165,-0.00555674685165,0.00046516166185,0.017970867455,153.580383301,153.580383301,-54.0147476196,-1.09960973263,2039,2041,2596,2040,2040,2969,3421,3423,3256,3361,3094,2999,3125,3099,3211,2781,3387,3400,3235,3355,3124,3336,3378,3184
1508409697949048901,212,1508409697948641758,plot_matl,0.25,-3000.0,0.22226703167,0.0214444231242,-0.0277329720557,-78.02394104,0.349065840244,0.0269896276295,0.00607313029468,0.222501322627,-0.00284594018012,-0.00284594018012,-0.00187274359632,0.0165738742799,-75.02293396,-75.02293396,0.289930582047,88.1306304932,2014,2059,2109,2024,2024,2693,3311,3336,3141,3285,3003,2957,3043,3071,3158,2915,3381,3377,3212,3276,2930,3274,3304,3023,0.010013334,2.120005792,2.122826808,0.401425719261,4500.0,0.37470600009,-0.033484775573,-0.02671973221,120.238792419,0.0,6000.0,0.0060764728114,-0.00194784009364,0.0,0.0,0.349065840244,0.0216827709228,-0.0136965969577,0.299183547497,-0.00555674685165,-0.00555674685165,0.00046516166185,0.017970867455,153.580383301,153.580383301,-54.0147476196,-1.09960973263,2025,2027,2596,2040,2040,2969,3421,3423,3256,3361,3094,2999,3125,3099,3211,2780,3387,3401,3234,3357,3123,3335,3377,3184
1508409697958955373,213,1508409697958640348,plot_matl,0.25,-3000.0,0.222287356853,-0.0168805997819,-0.0277126487345,-87.1828613281,0.349065840244,0.0269896276295,0.00607313029468,0.222501322627,-0.00284594018012,-0.00284594018012,-0.00187274359632,0.0165738742799,-75.02293396,-75.02293396,0.289930582047,88.1306304932,2009,2043,2107,2022,2022,2692,3314,3338,3141,3288,3001,2957,3043,3071,3158,2915,3381,3377,3212,3276,2930,3274,3304,3023,0.009998144,2.130004298,2.129604672,0.401425719261,4500.0,0.37605547905,-0.00561472028494,-0.0253702495247,114.166122437,0.0,6000.0,0.00605906965211,-0.00159577617887,0.0,0.0,0.349065840244,0.0216827709228,-0.0136965969577,0.299183547497,-0.00555674685165,-0.00555674685165,0.00046516166185,0.017970867455,153.580383301,153.580383301,-54.0147476196,-1.09960973263,2020,2024,2596,2040,2040,2969,3424,3422,3254,3361,3093,2998,3125,3099,3211,2780,3387,3401,3234,3357,3123,3335,3377,3184
1508409697968948145,214,1508409697968639721,plot_matl,0.25,-3000.0,0.222305744886,-0.017204195261,-0.0276942607015,-87.29246521,0.349065840244,0.0269896276295,0.0060822465457,0.222380310297,-0.00250014057383,-0.00250014057383,-0.00207039574161,0.0190398227423,-74.9891891479,-74.9891891479,-0.305617749691,87.3497238159,2027,2053,2107,2022,2022,2692,3314,3338,3141,3288,3001,2957,3043,3072,3157,2915,3380,3375,3212,3276,2930,3274,3304,3023,0.009998681,2.140003375,2.139717734,0.401425719261,4500.0,0.37605547905,-0.0055583496578,-0.0253702495247,114.166122437,0.0,6000.0,0.00605906965211,-0.00159577617887,0.0,0.0,0.349065840244,0.0216827709228,-0.0136969024315,0.298834681511,-0.00561708118767,-0.00561708118767,0.000482279807329,-0.036890629679,153.663421631,153.663421631,-53.9076766968,-1.09240806103,2033,2026,2596,2040,2040,2969,3424,3422,3254,3361,3093,2998,3126,3098,3211,2778,3388,3401,3233,3354,3120,3335,3377,3184
1508409697978848135,215,1508409697978608429,plot_matl,0.25,-3000.0,0.22224470973,-0.0159773174673,-0.0277552846819,-87.2225265503,0.349065840244,0.0269896276295,0.0060822465457,0.222380310297,-0.00250014057383,-0.00250014057383,-0.00207039574161,0.0190398227423,-74.9891891479,-74.9891891479,-0.305617749691,87.3497238159,2016,2049,2108,2021,2021,2694,3314,3337,3141,3288,3001,2957,3043,3072,3157,2915,3380,3375,3212,3276,2930,3274,3301,3024,0.009968145,2.149972336,2.143151175,0.401425719261,4500.0,0.37605547905,-0.00452555716038,-0.0253702495247,114.166122437,0.0,6000.0,0.00607801228762,0.0114517193288,0.0,0.0,0.349065840244,0.0216827709228,-0.0136969024315,0.298834681511,-0.00561708118767,-0.00561708118767,0.000482279807329,-0.036890629679,153.663421631,153.663421631,-53.9076766968,-1.09240806103,2023,2029,2596,2043,2043,2970,3421,3424,3257,3360,3093,2998,3126,3098,3211,2778,3388,3401,3233,3354,3120,3335,3378,3184
1508409697989022652,216,1508409697988623973,plot_matl,0.25,-3000.0,0.22224470973,-0.0159773174673,-0.0277552846819,-87.2225265503,0.349065840244,0.0269896276295,0.0060822465457,0.222380310297,-0.00250014057383,-0.00250014057383,-0.00207039574161,0.0190398227423,-74.9891891479,-74.9891891479,-0.305617749691,87.3497238159,2016,2049,2108,2021,2021,2694,3314,3337,3141,3288,3001,2957,3043,3072,3157,2915,3380,3375,3212,3276,2930,3274,3301,3024,0.010015225,2.159987722,2.1632886,0.401425719261,4500.0,0.37740495801,0.0215889513493,-0.024020768702,108.093460083,0.0,6000.0,0.00607216823846,-0.00185129744932,0.0,0.0,0.349065840244,0.0216827709228,-0.0136969024315,0.298834681511,-0.00561708118767,-0.00561708118767,0.000482279807329,-0.036890629679,153.663421631,153.663421631,-53.9076766968,-1.09240806103,2023,2029,2596,2043,2043,2970,3421,3424,3257,3360,3093,2998,3126,3098,3211,2778,3388,3401,3233,3354,3120,3335,3378,3184
1508409697999232085,217,1508409697998677819,plot_matl,0.25,-3000.0,0.222325384617,-0.0176228061318,-0.0276746153831,-87.1075592041,0.349065840244,0.0269896276295,0.0060822465457,0.222380310297,-0.00250014057383,-0.00250014057383,-0.00207039574161,0.0190398227423,-74.9891891479,-74.9891891479,-0.305617749691,87.3497238159,2014,2059,2107,2023,2023,2695,3313,3338,3141,3288,3001,2959,3042,3074,3159,2914,3379,3375,3211,3278,2930,3272,3302,3023,0.010054688,2.170041558,2.181867296,0.401425719261,4500.0,0.37605547905,-0.00560817727819,-0.0253702495247,114.166122437,0.0,6000.0,0.00606817612424,0.0116463173181,0.0,0.0,0.349065840244,0.0216827709228,-0.0136969024315,0.298834681511,-0.00561708118767,-0.00561708118767,0.000482279807329,-0.036890629679,153.663421631,153.663421631,-53.9076766968,-1.09240806103,2020,2026,2596,2038,2038,2973,3422,3423,3257,3360,3093,2998,3125,3097,3210,2776,3385,3400,3233,3356,3122,3336,3379,3184
1508409698008935718,218,1508409698008630569,plot_matl,0.25,-3000.0,0.222269877791,-0.016520621255,-0.0277301277965,-87.2838516235,0.349065840244,0.0269896276295,0.00606559496373,0.222280666232,-0.00276403105818,-0.00276403105818,-0.00172778370325,0.021166248247,-75.1541137695,-75.1541137695,-0.417808055878,87.9862060547,2015,2051,2107,2023,2023,2695,3313,3338,3144,3286,3000,2960,3042,3072,3156,2912,3379,3375,3211,3278,2930,3272,3302,3023,0.009950758,2.179993962,2.169265244,0.401425719261,4500.0,0.37605547905,-0.00567111093551,-0.0253702495247,114.166122437,0.0,6000.0,0.00605216203257,-0.00145227962639,0.0,0.0,0.349065840244,0.0216827709228,-0.0137053355575,0.299020379782,-0.00642817327753,-0.00642817327753,0.000640466285404,0.0212860833853,153.633575439,153.633575439,-53.7542381287,-1.25542593002,2024,2029,2596,2038,2038,2973,3422,3423,3256,3361,3093,2998,3126,3098,3212,2777,3386,3399,3233,3356,3122,3336,3379,3184
1508409698019076085,219,1508409698018646160,plot_matl,0.25,-3000.0,0.222194388509,0.0229680761695,-0.0278056059033,-77.7920150757,0.349065840244,0.0269896276295,0.00606559496373,0.222280666232,-0.00276403105818,-0.00276403105818,-0.00172778370325,0.021166248247,-75.1541137695,-75.1541137695,-0.417808055878,87.9862060547,2013,2026,2108,2020,2020,2697,3313,3338,3144,3286,3000,2960,3042,3072,3156,2912,3379,3375,3211,3278,2930,3271,3302,3025,0.010016802,2.190010185,2.193679638,0.401425719261,4500.0,0.37605547905,-0.00517683662474,-0.0253702495247,114.166122437,0.0,6000.0,0.00605259137228,0.0119650047272,0.0,0.0,0.349065840244,0.0216827709228,-0.0137053355575,0.299020379782,-0.00642817327753,-0.00642817327753,0.000640466285404,0.0212860833853,153.633575439,153.633575439,-53.7542381287,-1.25542593002,2020,2010,2596,2041,2041,2973,3422,3423,3256,3361,3093,2998,3126,3098,3212,2777,3386,3399,3231,3352,3120,3335,3378,3184
1508409698029215149,220,1508409698028685618,plot_matl,0.25,-3000.0,0.222192689776,0.0230100098997,-0.0278073102236,-77.8045654297,0.349065840244,0.0269896276295,0.00606559496373,0.222280666232,-0.00276403105818,-0.00276403105818,-0.00172778370325,0.021166248247,-75.1541137695,-75.1541137695,-0.417808055878,87.9862060547,2020,2030,2108,2020,2020,2697,3314,3339,3143,3287,3001,2957,3046,3071,3156,2913,3379,3375,3211,3278,2930,3271,3302,3025,0.010039389,2.200049407,2.20866558,0.401425719261,4500.0,0.37740495801,0.022986466065,-0.024020768702,108.093460083,0.0,6000.0,0.00605117343366,-0.00144333729986,0.0,0.0,0.349065840244,0.0216827709228,-0.0137053355575,0.299020379782,-0.00642817327753,-0.00642817327753,0.000640466285404,0.0212860833853,153.633575439,153.633575439,-53.7542381287,-1.25542593002,2013,2007,2596,2041,2041,2973,3424,3423,3257,3362,3094,2998,3126,3098,3210,2777,3386,3399,3231,3352,3120,3335,3378,3184
1508409698039081124,221,1508409698038647531,plot_matl,0.25,-3000.0,0.222198858857,-0.01499429252,-0.0278011448681,-86.6296157837,0.349065840244,0.0269896276295,0.00606559496373,0.222280666232,-0.00276403105818,-0.00276403105818,-0.00172778370325,0.021166248247,-75.1541137695,-75.1541137695,-0.417808055878,87.9862060547,2013,2035,2109,2023,2023,2697,3314,3339,3143,3287,3001,2957,3046,3071,3156,2913,3380,3376,3213,3276,2928,3271,3303,3022,0.009961206,2.210011465,2.201426526,0.401425719261,4500.0,0.37605547905,-0.00350338011049,-0.0253702495247,114.166122437,0.0,6000.0,0.00606168713421,-0.00165452680085,0.0,0.0,0.349065840244,0.0216827709228,-0.0137053355575,0.299020379782,-0.00642817327753,-0.00642817327753,0.000640466285404,0.0212860833853,153.633575439,153.633575439,-53.7542381287,-1.25542593002,2013,2008,2596,2036,2036,2973,3424,3423,3257,3362,3094,2998,3126,3098,3210,2777,3386,3401,3232,3356,3122,3336,3378,3185
1508409698049202861,222,1508409698048675338,plot_matl,0.25,-3000.0,0.222195908427,-0.0149702839553,-0.0278040934354,-86.9934997559,0.349065840244,0.0269896276295,0.00606181612238,0.222280189395,-0.00275911018252,-0.00275911018252,-0.00164293893613,-0.0167210698128,-75.4209518433,-75.4209518433,0.068695217371,87.5863723755,1983,2011,2109,2023,2023,2697,3313,3337,3140,3287,3002,2956,3043,3073,3156,2913,3380,3376,3213,3276,2928,3271,3303,3022,0.010027111,2.220039117,2.226018642,0.401425719261,4500.0,0.37605547905,-0.00385231641121,-0.0253702495247,114.166122437,0.0,6000.0,0.00608503445983,0.011292043142,0.0,0.0,0.349065840244,0.0216827709228,-0.0137102473527,0.29904833436,-0.00940979178995,-0.00940979178995,0.000762358889915,0.0207609254867,153.574691772,153.574691772,-53.1580963135,-0.772428572178,1995,1989,2596,2036,2036,2971,3422,3422,3256,3361,3093,2997,3126,3098,3210,2777,3386,3401,3232,3356,3122,3336,3378,3185
1508409698059165152,223,1508409698058678028,plot_matl,0.25,-3000.0,0.222132056952,-0.013708380051,-0.0278679449111,-86.8218536377,0.349065840244,0.0269896276295,0.00606181612238,0.222280189395,-0.00275911018252,-0.00275911018252,-0.00164293893613,-0.0167210698128,-75.4209518433,-75.4209518433,0.068695217371,87.5863723755,1994,2019,2109,2023,2023,2697,3313,3337,3140,3287,3002,2956,3043,3073,3157,2915,3378,3374,3213,3278,2930,3273,3304,3024,0.01000252,2.230042027,2.23056196,0.401425719261,4500.0,0.37470600009,-0.0304122474045,-0.02671973221,120.238792419,0.0,6000.0,0.00607823906466,-0.00198224396445,0.0,0.0,0.349065840244,0.0216827709228,-0.0137102473527,0.29904833436,-0.00940979178995,-0.00940979178995,0.000762358889915,0.0207609254867,153.574691772,153.574691772,-53.1580963135,-0.772428572178,1997,1993,2596,2036,2036,2971,3422,3422,3256,3361,3093,2997,3126,3098,3212,2778,3385,3402,3232,3354,3120,3333,3377,3186
1508409698069175037,224,1508409698068668051,plot_matl,0.25,-3000.0,0.222079962492,-0.0125954374671,-0.0279200319201,-87.0904312134,0.349065840244,0.0269896276295,0.00606181612238,0.222280189395,-0.00275911018252,-0.00275911018252,-0.00164293893613,-0.0167210698128,-75.4209518433,-75.4209518433,0.068695217371,87.5863723755,2007,2032,2109,2025,2025,2697,3312,3338,3142,3288,3003,2957,3043,3073,3157,2915,3378,3374,3213,3278,2930,3273,3304,3024,0.009990293,2.240032038,2.237825632,0.401425719261,4500.0,0.37605547905,-0.00262706703506,-0.0253702495247,114.166122437,0.0,6000.0,0.00606029853225,-0.00161954609212,0.0,0.0,0.349065840244,0.0216827709228,-0.0137102473527,0.29904833436,-0.00940979178995,-0.00940979178995,0.000762358889915,0.0207609254867,153.574691772,153.574691772,-53.1580963135,-0.772428572178,2009,2005,2597,2035,2035,2972,3422,3425,3257,3362,3093,2997,3126,3098,3212,2778,3385,3402,3232,3354,3120,3333,3377,3186
1508409698079005016,225,1508409698078647096,plot_matl,0.25,-3000.0,0.222134292126,-0.0137607064098,-0.0278657022864,-86.9869995117,0.349065840244,0.0269896276295,0.00606181612238,0.222280189395,-0.00275911018252,-0.00275911018252,-0.00164293893613,-0.0167210698128,-75.4209518433,-75.4209518433,0.068695217371,87.5863723755,2002,2023,2109,2025,2025,2697,3312,3338,3142,3288,3003,2957,3045,3073,3156,2914,3380,3375,3214,3276,2929,3274,3304,3024,0.009977369,2.250010819,2.244908025,0.401425719261,4500.0,0.37605547905,-0.00265095918439,-0.0253702495247,114.166122437,0.0,6000.0,0.00604587839916,-0.00132801628206,0.0,0.0,0.349065840244,0.0216827709228,-0.0137102473527,0.29904833436,-0.00940979178995,-0.00940979178995,0.000762358889915,0.0207609254867,153.574691772,153.574691772,-53.1580963135,-0.772428572178,2005,2004,2597,2035,2035,2972,3422,3425,3257,3362,3093,2997,3124,3098,3211,2778,3385,3401,3232,3353,3124,3335,3377,3186
1508409698089060031,226,1508409698088633945,plot_matl,0.25,-3000.0,0.222147062421,-0.014014814049,-0.0278529301286,-87.0119934082,0.349065840244,0.0269896276295,0.00606839358807,0.222179144621,-0.00189583562315,-0.00189583562315,-0.00179067696445,-0.0146317854524,-75.3259811401,-75.3259811401,0.101307943463,87.7772903442,2000,2039,2110,2025,2025,2696,3314,3337,3144,3287,3003,2957,3045,3073,3156,2914,3380,3375,3214,3276,2929,3274,3303,3024,0.00998724,2.25999821,2.25711624,0.401425719261,4500.0,0.37605547905,-0.00263464450836,-0.0253702495247,114.166122437,0.0,6000.0,0.00605724286288,-0.00156735640485,0.0,0.0,0.349065840244,0.0240919683129,-0.0136847998947,0.299164384604,0.0167009253055,0.0167009253055,0.000253160163993,0.0183729957789,153.476501465,153.476501465,-53.074634552,-1.0491014719,2010,2012,2598,2034,2034,2970,3422,3423,3256,3362,3093,2997,3124,3098,3211,2778,3385,3401,3232,3353,3124,3335,3378,3184
1508409698098929053,227,1508409698098634530,plot_matl,0.25,-3000.0,0.222055867314,-0.0121930828318,-0.0279441270977,-86.6992416382,0.349065840244,0.0269896276295,0.00606839358807,0.222179144621,-0.00189583562315,-0.00189583562315,-0.00179067696445,-0.0146317854524,-75.3259811401,-75.3259811401,0.101307943463,87.7772903442,2019,2062,2110,2025,2025,2696,3314,3337,3144,3287,3003,2956,3044,3073,3155,2915,3380,3378,3214,3278,2929,3274,3303,3024,0.009999874,2.269998434,2.269971398,0.401425719261,4500.0,0.37470600009,-0.0289291739464,-0.02671973221,120.238792419,0.0,6000.0,0.00605724286288,-0.00156735640485,0.0,0.0,0.349065840244,0.0240919683129,-0.0136847998947,0.299164384604,0.0167009253055,0.0167009253055,0.000253160163993,0.0183729957789,153.476501465,153.476501465,-53.074634552,-1.0491014719,2028,2029,2598,2034,2034,2970,3422,3423,3256,3362,3095,2996,3124,3099,3211,2778,3388,3402,3232,3354,3124,3335,3378,3184
1508409698109058610,228,1508409698108647824,plot_matl,0.25,-3000.0,0.222047880292,0.0258940979838,-0.0279521215707,-77.4905319214,0.349065840244,0.0269896276295,0.00606839358807,0.222179144621,-0.00189583562315,-0.00189583562315,-0.00179067696445,-0.0146317854524,-75.3259811401,-75.3259811401,0.101307943463,87.7772903442,2018,2056,2110,2024,2024,2695,3313,3336,3144,3287,3003,2956,3044,3073,3155,2915,3380,3378,3214,3278,2930,3272,3302,3023,0.01001189,2.280011492,2.28271092,0.401425719261,4500.0,0.37605547905,-0.00181919871829,-0.0253702495247,114.166122437,0.0,6000.0,0.00606065243483,-0.00163629977033,0.0,0.0,0.349065840244,0.0240919683129,-0.0136847998947,0.299164384604,0.0167009253055,0.0167009253055,0.000253160163993,0.0183729957789,153.476501465,153.476501465,-53.074634552,-1.0491014719,2030,2030,2598,2038,2038,2971,3423,3424,3256,3362,3095,2996,3124,3099,3211,2778,3388,3402,3232,3354,3122,3335,3380,3186
1508409698119109554,229,1508409698118646620,plot_matl,0.25,-3000.0,0.222116664052,0.0244816951454,-0.0278833284974,-77.5557861328,0.349065840244,0.0269896276295,0.00606839358807,0.222179144621,-0.00189583562315,-0.00189583562315,-0.00179067696445,-0.0146317854524,-75.3259811401,-75.3259811401,0.101307943463,87.7772903442,2045,2074,2110,2024,2024,2695,3313,3336,3145,3287,3001,2958,3043,3072,3156,2914,3381,3377,3214,3278,2930,3272,3302,3023,0.009999548,2.290010524,2.289896492,0.401425719261,4500.0,0.37605547905,-0.00245894026011,-0.0253702495247,114.166122437,0.0,6000.0,0.00605763122439,-0.00157345412299,0.0,0.0,0.349065840244,0.0240919683129,-0.0136847998947,0.299164384604,0.0167009253055,0.0167009253055,0.000253160163993,0.0183729957789,153.476501465,153.476501465,-53.074634552,-1.0491014719,2047,2041,2598,2038,2038,2971,3423,3424,3258,3360,3095,2998,3124,3099,3211,2778,3387,3402,3232,3354,3122,3335,3380,3186
1508409698128877006,230,1508409698128647942,plot_matl,0.25,-3000.0,0.221995979548,-0.0109874671325,-0.0280040185899,-86.8151931763,0.349065840244,0.0269896276295,0.00605128426105,0.222073152661,-0.00116572668776,-0.00116572668776,-0.00143730489071,-0.0125368805602,-74.9399261475,-74.9399261475,0.485635697842,87.8452377319,2050,2081,2108,2024,2024,2695,3313,3336,3145,3287,3001,2958,3043,3072,3156,2914,3381,3377,3213,3276,2930,3273,3301,3024,0.01000035,2.300011771,2.3000805,0.401425719261,4500.0,0.37605547905,-0.00348210637458,-0.0253702495247,114.166122437,0.0,6000.0,0.00604360364377,-0.00128844438586,0.0,0.0,0.349065840244,0.0192735753953,-0.0137052889913,0.298925429583,-0.033026535064,-0.033026535064,0.000671232468449,0.0230517759919,153.510925293,153.510925293,-53.364780426,-1.03642821312,2047,2048,2597,2037,2037,2970,3423,3424,3258,3360,3095,2998,3124,3099,3211,2778,3387,3402,3232,3354,3123,3334,3376,3183
1508409698138975353,231,1508409698138640659,plot_matl,0.25,-3000.0,0.221993565559,-0.0109680471942,-0.0280064381659,-86.458732605,0.349065840244,0.0269896276295,0.00605128426105,0.222073152661,-0.00116572668776,-0.00116572668776,-0.00143730489071,-0.0125368805602,-74.9399261475,-74.9399261475,0.485635697842,87.8452377319,2038,2067,2108,2024,2024,2695,3312,3339,3142,3287,3003,2959,3044,3073,3156,2916,3381,3377,3213,3276,2930,3273,3301,3024,0.009992702,2.310004528,2.308314162,0.401425719261,4500.0,0.37605547905,-0.00428700447083,-0.0253702495247,114.166122437,0.0,6000.0,0.00605681585148,-0.00155319168698,0.0,0.0,0.349065840244,0.0192735753953,-0.0137052889913,0.298925429583,-0.033026535064,-0.033026535064,0.000671232468449,0.0230517759919,153.510925293,153.510925293,-53.364780426,-1.03642821312,2041,2037,2597,2037,2037,2970,3421,3423,3255,3361,3094,2997,3124,3098,3211,2778,3387,3402,3232,3354,3123,3334,3376,3183
1508409698148873000,232,1508409698148617442,plot_matl,0.25,-3000.0,0.222028389573,-0.0116481427103,-0.0279716160148,-86.8925704956,0.349065840244,0.0269896276295,0.00605128426105,0.222073152661,-0.00116572668776,-0.00116572668776,-0.00143730489071,-0.0125368805602,-74.9399261475,-74.9399261475,0.485635697842,87.8452377319,2032,2064,2109,2025,2025,2695,3312,3339,3142,3287,3003,2959,3044,3073,3156,2916,3380,3373,3214,3277,2928,3272,3301,3022,0.009974042,2.319980652,2.313977744,0.401425719261,4500.0,0.37605547905,-0.00598826585338,-0.0253702495247,114.166122437,0.0,6000.0,0.00606655189767,-0.00175713805947,0.0,0.0,0.349065840244,0.0192735753953,-0.0137052889913,0.298925429583,-0.033026535064,-0.033026535064,0.000671232468449,0.0230517759919,153.510925293,153.510925293,-53.364780426,-1.03642821312,2041,2039,2597,2037,2037,2970,3421,3423,3255,3361,3094,2997,3124,3098,3211,2778,3386,3399,3232,3355,3121,3336,3380,3184
1508409698158901528,233,1508409698158612288,plot_matl,0.25,-3000.0,0.222125172615,-0.0136580653489,-0.0278748236597,-86.9754638672,0.349065840244,0.0269896276295,0.00605128426105,0.222073152661,-0.00116572668776,-0.00116572668776,-0.00143730489071,-0.0125368805602,-74.9399261475,-74.9399261475,0.485635697842,87.8452377319,2027,2060,2109,2025,2025,2693,3312,3337,3143,3289,3000,2958,3044,3071,3156,2916,3380,3373,3214,3277,2928,3272,3301,3022,0.00999663,2.329975996,2.32921479,0.401425719261,4500.0,0.37605547905,-0.00638778647408,-0.0253702495247,114.166122437,0.0,6000.0,0.00608660513535,-0.0021621347405,0.0,0.0,0.349065840244,0.0192735753953,-0.0137052889913,0.298925429583,-0.033026535064,-0.033026535064,0.000671232468449,0.0230517759919,153.510925293,153.510925293,-53.364780426,-1.03642821312,2030,2030,2597,2037,2037,2968,3421,3424,3255,3361,3093,2997,3125,3098,3211,2778,3386,3399,3232,3355,3121,3336,3380,3184
1508409698168760743,234,1508409698168595891,plot_matl,0.25,-3000.0,0.222125172615,-0.0136580653489,-0.0278748236597,-86.9754638672,0.349065840244,0.0283391084522,0.0060641891323,0.222014173865,0.0122966878116,0.0122966878116,-0.00170668854844,-0.011355984956,-74.9386672974,-74.9386672974,0.595425903797,87.6601257324,2027,2060,2109,2025,2025,2693,3312,3337,3143,3289,3000,2958,3044,3071,3156,2916,3380,3373,3214,3277,2928,3272,3301,3022,0.009981678,2.339958873,2.335712652,0.401425719261,4500.0,0.37740495801,0.0185301341116,-0.024020768702,108.093460083,0.0,6000.0,0.00607818644494,-0.00199298514053,0.0,0.0,0.349065840244,0.0216827709228,-0.0137527408078,0.298475503922,-0.00561282364652,-0.00561282364652,0.00161047512665,-0.02961900644,153.51600647,153.51600647,-53.1458816528,-1.11182403564,2030,2030,2597,2037,2037,2968,3421,3424,3255,3361,3093,2997,3125,3098,3211,2778,3386,3399,3232,3355,3121,3336,3380,3184
1508409698178882634,235,1508409698178610842,plot_matl,0.25,-3000.0,0.222018033266,-0.0115552693605,-0.0279819648713,-86.6899261475,0.349065840244,0.0283391084522,0.0060641891323,0.222014173865,0.0122966878116,0.0122966878116,-0.00170668854844,-0.011355984956,-74.9386672974,-74.9386672974,0.595425903797,87.6601257324,2020,2055,2109,2026,2026,2695,3314,3337,3142,3286,3002,2956,3044,3071,3156,2915,3380,3374,3213,3277,2929,3272,3303,3023,0.010016707,2.349974696,2.353926145,0.401425719261,4500.0,0.37740495801,0.0185985863209,-0.024020768702,108.093460083,0.0,6000.0,0.00607182085514,-0.00186500872951,0.0,0.0,0.349065840244,0.0216827709228,-0.0137527408078,0.298475503922,-0.00561282364652,-0.00561282364652,0.00161047512665,-0.02961900644,153.51600647,153.51600647,-53.1458816528,-1.11182403564,2025,2021,2597,2040,2040,2970,3422,3425,3255,3362,3094,2998,3125,3098,3211,2778,3385,3399,3234,3355,3122,3335,3378,3186
1508409698188767605,236,1508409698188617780,plot_matl,0.25,-3000.0,0.222019851208,-0.0115518514067,-0.0279801413417,-86.863571167,0.349065840244,0.0283391084522,0.0060641891323,0.222014173865,0.0122966878116,0.0122966878116,-0.00170668854844,-0.011355984956,-74.9386672974,-74.9386672974,0.595425903797,87.6601257324,2016,2042,2109,2026,2026,2695,3314,3337,3142,3286,3002,2956,3042,3073,3157,2914,3379,3376,3212,3275,2928,3274,3303,3023,0.010004471,2.359980665,2.361055156,0.401425719261,4500.0,0.37605547905,-0.00859430991113,-0.0253702495247,114.166122437,0.0,6000.0,0.00607816176489,-0.00199574558064,0.0,0.0,0.349065840244,0.0216827709228,-0.0137527408078,0.298475503922,-0.00561282364652,-0.00561282364652,0.00161047512665,-0.02961900644,153.51600647,153.51600647,-53.1458816528,-1.11182403564,2017,2013,2597,2040,2040,2970,3422,3425,3255,3362,3094,2998,3126,3098,3213,2777,3386,3400,3233,3354,3122,3335,3378,3186
1508409698198723684,237,1508409698198597299,plot_matl,0.25,-3000.0,0.222017675638,-0.0114955361933,-0.0279823224992,-86.6223907471,0.349065840244,0.0283391084522,0.0060641891323,0.222014173865,0.0122966878116,0.0122966878116,-0.00170668854844,-0.011355984956,-74.9386672974,-74.9386672974,0.595425903797,87.6601257324,2023,2042,2109,2025,2025,2695,3313,3338,3142,3288,3002,2956,3042,3073,3157,2914,3379,3376,3212,3275,2928,3274,3302,3024,0.009979208,2.369960082,2.365072296,0.401425719261,4500.0,0.37605547905,-0.00846401974559,-0.0253702495247,114.166122437,0.0,6000.0,0.00606053881347,-0.00163676252123,0.0,0.0,0.349065840244,0.0216827709228,-0.0137527408078,0.298475503922,-0.00561282364652,-0.00561282364652,0.00161047512665,-0.02961900644,153.51600647,153.51600647,-53.1458816528,-1.11182403564,2019,2012,2598,2042,2042,2969,3423,3422,3257,3360,3094,2998,3126,3098,3213,2777,3386,3400,3233,3354,3122,3335,3381,3184
1508409698208997300,238,1508409698208635224,plot_matl,0.25,-3000.0,0.221984833479,-0.0487254783511,-0.0280151702464,-95.760017395,0.349065840244,0.0269896276295,0.00608155317605,0.222066029906,-0.00317215267569,-0.00317215267569,-0.00206513819285,0.0254559870809,-74.7622909546,-74.7622909546,0.474127054214,87.9856948853,2019,2051,2109,2025,2025,2695,3313,3338,3142,3288,3002,2956,3045,3072,3158,2915,3381,3375,3215,3277,2928,3274,3302,3024,0.010039375,2.379998782,2.38937125,0.401425719261,4500.0,0.37605547905,-0.00797094404697,-0.0253702495247,114.166122437,0.0,6000.0,0.00604596594349,-0.00133990193717,0.0,0.0,0.349065840244,0.0216827709228,-0.0138039374724,0.298554867506,-0.00496363593265,-0.00496363593265,0.00266525126062,0.0306448042393,153.643753052,153.643753052,-53.0934829712,-0.70859837532,2024,2021,2598,2042,2042,2969,3423,3422,3257,3360,3093,2997,3126,3098,3211,2778,3386,3400,3233,3353,3122,3335,3381,3184
1508409698218960485,239,1508409698218636797,plot_matl,0.25,-3000.0,0.222090929747,0.0249233413488,-0.0279090628028,-77.9998626709,0.349065840244,0.0269896276295,0.00608155317605,0.222066029906,-0.00317215267569,-0.00317215267569,-0.00206513819285,0.0254559870809,-74.7622909546,-74.7622909546,0.474127054214,87.9856948853,2011,2055,2110,2025,2025,2695,3312,3337,3142,3288,3002,2956,3045,3072,3158,2915,3381,3375,3215,3277,2929,3272,3303,3023,0.010001041,2.39000036,2.390248799,0.401425719261,4500.0,0.37605547905,-0.00754847284406,-0.0253702495247,114.166122437,0.0,6000.0,0.00605923868716,-0.00160218949895,0.0,0.0,0.349065840244,0.0216827709228,-0.0138039374724,0.298554867506,-0.00496363593265,-0.00496363593265,0.00266525126062,0.0306448042393,153.643753052,153.643753052,-53.0934829712,-0.70859837532,2016,2023,2597,2038,2038,2971,3422,3423,3257,3360,3093,2997,3126,3098,3211,2778,3386,3400,3233,3353,3122,3335,3377,3184
1508409698228959963,240,1508409698228645861,plot_matl,0.25,-3000.0,0.222043290734,-0.0119985975325,-0.0279567074031,-86.7417831421,0.349065840244,0.0269896276295,0.00608155317605,0.222066029906,-0.00317215267569,-0.00317215267569,-0.00206513819285,0.0254559870809,-74.7622909546,-74.7622909546,0.474127054214,87.9856948853,2023,2064,2110,2025,2025,2695,3312,3337,3141,3287,3001,2957,3044,3070,3156,2916,3380,3375,3215,3277,2929,3272,3303,3023,0.010009987,2.400010041,2.40239688,0.401425719261,4500.0,0.37740495801,0.0195845328271,-0.024020768702,108.093460083,0.0,6000.0,0.00604496896267,-0.00131296983454,0.0,0.0,0.349065840244,0.0216827709228,-0.0138039374724,0.298554867506,-0.00496363593265,-0.00496363593265,0.00266525126062,0.0306448042393,153.643753052,153.643753052,-53.0934829712,-0.70859837532,2028,2031,2597,2038,2038,2971,3422,3423,3257,3362,3094,2997,3125,3097,3210,2779,3387,3401,3233,3353,3122,3335,3377,3184
1508409698239049931,241,1508409698238617846,plot_matl,0.25,-3000.0,0.22210624814,-0.0131858512759,-0.027893755585,-87.0026092529,0.349065840244,0.0269896276295,0.00608155317605,0.222066029906,-0.00317215267569,-0.00317215267569,-0.00206513819285,0.0254559870809,-74.7622909546,-74.7622909546,0.474127054214,87.9856948853,2028,2058,2109,2025,2025,2694,3312,3337,3141,3287,3001,2957,3044,3070,3156,2916,3380,3375,3212,3276,2931,3270,3302,3022,0.009970773,2.409981646,2.402956293,0.401425719261,4500.0,0.37605547905,-0.0062833763659,-0.0253702495247,114.166122437,0.0,6000.0,0.00604477478191,-0.00132594793104,0.0,0.0,0.349065840244,0.0216827709228,-0.0138039374724,0.298554867506,-0.00496363593265,-0.00496363593265,0.00266525126062,0.0306448042393,153.643753052,153.643753052,-53.0934829712,-0.70859837532,2030,2031,2597,2043,2043,2971,3422,3423,3257,3362,3094,2997,3125,3097,3210,2779,3387,3401,3233,3354,3123,3337,3379,3184
1508409698249000954,242,1508409698248632504,plot_matl,0.25,-3000.0,0.222226426005,0.022280447185,-0.0277735665441,-78.1518249512,0.349065840244,0.0269896276295,0.00606723595411,0.222025513649,-0.00458473945037,-0.00458473945037,-0.00177318335045,-0.0116673838347,-74.6424484253,-74.6424484253,0.298233360052,87.9106445312,2021,2054,2109,2025,2025,2694,3313,3339,3143,3285,3003,2956,3045,3071,3156,2917,3380,3375,3212,3276,2931,3270,3302,3022,0.010014507,2.419996353,2.423510694,0.401425719261,4500.0,0.37605547905,-0.00603704107925,-0.0253702495247,114.166122437,0.0,6000.0,0.00604467932135,-0.00132597913034,0.0,0.0,0.349065840244,0.0216827709228,-0.0138093736023,0.29845225811,-0.00575508829206,-0.00575508829206,0.00277164089493,-0.0292142592371,153.694244385,153.694244385,-53.4190139771,-0.825503408909,2029,2030,2597,2043,2043,2971,3421,3423,3257,3360,3091,2998,3126,3098,3211,2779,3387,3401,3233,3354,3123,3337,3379,3184
1508409698258873151,243,1508409698258612552,plot_matl,0.25,-3000.0,0.222286939621,-0.0168881192803,-0.0277130585164,-87.4821624756,0.349065840244,0.0269896276295,0.00606723595411,0.222025513649,-0.00458473945037,-0.00458473945037,-0.00177318335045,-0.0116673838347,-74.6424484253,-74.6424484253,0.298233360052,87.9106445312,2025,2071,2109,2026,2026,2694,3313,3339,3143,3285,3003,2956,3045,3071,3156,2917,3381,3377,3213,3278,2929,3272,3303,3025,0.009979397,2.429976366,2.424993471,0.401425719261,4500.0,0.37605547905,-0.00494191097096,-0.0253702495247,114.166122437,0.0,6000.0,0.00605718418956,-0.00155941862613,0.0,0.0,0.349065840244,0.0216827709228,-0.0138093736023,0.29845225811,-0.00575508829206,-0.00575508829206,0.00277164089493,-0.0292142592371,153.694244385,153.694244385,-53.4190139771,-0.825503408909,2027,2038,2597,2039,2039,2971,3421,3423,3257,3360,3091,2998,3126,3098,3211,2779,3388,3400,3233,3354,3123,3335,3378,3184
1508409698269042836,244,1508409698268632406,plot_matl,0.25,-3000.0,0.222206443548,-0.0152235869318,-0.0277935639024,-86.7250061035,0.349065840244,0.0269896276295,0.00606723595411,0.222025513649,-0.00458473945037,-0.00458473945037,-0.00177318335045,-0.0116673838347,-74.6424484253,-74.6424484253,0.298233360052,87.9106445312,2014,2066,2109,2026,2026,2695,3313,3336,3142,3288,3002,2958,3044,3073,3156,2917,3381,3377,3213,3278,2929,3272,3303,3025,0.010018867,2.439995979,2.444603548,0.401425719261,4500.0,0.37605547905,-0.00401715748012,-0.0253702495247,114.166122437,0.0,6000.0,0.00606849836186,0.0116335870698,0.0,0.0,0.349065840244,0.0216827709228,-0.0138093736023,0.29845225811,-0.00575508829206,-0.00575508829206,0.00277164089493,-0.0292142592371,153.694244385,153.694244385,-53.4190139771,-0.825503408909,2031,2038,2597,2039,2039,2971,3423,3425,3256,3361,3093,2998,3126,3098,3211,2779,3388,3400,3233,3354,3123,3335,3378,3184
1508409698279139966,245,1508409698278668126,plot_matl,0.25,-3000.0,0.222306907177,0.0206671152264,-0.0276930853724,-78.2478637695,0.349065840244,0.0269896276295,0.00606723595411,0.222025513649,-0.00458473945037,-0.00458473945037,-0.00177318335045,-0.0116673838347,-74.6424484253,-74.6424484253,0.298233360052,87.9106445312,2000,2041,2109,2026,2026,2695,3313,3336,3142,3288,3002,2958,3044,3073,3156,2916,3381,3376,3213,3276,2929,3273,3303,3024,0.010036527,2.450032136,2.458949115,0.401425719261,4500.0,0.37740495801,0.022486416623,-0.024020768702,108.093460083,0.0,6000.0,0.00607594707981,-0.00194363552146,0.0,0.0,0.349065840244,0.0216827709228,-0.0138093736023,0.29845225811,-0.00575508829206,-0.00575508829206,0.00277164089493,-0.0292142592371,153.694244385,153.694244385,-53.4190139771,-0.825503408909,2019,2021,2597,2039,2039,2971,3423,3425,3256,3361,3093,2998,3126,3098,3211,2778,3388,3401,3233,3354,3123,3335,3377,3184
