%time,field.header.seq,field.header.stamp,field.header.frame_id,field.FFJ4_set_point,field.FFJ4_position_gain,field.FFJ4_process_value,field.FFJ4_process_value_dot,field.FFJ4_error,field.FFJ4_command,field.FFJ1,field.FFJ2,field.FFJ3,field.FFJ4,field.FFJ1_dot,field.FFJ2_dot,field.FFJ3_dot,field.FFJ4_dot,field.FFJ1_tao,field.FFJ2_tao,field.FFJ3_tao,field.FFJ4_tao,field.pac0,field.pac1,field.pdc0,field.tac0,field.tdc0,field.el0,field.el1,field.el2,field.el3,field.el4,field.el5,field.el6,field.el7,field.el8,field.el9,field.el10,field.el11,field.el12,field.el13,field.el14,field.el15,field.el16,field.el17,field.el18,field.dt,field.time,field.test_time2,field.FFJ0_set_point,field.FFJ0_position_gain,field.FFJ0_process_value,field.FFJ0_process_value_dot,field.FFJ0_error,field.FFJ0_command,field.FFJ3_set_point,field.FFJ3_position_gain,field.FFJ3_process_value,field.FFJ3_process_value_dot,field.FFJ3_error,field.FFJ3_command,field.MFJ1,field.MFJ2,field.MFJ3,field.MFJ4,field.MFJ1_dot,field.MFJ2_dot,field.MFJ3_dot,field.MFJ4_dot,field.MFJ1_tao,field.MFJ2_tao,field.MFJ3_tao,field.MFJ4_tao,field.Mpac0,field.Mpac1,field.Mpdc0,field.Mtac0,field.Mtdc0,field.Mel0,field.Mel1,field.Mel2,field.Mel3,field.Mel4,field.Mel5,field.Mel6,field.Mel7,field.Mel8,field.Mel9,field.Mel10,field.Mel11,field.Mel12,field.Mel13,field.Mel14,field.Mel15,field.Mel16,field.Mel17,field.Mel18
1508410368671286275,146,1508410368670593850,plot_matl,-0.300000011921,-2000.0,-0.266718059778,0.00374858034775,0.0332819335163,67.4445037842,0.349065840244,0.00944636948407,-0.00200102571398,-0.266720205545,-0.0149796530604,-0.0149796530604,0.000157227710588,-0.00219124415889,-0.487442135811,-0.487442135811,-0.410065978765,-95.7851333618,2011,2051,2094,2029,2029,2751,3333,3355,3163,3303,3022,2983,3067,3084,3172,2890,3378,3372,3200,3277,2923,3283,3307,3027,0.010082266,1.460077759,1.472010836,0.349065840244,4500.0,0.359861701727,-0.00321573996916,0.0107958512381,-48.5813293457,0.0,6000.0,-0.00199964269996,0.000128724728711,0.0,0.0,0.349065840244,0.0265011657029,-0.00422107568011,0.32129496336,0.00182295229752,0.00182295229752,0.00894929748029,0.00217739958316,156.010437012,156.010437012,-0.787086725235,106.668167114,2019,2026,2541,2039,2039,2938,3429,3429,3250,3369,3096,3068,3168,3160,3249,2866,3415,3424,3259,3374,3147,3360,3393,3195
1508410368680923832,147,1508410368680533123,plot_matl,-0.300000011921,-2000.0,-0.266728520393,0.00395166268572,0.0332714915276,67.4692764282,0.349065840244,0.00944636948407,-0.00200102571398,-0.266720205545,-0.0149796530604,-0.0149796530604,0.000157227710588,-0.00219124415889,-0.487442135811,-0.487442135811,-0.410065978765,-95.7851333618,2015,2058,2094,2029,2029,2751,3333,3355,3163,3302,3019,2980,3067,3084,3170,2888,3377,3373,3201,3277,2923,3283,3307,3027,0.009937487,1.470016673,1.460810589,0.349065840244,4500.0,0.359861701727,-0.00494129024446,0.0107958512381,-48.5813293457,0.0,6000.0,-0.00199758657254,8.63543027663e-05,0.0,0.0,0.349065840244,0.0265011657029,-0.00422107568011,0.32129496336,0.00182295229752,0.00182295229752,0.00894929748029,0.00217739958316,156.010437012,156.010437012,-0.787086725235,106.668167114,2020,2030,2541,2039,2039,2938,3429,3429,3250,3369,3096,3064,3165,3159,3246,2864,3415,3422,3256,3374,3147,3360,3393,3195
1508410368690971048,148,1508410368690540317,plot_matl,-0.300000011921,-2000.0,-0.266724854708,0.00388425868005,0.0332751311362,67.4696884155,0.349065840244,0.00944636948407,-0.00200102571398,-0.266720205545,-0.0149796530604,-0.0149796530604,0.000157227710588,-0.00219124415889,-0.487442135811,-0.487442135811,-0.410065978765,-95.7851333618,2023,2057,2092,2030,2030,2750,3335,3355,3163,3302,3019,2980,3067,3084,3170,2888,3377,3373,3201,3275,2920,3283,3308,3030,0.010008176,1.480024456,1.481210048,0.349065840244,4500.0,0.359861701727,-0.0050494056195,0.0107958512381,-48.5813293457,0.0,6000.0,-0.00197206158191,-0.000425824458944,0.0,0.0,0.349065840244,0.0265011657029,-0.00422107568011,0.32129496336,0.00182295229752,0.00182295229752,0.00894929748029,0.00217739958316,156.010437012,156.010437012,-0.787086725235,106.668167114,2023,2023,2541,2037,2037,2937,3429,3429,3250,3369,3096,3064,3165,3159,3246,2864,3415,3422,3256,3373,3144,3359,3393,3195
1508410368701197701,149,1508410368700585764,plot_matl,-0.300000011921,-2000.0,-0.266722887754,0.00384132075123,0.0332771129906,67.49974823,0.349065840244,0.0107958512381,-0.00197206158191,-0.266724854708,-0.00252470280975,-0.00252470280975,-0.000425824458944,0.00388425868005,-0.241503894329,-0.241503894329,-0.544909536839,-95.4645843506,2019,2049,2092,2030,2030,2750,3335,3351,3163,3298,3020,2979,3066,3082,3170,2889,3378,3373,3201,3275,2920,3283,3308,3030,0.010045838,1.490069652,1.496829862,0.349065840244,4500.0,0.359861701727,-0.00568683631718,0.0107958512381,-48.5813293457,0.0,6000.0,-0.00197593914345,-0.000348432891769,0.0,0.0,0.349065840244,0.0265011657029,-0.00422245031223,0.321186035872,0.00263700354844,0.00263700354844,0.00873996969312,0.00553090404719,155.758636475,155.758636475,-1.14816653728,106.959022522,2025,2019,2541,2037,2037,2937,3429,3428,3247,3368,3093,3064,3166,3158,3248,2865,3414,3422,3256,3373,3144,3359,3393,3195
1508410368710926695,150,1508410368710544354,plot_matl,-0.300000011921,-2000.0,-0.266720443964,0.00379603519104,0.0332795530558,67.4705581665,0.349065840244,0.0107958512381,-0.00197206158191,-0.266724854708,-0.00252470280975,-0.00252470280975,-0.000425824458944,0.00388425868005,-0.241503894329,-0.241503894329,-0.544909536839,-95.4645843506,2020,2060,2092,2028,2028,2750,3335,3351,3163,3298,3020,2979,3066,3082,3170,2889,3378,3373,3202,3276,2920,3281,3310,3029,0.009957512,1.500028543,1.4936268,0.349065840244,4500.0,0.359861701727,-0.00514238933101,0.0107958512381,-48.5813293457,0.0,6000.0,-0.00197910610586,-0.000285221089143,0.0,0.0,0.349065840244,0.0265011657029,-0.00422245031223,0.321186035872,0.00263700354844,0.00263700354844,0.00873996969312,0.00553090404719,155.758636475,155.758636475,-1.14816653728,106.959022522,2017,2021,2540,2038,2038,2937,3429,3428,3247,3368,3093,3064,3166,3158,3248,2865,3414,3420,3256,3371,3144,3357,3391,3197
1508410368720964996,151,1508410368720539883,plot_matl,-0.300000011921,-2000.0,-0.266724765301,0.00387953803875,0.0332752466202,67.4168777466,0.349065840244,0.0107958512381,-0.00197206158191,-0.266724854708,-0.00252470280975,-0.00252470280975,-0.000425824458944,0.00388425868005,-0.241503894329,-0.241503894329,-0.544909536839,-95.4645843506,2019,2058,2092,2028,2028,2750,3334,3353,3162,3298,3020,2979,3066,3083,3169,2889,3378,3373,3202,3276,2920,3281,3310,3029,0.009994176,1.510023741,1.509120576,0.349065840244,4500.0,0.361211180687,0.0215266868472,0.0121453320608,-54.6539955139,0.0,6000.0,-0.00198168936186,-0.000233659666264,0.0,0.0,0.349065840244,0.0265011657029,-0.00422245031223,0.321186035872,0.00263700354844,0.00263700354844,0.00873996969312,0.00553090404719,155.758636475,155.758636475,-1.14816653728,106.959022522,2015,2021,2540,2038,2038,2938,3429,3429,3249,3369,3096,3063,3164,3160,3245,2865,3414,3420,3256,3371,3144,3357,3391,3197
1508410368730973254,152,1508410368730548611,plot_matl,-0.300000011921,-2000.0,-0.266727030277,0.00392997963354,0.0332729667425,67.4870529175,0.349065840244,0.0107958512381,-0.00197206158191,-0.266724854708,-0.00252470280975,-0.00252470280975,-0.000425824458944,0.00388425868005,-0.241503894329,-0.241503894329,-0.544909536839,-95.4645843506,2010,2053,2092,2028,2028,2750,3334,3353,3162,3298,3020,2979,3066,3083,3169,2889,3376,3372,3200,3273,2919,3283,3306,3028,0.010008312,1.520032259,1.521263424,0.349065840244,4500.0,0.359861701727,-0.00672042742372,0.0107958512381,-48.5813293457,0.0,6000.0,-0.00197151303291,-0.000435293157352,0.0,0.0,0.349065840244,0.0265011657029,-0.00422245031223,0.321186035872,0.00263700354844,0.00263700354844,0.00873996969312,0.00553090404719,155.758636475,155.758636475,-1.14816653728,106.959022522,2024,2024,2540,2038,2038,2938,3429,3429,3249,3369,3096,3063,3164,3160,3245,2864,3415,3422,3257,3374,3142,3359,3392,3195
1508410368740956870,153,1508410368740537174,plot_matl,-0.300000011921,-2000.0,-0.266724854708,-0.00209256494418,0.0332751460373,66.0548171997,0.349065840244,0.0107958512381,-0.00197151303291,-0.266727030277,-0.00336021371186,-0.00336021371186,-0.000435293157352,0.00392997963354,0.146400362253,0.146400362253,-0.438110083342,-95.349319458,2023,2039,2092,2029,2029,2751,3333,3352,3163,3299,3018,2981,3065,3083,3169,2889,3376,3372,3200,3273,2919,3283,3306,3028,0.009988162,1.530020812,1.528188786,0.349065840244,4500.0,0.359861701727,-0.00600293837488,0.0107958512381,-48.5813293457,0.0,6000.0,-0.00197548116557,-0.00035635905806,0.0,0.0,0.349065840244,0.0265011657029,-0.00419299770147,0.320884555578,0.00282507296652,0.00282507296652,-0.00730206398293,-0.0496112219989,155.968765259,155.968765259,-0.812205255032,106.71685791,2029,2018,2540,2036,2036,2937,3429,3431,3247,3367,3095,3065,3166,3160,3245,2864,3415,3422,3257,3374,3142,3359,3392,3195
1508410368750902496,154,1508410368750532432,plot_matl,-0.300000011921,-2000.0,-0.266722291708,-0.00215030787513,0.0332777015865,66.0330734253,0.349065840244,0.0107958512381,-0.00197151303291,-0.266727030277,-0.00336021371186,-0.00336021371186,-0.000435293157352,0.00392997963354,0.146400362253,0.146400362253,-0.438110083342,-95.349319458,2026,2047,2092,2029,2029,2751,3333,3352,3163,3299,3018,2981,3065,3086,3168,2890,3375,3370,3202,3273,2919,3279,3310,3028,0.009996295,1.540016692,1.53942943,0.349065840244,4500.0,0.361211180687,0.0208700820804,0.0121453320608,-54.6539955139,0.0,6000.0,-0.00197874917649,-0.000291353440844,0.0,0.0,0.349065840244,0.0265011657029,-0.00419299770147,0.320884555578,0.00282507296652,0.00282507296652,-0.00730206398293,-0.0496112219989,155.968765259,155.968765259,-0.812205255032,106.71685791,2028,2020,2540,2036,2036,2937,3429,3431,3247,3367,3095,3065,3166,3159,3247,2865,3415,3420,3257,3371,3142,3358,3391,3195
1508410368760950265,155,1508410368760548297,plot_matl,-0.300000011921,-2000.0,-0.266722291708,-0.00215030787513,0.0332777015865,66.0330734253,0.349065840244,0.0107958512381,-0.00197151303291,-0.266727030277,-0.00336021371186,-0.00336021371186,-0.000435293157352,0.00392997963354,0.146400362253,0.146400362253,-0.438110083342,-95.349319458,2014,2035,2093,2026,2026,2752,3335,3351,3162,3301,3021,2981,3065,3086,3168,2890,3375,3370,3202,3273,2919,3279,3310,3028,0.010014216,1.550031945,1.55220348,0.349065840244,4500.0,0.361211180687,0.0208700820804,0.0121453320608,-54.6539955139,0.0,6000.0,-0.00198139483109,-0.000238731241552,0.0,0.0,0.349065840244,0.0265011657029,-0.00419299770147,0.320884555578,0.00282507296652,0.00282507296652,-0.00730206398293,-0.0496112219989,155.968765259,155.968765259,-0.812205255032,106.71685791,2029,2021,2540,2036,2036,2938,3429,3429,3248,3366,3094,3065,3166,3159,3247,2865,3415,3420,3257,3371,3142,3358,3391,3195
1508410368770845500,156,1508410368770526830,plot_matl,-0.300000011921,-2000.0,-0.266722291708,-0.00215030787513,0.0332777015865,66.0330734253,0.349065840244,0.0107958512381,-0.00197151303291,-0.266727030277,-0.00336021371186,-0.00336021371186,-0.000435293157352,0.00392997963354,0.146400362253,0.146400362253,-0.438110083342,-95.349319458,2014,2035,2093,2026,2026,2752,3335,3351,3162,3301,3021,2981,3065,3086,3168,2890,3375,3370,3202,3273,2919,3279,3310,3028,0.009977814,1.560010284,1.556538984,0.349065840244,4500.0,0.361211180687,0.0208700820804,0.0121453320608,-54.6539955139,0.0,6000.0,-0.00198139483109,-0.000238731241552,0.0,0.0,0.349065840244,0.0265011657029,-0.00419299770147,0.320884555578,0.00282507296652,0.00282507296652,-0.00730206398293,-0.0496112219989,155.968765259,155.968765259,-0.812205255032,106.71685791,2029,2021,2540,2036,2036,2938,3429,3429,3248,3366,3094,3065,3166,3159,3247,2865,3415,3420,3257,3371,3142,3358,3391,3195
1508410368780945185,157,1508410368780518973,plot_matl,-0.300000011921,-2000.0,-0.266751259565,0.00441399915144,0.0332487300038,67.5560836792,0.349065840244,0.0107958512381,-0.00198357272893,-0.266748070717,-0.00275183538906,-0.00275183538906,-0.000195409113076,-0.00162638013717,0.433787167072,0.433787167072,-0.843864440918,-95.5668182373,2025,2048,2093,2025,2025,2751,3333,3353,3163,3301,3021,2981,3067,3085,3169,2888,3377,3371,3203,3274,2920,3281,3305,3028,0.009993445,1.570002988,1.568970865,0.349065840244,4500.0,0.358512222767,-0.0327074639499,0.00944636948407,-42.5086631775,0.0,6000.0,-0.00198535015807,-0.000160051582498,0.0,0.0,0.349065840244,0.0240919683129,-0.004232771229,0.320828914642,-0.0195423290133,-0.0195423290133,-0.00653839157894,0.0134403584525,155.977142334,155.977142334,-0.0642046332359,106.88924408,2035,2032,2541,2033,2033,2938,3431,3428,3247,3366,3094,3064,3164,3159,3248,2865,3415,3421,3257,3372,3143,3358,3390,3195
1508410368790913005,158,1508410368790542380,plot_matl,-0.300000011921,-2000.0,-0.266754716635,-0.00149276247248,0.0332452878356,66.117225647,0.349065840244,0.0107958512381,-0.00198357272893,-0.266748070717,-0.00275183538906,-0.00275183538906,-0.000195409113076,-0.00162638013717,0.433787167072,0.433787167072,-0.843864440918,-95.5668182373,2030,2050,2093,2025,2025,2751,3333,3353,3163,3300,3021,2979,3066,3082,3169,2887,3376,3372,3201,3274,2920,3281,3305,3028,0.010022294,1.580026134,1.583522452,0.349065840244,4500.0,0.362560659647,0.0484903864563,0.0134948138148,-60.7266616821,0.0,6000.0,-0.00197457522154,-0.000388660962926,0.0,0.0,0.349065840244,0.0240919683129,-0.004232771229,0.320828914642,-0.0195423290133,-0.0195423290133,-0.00653839157894,0.0134403584525,155.977142334,155.977142334,-0.0642046332359,106.88924408,2029,2020,2541,2033,2033,2938,3431,3428,3247,3367,3094,3063,3166,3157,3245,2864,3414,3422,3257,3372,3143,3358,3390,3195
1508410368800901079,159,1508410368800538846,plot_matl,-0.300000011921,-2000.0,-0.266757547855,-0.0014360860223,0.0332424640656,66.1508560181,0.349065840244,0.0107958512381,-0.00198357272893,-0.266748070717,-0.00275183538906,-0.00275183538906,-0.000195409113076,-0.00162638013717,0.433787167072,0.433787167072,-0.843864440918,-95.5668182373,2016,2048,2092,2025,2025,2751,3333,3353,3163,3300,3021,2979,3066,3082,3169,2887,3376,3372,3201,3273,2921,3282,3308,3030,0.009996471,1.590022865,1.589438889,0.349065840244,4500.0,0.361211180687,0.0202794224024,0.0121453320608,-54.6539955139,0.0,6000.0,-0.0019655295182,-0.000571655924432,0.0,0.0,0.349065840244,0.0240919683129,-0.004232771229,0.320828914642,-0.0195423290133,-0.0195423290133,-0.00653839157894,0.0134403584525,155.977142334,155.977142334,-0.0642046332359,106.88924408,2023,2021,2541,2033,2033,2937,3429,3428,3247,3367,3094,3063,3166,3157,3245,2864,3414,3422,3257,3373,3142,3358,3391,3196
1508410368810839201,160,1508410368810523916,plot_matl,-0.300000011921,-2000.0,-0.266765475273,-0.00127768155653,0.0332345142961,66.1776885986,0.349065840244,0.0107958512381,-0.00198357272893,-0.266748070717,-0.00275183538906,-0.00275183538906,-0.000195409113076,-0.00162638013717,0.433787167072,0.433787167072,-0.843864440918,-95.5668182373,2016,2055,2092,2025,2025,2751,3333,3351,3162,3301,3019,2979,3066,3083,3170,2888,3376,3372,3201,3273,2921,3282,3308,3030,0.009983697,1.600007384,1.59739152,0.349065840244,4500.0,0.359861701727,-0.00614092033356,0.0107958512381,-48.5813293457,0.0,6000.0,-0.0019705768209,-0.000468117214041,0.0,0.0,0.349065840244,0.0240919683129,-0.004232771229,0.320828914642,-0.0195423290133,-0.0195423290133,-0.00653839157894,0.0134403584525,155.977142334,155.977142334,-0.0642046332359,106.88924408,2019,2023,2541,2033,2033,2937,3429,3428,3246,3366,3095,3064,3165,3159,3246,2864,3414,3422,3257,3373,3142,3358,3391,3196
1508410368820934210,161,1508410368820519480,plot_matl,-0.300000011921,-2000.0,-0.266771256924,-0.00115962245036,0.0332287363708,66.1792907715,0.349065840244,0.0107958512381,-0.0019705768209,-0.266765475273,-0.00307046016678,-0.00307046016678,-0.000468117214041,-0.00127768155653,0.442905783653,0.442905783653,-1.02686345577,-96.1657104492,2023,2066,2093,2025,2025,2751,3333,3351,3162,3301,3019,2979,3066,3083,3170,2888,3376,3373,3198,3275,2919,3280,3306,3031,0.00999626,1.610003539,1.60939786,0.349065840244,4500.0,0.359861701727,-0.00644574547186,0.0107958512381,-48.5813293457,0.0,6000.0,-0.00196178280748,-0.000644860090688,0.0,0.0,0.349065840244,0.0289103612304,-0.00426402548328,0.32104241848,0.0286184363067,0.0286184363067,-0.00592678086832,0.00930357351899,156.065948486,156.065948486,0.0297467689961,107.074951172,2021,2017,2540,2033,2033,2937,3429,3428,3246,3366,3095,3064,3165,3159,3246,2864,3414,3421,3257,3373,3143,3358,3390,3193
1508410368831026278,162,1508410368830549362,plot_matl,-0.300000011921,-2000.0,-0.266759604216,0.00458326144144,0.0332404002547,67.5728302002,0.349065840244,0.0107958512381,-0.0019705768209,-0.266765475273,-0.00307046016678,-0.00307046016678,-0.000468117214041,-0.00127768155653,0.442905783653,0.442905783653,-1.02686345577,-96.1657104492,2031,2048,2093,2025,2025,2751,3334,3350,3163,3298,3019,2981,3066,3084,3170,2888,3376,3373,3198,3275,2919,3280,3306,3031,0.010030413,1.620033937,1.624926906,0.349065840244,4500.0,0.359861701727,-0.00527174724266,0.0107958512381,-48.5813293457,0.0,6000.0,-0.0019675407093,-0.000527408323251,0.0,0.0,0.349065840244,0.0289103612304,-0.00426402548328,0.32104241848,0.0286184363067,0.0286184363067,-0.00592678086832,0.00930357351899,156.065948486,156.065948486,0.0297467689961,107.074951172,2025,2017,2540,2033,2033,2937,3429,3430,3249,3367,3097,3062,3166,3156,3245,2864,3414,3421,3257,3373,3143,3358,3390,3193
1508410368840950284,163,1508410368840549426,plot_matl,-0.300000011921,-2000.0,-0.266760259867,0.00461009051651,0.0332397446036,67.5847854614,0.349065840244,0.0107958512381,-0.0019705768209,-0.266765475273,-0.00307046016678,-0.00307046016678,-0.000468117214041,-0.00127768155653,0.442905783653,0.442905783653,-1.02686345577,-96.1657104492,2013,2032,2093,2025,2025,2751,3334,3350,3163,3298,3019,2981,3066,3084,3170,2888,3374,3373,3202,3276,2921,3281,3307,3028,0.009997944,1.630033154,1.629664872,0.349065840244,4500.0,0.359861701727,-0.00527174724266,0.0107958512381,-48.5813293457,0.0,6000.0,-0.00197221897542,-0.000431978463894,0.0,0.0,0.349065840244,0.0289103612304,-0.00426402548328,0.32104241848,0.0286184363067,0.0286184363067,-0.00592678086832,0.00930357351899,156.065948486,156.065948486,0.0297467689961,107.074951172,2029,2027,2540,2033,2033,2937,3429,3430,3249,3367,3097,3062,3166,3156,3245,2865,3414,3422,3256,3370,3142,3359,3393,3197
1508410368850947713,164,1508410368850536521,plot_matl,-0.300000011921,-2000.0,-0.266762197018,0.00464183697477,0.0332377925515,67.492805481,0.349065840244,0.0107958512381,-0.0019705768209,-0.266765475273,-0.00307046016678,-0.00307046016678,-0.000468117214041,-0.00127768155653,0.442905783653,0.442905783653,-1.02686345577,-96.1657104492,2029,2068,2093,2024,2024,2749,3333,3354,3162,3299,3018,2978,3065,3084,3170,2888,3374,3373,3202,3276,2921,3281,3307,3028,0.009988278,1.64002091,1.638077592,0.349065840244,4500.0,0.359861701727,-0.00388888525777,0.0107958512381,-48.5813293457,0.0,6000.0,-0.00197604391724,-0.000353955867467,0.0,0.0,0.349065840244,0.0289103612304,-0.00426402548328,0.32104241848,0.0286184363067,0.0286184363067,-0.00592678086832,0.00930357351899,156.065948486,156.065948486,0.0297467689961,107.074951172,2017,2022,2540,2033,2033,2937,3431,3428,3249,3368,3095,3066,3166,3156,3245,2865,3414,3422,3256,3370,3142,3359,3393,3197
1508410368860670671,165,1508410368860503082,plot_matl,-0.300000011921,-2000.0,-0.266762197018,0.00464183697477,0.0332377925515,67.492805481,0.349065840244,0.0107958512381,-0.00197604391724,-0.266762197018,-0.00194444262888,-0.00194444262888,-0.000353955867467,0.00464183697477,0.00412331009284,0.00412331009284,-0.650056123734,-96.1998062134,2019,2054,2093,2024,2024,2749,3333,3354,3162,3299,3018,2978,3065,3083,3169,2888,3377,3373,3201,3276,2920,3279,3308,3028,0.009964401,1.649986707,1.644126165,0.349065840244,4500.0,0.359861701727,-0.00388888525777,0.0107958512381,-48.5813293457,0.0,6000.0,-0.00196713325568,-0.00053633376956,0.0,0.0,0.349065840244,0.0265011657029,-0.0042326208204,0.320768654346,0.00572138419375,0.00572138419375,-0.00655042752624,0.0147277731448,156.287902832,156.287902832,0.178760141134,107.195594788,2023,2026,2540,2033,2033,2937,3431,3428,3249,3368,3095,3066,3166,3157,3245,2864,3414,3422,3256,3371,3143,3359,3390,3197
1508410368870770372,166,1508410368870500541,plot_matl,-0.300000011921,-2000.0,-0.266750156879,-0.00157708616462,0.0332498326898,66.1104660034,0.349065840244,0.0107958512381,-0.00197604391724,-0.266762197018,-0.00194444262888,-0.00194444262888,-0.000353955867467,0.00464183697477,0.00412331009284,0.00412331009284,-0.650056123734,-96.1998062134,2009,2021,2092,2027,2027,2750,3333,3351,3162,3298,3019,2978,3065,3083,3169,2888,3377,3373,3201,3276,2920,3279,3308,3028,0.009997201,1.659984047,1.659535366,0.349065840244,4500.0,0.359861701727,-0.00644787447527,0.0107958512381,-48.5813293457,0.0,6000.0,-0.00196713325568,-0.00053633376956,0.0,0.0,0.349065840244,0.0265011657029,-0.0042326208204,0.320768654346,0.00572138419375,0.00572138419375,-0.00655042752624,0.0147277731448,156.287902832,156.287902832,0.178760141134,107.195594788,2041,2033,2541,2031,2031,2937,3431,3430,3249,3368,3095,3066,3166,3157,3245,2864,3414,3422,3256,3371,3143,3359,3390,3195
1508410368880639340,167,1508410368880493624,plot_matl,-0.300000011921,-2000.0,-0.266749083996,-0.00758022675291,0.0332509204745,64.6433563232,0.349065840244,0.0107958512381,-0.00197604391724,-0.266762197018,-0.00194444262888,-0.00194444262888,-0.000353955867467,0.00464183697477,0.00412331009284,0.00412331009284,-0.650056123734,-96.1998062134,2035,2049,2092,2027,2027,2750,3333,3351,3162,3298,3019,2981,3067,3084,3170,2888,3376,3371,3201,3276,2920,3279,3308,3028,0.009968288,1.669976995,1.664704096,0.349065840244,4500.0,0.359861701727,-0.0052793007344,0.0107958512381,-48.5813293457,0.0,6000.0,-0.00197578291409,-0.000359695462976,0.0,0.0,0.349065840244,0.0265011657029,-0.0042326208204,0.320768654346,0.00572138419375,0.00572138419375,-0.00655042752624,0.0147277731448,156.287902832,156.287902832,0.178760141134,107.195594788,2028,2021,2541,2031,2031,2937,3431,3430,3249,3368,3095,3064,3165,3157,3246,2865,3414,3420,3256,3373,3144,3359,3390,3195
1508410368890702205,168,1508410368890497190,plot_matl,-0.300000011921,-2000.0,-0.266741544008,0.00422676978633,0.0332584418356,67.599105835,0.349065840244,0.0107958512381,-0.00197604391724,-0.266762197018,-0.00194444262888,-0.00194444262888,-0.000353955867467,0.00464183697477,0.00412331009284,0.00412331009284,-0.650056123734,-96.1998062134,2040,2060,2093,2030,2030,2749,3334,3353,3163,3298,3019,2981,3067,3084,3170,2888,3376,3371,3201,3276,2920,3281,3308,3029,0.010003557,1.679980517,1.680597576,0.349065840244,4500.0,0.359861701727,-0.00526529690251,0.0107958512381,-48.5813293457,0.0,6000.0,-0.00197898689657,-0.000294263591059,0.0,0.0,0.349065840244,0.0265011657029,-0.0042326208204,0.320768654346,0.00572138419375,0.00572138419375,-0.00655042752624,0.0147277731448,156.287902832,156.287902832,0.178760141134,107.195594788,2021,2018,2540,2034,2034,2936,3431,3431,3246,3368,3095,3064,3165,3157,3246,2865,3414,3420,3256,3373,3144,3361,3392,3194
1508410368900612369,169,1508410368900495164,plot_matl,-0.300000011921,-2000.0,-0.26675722003,-0.00143117504194,0.0332427732646,66.14478302,0.349065840244,0.0107958512381,-0.00197898689657,-0.266741544008,-0.00263264845125,-0.00263264845125,-0.000294263591059,0.00422676978633,-0.296497404575,-0.296497404575,-0.368650883436,-96.290435791,1997,2041,2093,2030,2030,2749,3334,3353,3163,3301,3021,2981,3067,3084,3170,2888,3376,3373,3201,3276,2920,3281,3308,3029,0.009997426,1.689978266,1.689564994,0.349065840244,4500.0,0.359861701727,-0.00480363098904,0.0107958512381,-48.5813293457,0.0,6000.0,-0.00198158947751,-0.000241115776589,0.0,0.0,0.349065840244,0.0265011657029,-0.00418604677543,0.320621579885,0.00731592113152,0.00731592113152,0.0078248642385,0.017943199724,155.837097168,155.837097168,-0.354579895735,107.025840759,2025,2032,2540,2034,2034,2936,3431,3431,3246,3368,3097,3065,3164,3157,3246,2864,3414,3422,3258,3373,3144,3361,3392,3194
1508410368910600351,170,1508410368910492668,plot_matl,-0.300000011921,-2000.0,-0.26674875617,-0.00160086818505,0.0332512557507,66.1409454346,0.349065840244,0.0107958512381,-0.00197898689657,-0.266741544008,-0.00263264845125,-0.00263264845125,-0.000294263591059,0.00422676978633,-0.296497404575,-0.296497404575,-0.368650883436,-96.290435791,2018,2050,2093,2031,2031,2751,3335,3353,3163,3301,3021,2981,3067,3084,3170,2888,3376,3373,3201,3274,2920,3282,3311,3029,0.009996601,1.699975416,1.69942217,0.349065840244,4500.0,0.359861701727,-0.00589320855215,0.0107958512381,-48.5813293457,0.0,6000.0,-0.00198373943567,-0.000197211353225,0.0,0.0,0.349065840244,0.0265011657029,-0.00418604677543,0.320621579885,0.00731592113152,0.00731592113152,0.0078248642385,0.017943199724,155.837097168,155.837097168,-0.354579895735,107.025840759,2023,2016,2540,2034,2034,2937,3430,3431,3246,3368,3097,3065,3164,3157,3246,2864,3414,3422,3258,3371,3143,3360,3391,3195
1508410368920671492,171,1508410368920494542,plot_matl,-0.300000011921,-2000.0,-0.26674708724,-0.00162638828624,0.0332529060543,66.1088943481,0.349065840244,0.0107958512381,-0.00197898689657,-0.266741544008,-0.00263264845125,-0.00263264845125,-0.000294263591059,0.00422676978633,-0.296497404575,-0.296497404575,-0.368650883436,-96.290435791,2036,2068,2093,2031,2031,2751,3335,3352,3163,3301,3019,2982,3065,3085,3169,2890,3376,3373,3201,3274,2920,3282,3311,3029,0.010002705,1.709977849,1.710462555,0.349065840244,4500.0,0.362560659647,0.0467589236796,0.0134948138148,-60.7266616821,0.0,6000.0,-0.0019854910206,-0.000161436852068,0.0,0.0,0.349065840244,0.0265011657029,-0.00418604677543,0.320621579885,0.00731592113152,0.00731592113152,0.0078248642385,0.017943199724,155.837097168,155.837097168,-0.354579895735,107.025840759,2006,2007,2540,2034,2034,2937,3430,3430,3248,3367,3094,3064,3165,3158,3244,2866,3413,3422,3258,3371,3143,3360,3391,3195
1508410368930708586,172,1508410368930502950,plot_matl,-0.300000011921,-2000.0,-0.26675632596,-0.00144313846249,0.0332436710596,66.1369018555,0.349065840244,0.0107958512381,-0.00197898689657,-0.266741544008,-0.00263264845125,-0.00263264845125,-0.000294263591059,0.00422676978633,-0.296497404575,-0.296497404575,-0.368650883436,-96.290435791,2008,2045,2093,2031,2031,2751,3335,3352,3163,3301,3019,2982,3065,3085,3169,2890,3376,3374,3202,3274,2921,3282,3309,3031,0.010018078,1.719996141,1.723109416,0.349065840244,4500.0,0.361211180687,0.0199130866677,0.0121453320608,-54.6539955139,0.0,6000.0,-0.00198691617697,-0.000132337314426,0.0,0.0,0.349065840244,0.0265011657029,-0.00418604677543,0.320621579885,0.00731592113152,0.00731592113152,0.0078248642385,0.017943199724,155.837097168,155.837097168,-0.354579895735,107.025840759,2025,2025,2540,2029,2029,2937,3430,3430,3248,3367,3094,3064,3165,3158,3244,2866,3413,3420,3257,3372,3143,3357,3390,3195
1508410368940623225,173,1508410368940492205,plot_matl,-0.300000011921,-2000.0,-0.266748130322,-0.00160716637038,0.0332518666983,66.1212539673,0.349065840244,0.0121453320608,-0.00198691617697,-0.26675632596,0.00995654333383,0.00995654333383,-0.000132337314426,-0.00144313846249,-0.37293702364,-0.37293702364,-0.301893621683,-96.427482605,2011,2053,2093,2031,2031,2749,3335,3353,3161,3300,3021,2980,3067,3084,3171,2890,3376,3374,3202,3274,2921,3282,3309,3031,0.009978149,1.729974836,1.726219777,0.349065840244,4500.0,0.359861701727,-0.00600638566539,0.0107958512381,-48.5813293457,0.0,6000.0,-0.00195323536173,-0.000808350683656,0.0,0.0,0.349065840244,0.0265011657029,-0.00417452771217,0.321017742157,0.00595940789208,0.00595940789208,-0.00775302480906,0.00987172592431,156.01751709,156.01751709,-0.356936424971,107.111221313,2033,2027,2540,2029,2029,2936,3428,3428,3246,3368,3094,3063,3164,3158,3247,2866,3413,3420,3257,3372,3143,3357,3390,3195
1508410368950707782,174,1508410368950491388,plot_matl,-0.300000011921,-2000.0,-0.26674118638,-0.00174509943463,0.0332588218153,66.1050338745,0.349065840244,0.0121453320608,-0.00198691617697,-0.26675632596,0.00995654333383,0.00995654333383,-0.000132337314426,-0.00144313846249,-0.37293702364,-0.37293702364,-0.301893621683,-96.427482605,2032,2060,2093,2031,2031,2749,3335,3353,3161,3300,3021,2980,3067,3084,3171,2889,3374,3370,3202,3274,2921,3282,3308,3029,0.009999764,1.739974424,1.739958936,0.349065840244,4500.0,0.358512222767,-0.0311118923128,0.00944636948407,-42.5086631775,0.0,6000.0,-0.00194768153597,0.0124989757314,0.0,0.0,0.349065840244,0.0265011657029,-0.00417452771217,0.321017742157,0.00595940789208,0.00595940789208,-0.00775302480906,0.00987172592431,156.01751709,156.01751709,-0.356936424971,107.111221313,2024,2014,2539,2029,2029,2936,3428,3428,3246,3368,3094,3063,3164,3158,3247,2865,3413,3420,3256,3372,3143,3359,3389,3196
1508410368960781424,175,1508410368960505844,plot_matl,-0.300000011921,-2000.0,-0.266725003719,0.00389621360227,0.0332749933004,67.4889526367,0.349065840244,0.0121453320608,-0.00198691617697,-0.26675632596,0.00995654333383,0.00995654333383,-0.000132337314426,-0.00144313846249,-0.37293702364,-0.37293702364,-0.301893621683,-96.427482605,2034,2047,2093,2029,2029,2750,3333,3351,3162,3300,3019,2982,3065,3084,3171,2889,3374,3370,3202,3274,2921,3282,3308,3029,0.010015886,1.749989627,1.75278005,0.349065840244,4500.0,0.361211180687,0.0230713542551,0.0121453320608,-54.6539955139,0.0,6000.0,-0.00194768153597,0.0124989757314,0.0,0.0,0.349065840244,0.0265011657029,-0.00417452771217,0.321017742157,0.00595940789208,0.00595940789208,-0.00775302480906,0.00987172592431,156.01751709,156.01751709,-0.356936424971,107.111221313,2031,2027,2539,2031,2031,2937,3428,3428,3247,3369,3094,3062,3164,3158,3247,2865,3413,3420,3256,3372,3143,3359,3389,3196
1508410368970900653,176,1508410368970533781,plot_matl,-0.300000011921,-2000.0,-0.266725003719,0.00389621360227,0.0332749933004,67.4889526367,0.349065840244,0.0121453320608,-0.00198691617697,-0.26675632596,0.00995654333383,0.00995654333383,-0.000132337314426,-0.00144313846249,-0.37293702364,-0.37293702364,-0.301893621683,-96.427482605,2010,2033,2093,2029,2029,2750,3333,3351,3162,3300,3019,2982,3065,3085,3169,2887,3377,3372,3200,3274,2920,3280,3306,3029,0.010026906,1.760017169,1.764735456,0.349065840244,4500.0,0.359861701727,-0.00201504072174,0.0107958512381,-48.5813293457,0.0,6000.0,-0.0019494513981,-0.000867399096023,0.0,0.0,0.349065840244,0.0265011657029,-0.00417452771217,0.321017742157,0.00595940789208,0.00595940789208,-0.00775302480906,0.00987172592431,156.01751709,156.01751709,-0.356936424971,107.111221313,2024,2027,2539,2031,2031,2937,3428,3428,3247,3369,3094,3062,3164,3158,3246,2865,3415,3421,3256,3372,3145,3358,3390,3196
1508410368981003715,177,1508410368980565366,plot_matl,-0.300000011921,-2000.0,-0.266750723124,-0.0015670391731,0.0332492664456,66.1341552734,0.349065840244,0.0107958512381,-0.0019494513981,-0.26673361659,-0.00100752036087,-0.00100752036087,-0.000867399096023,-0.00191265356261,-0.4473336339,-0.4473336339,-0.214493811131,-96.2962875366,2034,2056,2093,2032,2032,2751,3333,3350,3164,3301,3019,2982,3065,3085,3169,2887,3377,3372,3200,3274,2920,3280,3306,3028,0.010032317,1.770049315,1.775720109,0.349065840244,4500.0,0.359861701727,-0.00116727605928,0.0107958512381,-48.5813293457,0.0,6000.0,-0.00195739208721,-0.000710660999175,0.0,0.0,0.349065840244,0.0265011657029,-0.00418307492509,0.32066565752,0.0049258787185,0.0049258787185,-0.00755720119923,-0.0448137484491,155.837982178,155.837982178,-0.643544852734,107.048957825,2029,2022,2541,2033,2033,2936,3428,3426,3249,3368,3095,3062,3164,3158,3246,2865,3415,3421,3256,3372,3145,3358,3390,3194
1508410368990908961,178,1508410368990546933,plot_matl,-0.300000011921,-2000.0,-0.26675388217,0.00446844799444,0.0332461223006,67.5461654663,0.349065840244,0.0107958512381,-0.0019494513981,-0.26673361659,-0.00100752036087,-0.00100752036087,-0.000867399096023,-0.00191265356261,-0.4473336339,-0.4473336339,-0.214493811131,-96.2962875366,2042,2061,2093,2032,2032,2751,3333,3350,3164,3301,3019,2979,3066,3083,3170,2889,3377,3371,3201,3275,2922,3280,3306,3028,0.009981417,1.780031113,1.776692226,0.349065840244,4500.0,0.358512222767,-0.0276812240481,0.00944636948407,-42.5086631775,0.0,6000.0,-0.0019639423117,-0.00058137421729,0.0,0.0,0.349065840244,0.0265011657029,-0.00418307492509,0.32066565752,0.0049258787185,0.0049258787185,-0.00755720119923,-0.0448137484491,155.837982178,155.837982178,-0.643544852734,107.048957825,2024,2026,2541,2033,2033,2936,3428,3426,3249,3368,3095,3063,3165,3157,3248,2866,3415,3422,3256,3370,3146,3358,3390,3194
1508410369000965807,179,1508410369000554038,plot_matl,-0.300000011921,-2000.0,-0.266741633415,-0.00175641139504,0.0332583524287,66.1147994995,0.349065840244,0.0107958512381,-0.0019494513981,-0.26673361659,-0.00100752036087,-0.00100752036087,-0.000867399096023,-0.00191265356261,-0.4473336339,-0.4473336339,-0.214493811131,-96.2962875366,2022,2051,2093,2032,2032,2750,3334,3351,3163,3301,3019,2979,3066,3083,3170,2889,3377,3371,3201,3275,2922,3282,3308,3030,0.009995692,1.790037576,1.789228868,0.349065840244,4500.0,0.359861701727,-0.000393244496081,0.0107958512381,-48.5813293457,0.0,6000.0,-0.0019692722708,-0.000476170651382,0.0,0.0,0.349065840244,0.0265011657029,-0.00418307492509,0.32066565752,0.0049258787185,0.0049258787185,-0.00755720119923,-0.0448137484491,155.837982178,155.837982178,-0.643544852734,107.048957825,2023,2023,2541,2035,2035,2936,3431,3429,3246,3368,3095,3063,3165,3157,3248,2866,3415,3422,3256,3370,3146,3358,3394,3194
1508410369010943981,180,1508410369010543203,plot_matl,-0.300000011921,-2000.0,-0.266736060381,-0.00186662341002,0.03326395154,66.0959472656,0.349065840244,0.0107958512381,-0.0019494513981,-0.26673361659,-0.00100752036087,-0.00100752036087,-0.000867399096023,-0.00191265356261,-0.4473336339,-0.4473336339,-0.214493811131,-96.2962875366,2020,2060,2093,2032,2032,2750,3334,3351,3163,3302,3021,2980,3066,3084,3169,2890,3376,3373,3200,3275,2922,3282,3308,3030,0.009990279,1.800027312,1.79825022,0.349065840244,4500.0,0.359861701727,0.0011411246378,0.0107958512381,-48.5813293457,0.0,6000.0,-0.00197367114015,-0.000389341032133,0.0,0.0,0.349065840244,0.0265011657029,-0.00418307492509,0.32066565752,0.0049258787185,0.0049258787185,-0.00755720119923,-0.0448137484491,155.837982178,155.837982178,-0.643544852734,107.048957825,2022,2028,2541,2035,2035,2936,3431,3429,3246,3368,3094,3065,3165,3157,3246,2864,3415,3423,3256,3370,3146,3358,3394,3194
1508410369020931923,181,1508410369020513514,plot_matl,-0.300000011921,-2000.0,-0.266736060381,-0.00186662341002,0.03326395154,66.0959472656,0.349065840244,0.0107958512381,-0.00197367114015,-0.266736060381,0.000570562318899,0.000570562318899,-0.000389341032133,-0.00186662341002,-0.440991103649,-0.440991103649,-0.142804548144,-95.9878311157,2023,2072,2093,2030,2030,2750,3333,3351,3163,3302,3021,2980,3066,3084,3169,2890,3376,3373,3200,3273,2921,3281,3307,3029,0.009969731,1.809997468,1.804521311,0.349065840244,4500.0,0.359861701727,0.00142823054921,0.0107958512381,-48.5813293457,0.0,6000.0,-0.00197367114015,-0.000389341032133,0.0,0.0,0.349065840244,0.0265011657029,-0.00412586610764,0.320814877748,0.00481056701392,0.00481056701392,0.00661075860262,0.0140282455832,155.838150024,155.838150024,-1.31197333336,107.117790222,2012,2019,2540,2033,2033,2937,3430,3429,3246,3368,3094,3065,3165,3157,3246,2864,3415,3423,3256,3372,3143,3358,3389,3194
1508410369030871328,182,1508410369030516039,plot_matl,-0.300000011921,-2000.0,-0.266741544008,-0.00174594426062,0.0332584567368,66.0945892334,0.349065840244,0.0107958512381,-0.00197367114015,-0.266736060381,0.000570562318899,0.000570562318899,-0.000389341032133,-0.00186662341002,-0.440991103649,-0.440991103649,-0.142804548144,-95.9878311157,2020,2062,2093,2030,2030,2750,3333,3351,3160,3300,3018,2980,3064,3083,3169,2889,3376,3373,3200,3273,2921,3281,3307,3029,0.010001367,1.819999574,1.820248794,0.349065840244,4500.0,0.358512222767,-0.024503050372,0.00944636948407,-42.5086631775,0.0,6000.0,-0.00197975058109,-0.00027887543547,0.0,0.0,0.349065840244,0.0265011657029,-0.00412586610764,0.320814877748,0.00481056701392,0.00481056701392,0.00661075860262,0.0140282455832,155.838150024,155.838150024,-1.31197333336,107.117790222,2022,2023,2540,2033,2033,2937,3430,3429,3247,3368,3093,3064,3164,3156,3247,2866,3414,3423,3256,3372,3143,3358,3389,3194
1508410369040955780,183,1508410369040546983,plot_matl,-0.300000011921,-2000.0,-0.266751527786,0.00442840438336,0.0332484729588,67.5215301514,0.349065840244,0.0107958512381,-0.00197367114015,-0.266736060381,0.000570562318899,0.000570562318899,-0.000389341032133,-0.00186662341002,-0.440991103649,-0.440991103649,-0.142804548144,-95.9878311157,2023,2059,2093,2031,2031,2750,3333,3351,3160,3300,3018,2980,3064,3083,3169,2889,3376,3372,3200,3275,2919,3282,3308,3029,0.010030621,1.830030662,1.835603643,0.349065840244,4500.0,0.361211180687,0.0294753462076,0.0121453320608,-54.6539955139,0.0,6000.0,-0.00199491297826,-0.0133904796094,0.0,0.0,0.349065840244,0.0265011657029,-0.00412586610764,0.320814877748,0.00481056701392,0.00481056701392,0.00661075860262,0.0140282455832,155.838150024,155.838150024,-1.31197333336,107.117790222,2031,2027,2540,2035,2035,2937,3430,3429,3247,3368,3093,3064,3164,3156,3247,2866,3414,3420,3258,3372,3144,3357,3392,3196
1508410369050824767,184,1508410369050563925,plot_matl,-0.300000011921,-2000.0,-0.266750335693,-0.0015733478358,0.0332496576011,66.133102417,0.349065840244,0.0107958512381,-0.00197367114015,-0.266736060381,0.000570562318899,0.000570562318899,-0.000389341032133,-0.00186662341002,-0.440991103649,-0.440991103649,-0.142804548144,-95.9878311157,2025,2061,2093,2031,2031,2749,3334,3353,3162,3299,3019,2981,3067,3083,3169,2889,3376,3372,3200,3275,2919,3282,3308,3029,0.010017899,1.84004815,1.843293416,0.349065840244,4500.0,0.361211180687,0.029996721074,0.0121453320608,-54.6539955139,0.0,6000.0,-0.0019835238345,-0.000195971791982,0.0,0.0,0.349065840244,0.0265011657029,-0.00412586610764,0.320814877748,0.00481056701392,0.00481056701392,0.00661075860262,0.0140282455832,155.838150024,155.838150024,-1.31197333336,107.117790222,2022,2025,2540,2035,2035,2937,3428,3430,3248,3365,3094,3063,3164,3158,3247,2866,3414,3420,3258,3372,3144,3357,3392,3196
1508410369060936609,185,1508410369060541056,plot_matl,-0.300000011921,-2000.0,-0.266750335693,-0.0015733478358,0.0332496576011,66.133102417,0.349065840244,0.0121453320608,-0.0019835238345,-0.266750335693,0.014998360537,0.014998360537,-0.000195971791982,-0.0015733478358,-0.684012293816,-0.684012293816,0.160657674074,-95.7561645508,2012,2059,2092,2031,2031,2749,3334,3353,3162,3299,3019,2981,3067,3083,3169,2889,3375,3371,3200,3274,2920,3281,3307,3030,0.009974674,1.850024357,1.84531469,0.349065840244,4500.0,0.361211180687,0.029996721074,0.0121453320608,-54.6539955139,0.0,6000.0,-0.0019835238345,-0.000195971791982,0.0,0.0,0.349065840244,0.0265011657029,-0.00416378164664,0.320947945118,0.00600882899016,0.00600882899016,-0.00796326715499,0.0114440014586,156.278381348,156.278381348,-0.903135240078,107.340835571,2024,2030,2540,2035,2035,2937,3428,3430,3248,3365,3094,3063,3164,3158,3247,2865,3415,3421,3257,3372,3143,3359,3391,3194
1508410369071141558,186,1508410369070560220,plot_matl,-0.300000011921,-2000.0,-0.266746968031,0.00433716922998,0.0332530289888,67.5481338501,0.349065840244,0.0121453320608,-0.0019835238345,-0.266750335693,0.014998360537,0.014998360537,-0.000195971791982,-0.0015733478358,-0.684012293816,-0.684012293816,0.160657674074,-95.7561645508,2012,2059,2092,2031,2031,2749,3334,3353,3162,3299,3019,2981,3067,3083,3169,2889,3375,3371,3200,3274,2920,3281,3307,3030,0.01002128,1.860044059,1.86395808,0.349065840244,4500.0,0.359861701727,0.00218413909897,0.0107958512381,-48.5813293457,0.0,6000.0,-0.0019835238345,-0.000195971791982,0.0,0.0,0.349065840244,0.0265011657029,-0.00416378164664,0.320947945118,0.00600882899016,0.00600882899016,-0.00796326715499,0.0114440014586,156.278381348,156.278381348,-0.903135240078,107.340835571,2024,2030,2540,2035,2035,2937,3428,3430,3248,3365,3094,3063,3164,3158,3247,2865,3415,3421,3257,3372,3143,3359,3391,3194
1508410369080971080,187,1508410369080545936,plot_matl,-0.300000011921,-2000.0,-0.266753971577,-0.0015029811766,0.0332460179925,66.1211471558,0.349065840244,0.0121453320608,-0.0019835238345,-0.266750335693,0.014998360537,0.014998360537,-0.000195971791982,-0.0015733478358,-0.684012293816,-0.684012293816,0.160657674074,-95.7561645508,2014,2055,2092,2028,2028,2750,3332,3351,3162,3299,3021,2979,3064,3083,3169,2889,3375,3371,3200,3274,2920,3281,3307,3030,0.009984945,1.870030046,1.867184715,0.349065840244,4500.0,0.359861701727,0.00295943859965,0.0107958512381,-48.5813293457,0.0,6000.0,-0.00198353431188,-0.000188256162801,0.0,0.0,0.349065840244,0.0265011657029,-0.00416378164664,0.320947945118,0.00600882899016,0.00600882899016,-0.00796326715499,0.0114440014586,156.278381348,156.278381348,-0.903135240078,107.340835571,2031,2034,2540,2034,2034,2938,3429,3430,3247,3367,3094,3063,3165,3158,3247,2865,3415,3421,3257,3372,3143,3359,3391,3194
1508410369091007707,188,1508410369090535812,plot_matl,-0.300000011921,-2000.0,-0.266750991344,0.00441287923604,0.0332490205765,67.5573043823,0.349065840244,0.0121453320608,-0.0019835238345,-0.266750335693,0.014998360537,0.014998360537,-0.000195971791982,-0.0015733478358,-0.684012293816,-0.684012293816,0.160657674074,-95.7561645508,2027,2083,2092,2028,2028,2754,3336,3356,3166,3303,3023,2979,3064,3097,3184,2899,3388,3381,3209,3284,2928,3289,3315,3034,0.009989731,1.880020287,1.878069428,0.349065840244,4500.0,0.358512222767,-0.0238473527133,0.00944636948407,-42.5086631775,0.0,6000.0,-0.00197239825502,-0.00041492699529,0.0,0.0,0.349065840244,0.0265011657029,-0.00416378164664,0.320947945118,0.00600882899016,0.00600882899016,-0.00796326715499,0.0114440014586,156.278381348,156.278381348,-0.903135240078,107.340835571,2020,2025,2540,2033,2033,2941,3434,3432,3250,3370,3096,3063,3165,3173,3260,2875,3424,3432,3264,3380,3151,3363,3397,3202
1508410369100688551,189,1508410369100508182,plot_matl,-0.300000011921,-2000.0,-0.266748517752,0.00435879081488,0.0332514680922,67.5513305664,0.349065840244,0.0107958512381,-0.00198410823941,-0.266758322716,0.00165301957168,0.00165301957168,-0.000177297129994,-0.00141548749525,-0.63605338335,-0.63605338335,0.399284929037,-95.912651062,2025,2070,2092,2028,2028,2754,3336,3356,3166,3303,3023,2982,3070,3085,3171,2890,3378,3371,3201,3277,2921,3289,3315,3034,0.009968632,1.889990878,1.884071448,0.349065840244,4500.0,0.359861701727,0.00330359814689,0.0107958512381,-48.5813293457,0.0,6000.0,-0.00197620433755,-0.000339720048942,0.0,0.0,0.349065840244,0.0265011657029,-0.00418476480991,0.320844233036,0.00589368958026,0.00589368958026,-0.00696031516418,0.0161458402872,156.269317627,156.269317627,-1.09119701385,107.42490387,2025,2027,2540,2033,2033,2941,3434,3432,3250,3370,3096,3068,3169,3159,3249,2867,3417,3422,3260,3373,3145,3363,3397,3202
1508410369111002371,190,1508410369110554903,plot_matl,-0.300000011921,-2000.0,-0.266747534275,-0.00164011958987,0.0332524590194,66.1188583374,0.349065840244,0.0107958512381,-0.00198410823941,-0.266758322716,0.00165301957168,0.00165301957168,-0.000177297129994,-0.00141548749525,-0.63605338335,-0.63605338335,0.399284929037,-95.912651062,2025,2059,2092,2025,2025,2750,3335,3353,3160,3303,3023,2982,3070,3085,3171,2890,3378,3371,3201,3277,2921,3279,3309,3030,0.010048812,1.900038727,1.90927428,0.349065840244,4500.0,0.359861701727,0.00425579817966,0.0107958512381,-48.5813293457,0.0,6000.0,-0.00197933590971,-0.000277838407783,0.0,0.0,0.349065840244,0.0265011657029,-0.00418476480991,0.320844233036,0.00589368958026,0.00589368958026,-0.00696031516418,0.0161458402872,156.269317627,156.269317627,-1.09119701385,107.42490387,2030,2026,2541,2032,2032,2938,3430,3430,3248,3370,3096,3068,3169,3159,3249,2867,3417,3422,3260,3373,3145,3361,3392,3196
1508410369120807059,191,1508410369120532446,plot_matl,-0.300000011921,-2000.0,-0.266741663218,-0.00175180204678,0.0332583263516,66.1237716675,0.349065840244,0.0107958512381,-0.00198410823941,-0.266758322716,0.00165301957168,0.00165301957168,-0.000177297129994,-0.00141548749525,-0.63605338335,-0.63605338335,0.399284929037,-95.912651062,2027,2059,2092,2025,2025,2750,3335,3353,3160,3302,3019,2979,3068,3085,3169,2891,3377,3371,3200,3277,2921,3279,3309,3030,0.009976871,1.910016295,1.905582361,0.349065840244,4500.0,0.359861701727,0.00348812714219,0.0107958512381,-48.5813293457,0.0,6000.0,-0.00198187213391,-0.000227721247938,0.0,0.0,0.349065840244,0.0265011657029,-0.00418476480991,0.320844233036,0.00589368958026,0.00589368958026,-0.00696031516418,0.0161458402872,156.269317627,156.269317627,-1.09119701385,107.42490387,2035,2028,2541,2032,2032,2938,3430,3430,3248,3369,3096,3063,3165,3158,3246,2865,3413,3421,3259,3373,3145,3361,3392,3196
1508410369130855537,192,1508410369130524868,plot_matl,-0.300000011921,-2000.0,-0.266741007566,-0.00176285475027,0.0332589820027,66.1080474854,0.349065840244,0.0107958512381,-0.00198410823941,-0.266758322716,0.00165301957168,0.00165301957168,-0.000177297129994,-0.00141548749525,-0.63605338335,-0.63605338335,0.399284929037,-95.912651062,2021,2063,2091,2029,2029,2749,3334,3353,3160,3302,3019,2979,3068,3085,3169,2891,3377,3371,3200,3272,2920,3282,3307,3029,0.009991985,1.920008626,1.91846112,0.349065840244,4500.0,0.359861701727,0.00291316932999,0.0107958512381,-48.5813293457,0.0,6000.0,-0.00197140011005,-0.000420063879574,0.0,0.0,0.349065840244,0.0265011657029,-0.00418476480991,0.320844233036,0.00589368958026,0.00589368958026,-0.00696031516418,0.0161458402872,156.269317627,156.269317627,-1.09119701385,107.42490387,2025,2032,2542,2032,2032,2937,3430,3430,3248,3369,3096,3063,3165,3158,3246,2865,3413,3421,3259,3372,3144,3359,3391,3193
1508410369140879831,193,1508410369140547463,plot_matl,-0.300000011921,-2000.0,-0.266730189323,0.00399238616228,0.0332698039711,67.4683456421,0.349065840244,0.0107958512381,-0.00197362829931,-0.266755521297,0.00160726648755,0.00160726648755,-0.000390621775296,-0.00147160934284,-0.68559139967,-0.68559139967,0.399791359901,-95.8603591919,2021,2051,2091,2029,2029,2749,3334,3351,3161,3299,3020,2980,3065,3084,3170,2889,3374,3371,3200,3272,2920,3282,3307,3029,0.010022355,1.930031342,1.934314515,0.349065840244,4500.0,0.361211180687,0.0295627247542,0.0121453320608,-54.6539955139,0.0,6000.0,-0.00196414696984,-0.000570310745388,0.0,0.0,0.349065840244,0.0265011657029,-0.00416869530454,0.32074546814,0.00530541501939,0.00530541501939,0.00795672927052,0.01764350757,156.255737305,156.255737305,-1.05067431927,107.456947327,2032,2033,2542,2032,2032,2937,3430,3431,3248,3369,3097,3063,3166,3159,3246,2865,3412,3421,3259,3372,3144,3359,3391,3193
1508410369150793288,194,1508410369150544275,plot_matl,-0.300000011921,-2000.0,-0.2667273283,-0.00204093381763,0.0332726575434,66.084487915,0.349065840244,0.0107958512381,-0.00197362829931,-0.266755521297,0.00160726648755,0.00160726648755,-0.000390621775296,-0.00147160934284,-0.68559139967,-0.68559139967,0.399791359901,-95.8603591919,2039,2066,2091,2029,2029,2749,3334,3351,3161,3299,3020,2980,3065,3084,3170,2889,3374,3371,3200,3274,2920,3282,3307,3029,0.010005984,1.940027888,1.941160896,0.349065840244,4500.0,0.359861701727,0.00189435400534,0.0107958512381,-48.5813293457,0.0,6000.0,-0.00195662048645,-0.000730373896658,0.0,0.0,0.349065840244,0.0265011657029,-0.00416869530454,0.32074546814,0.00530541501939,0.00530541501939,0.00795672927052,0.01764350757,156.255737305,156.255737305,-1.05067431927,107.456947327,2023,2023,2539,2032,2032,2937,3430,3431,3248,3369,3097,3063,3166,3159,3246,2865,3412,3420,3255,3373,3142,3358,3391,3196
1508410369160860159,195,1508410369160535444,plot_matl,-0.300000011921,-2000.0,-0.266717225313,0.00374191370793,0.0332827679813,67.4838409424,0.349065840244,0.0107958512381,-0.00197362829931,-0.266755521297,0.00160726648755,0.00160726648755,-0.000390621775296,-0.00147160934284,-0.68559139967,-0.68559139967,0.399791359901,-95.8603591919,2028,2046,2091,2029,2029,2749,3334,3351,3160,3298,3019,2981,3066,3083,3168,2889,3374,3371,3200,3274,2920,3282,3307,3029,0.009981191,1.950019212,1.946332245,0.349065840244,4500.0,0.359861701727,0.00154969468713,0.0107958512381,-48.5813293457,0.0,6000.0,-0.00196331134066,-0.000597489473876,0.0,0.0,0.349065840244,0.0265011657029,-0.00416869530454,0.32074546814,0.00530541501939,0.00530541501939,0.00795672927052,0.01764350757,156.255737305,156.255737305,-1.05067431927,107.456947327,2020,2018,2539,2032,2032,2935,3429,3430,3247,3367,3095,3063,3165,3157,3246,2865,3412,3420,3255,3373,3142,3358,3391,3196
1508410369171093529,196,1508410369170526693,plot_matl,-0.300000011921,-2000.0,-0.266717225313,0.00374191370793,0.0332827679813,67.4838409424,0.349065840244,0.0107958512381,-0.00197362829931,-0.266755521297,0.00160726648755,0.00160726648755,-0.000390621775296,-0.00147160934284,-0.68559139967,-0.68559139967,0.399791359901,-95.8603591919,2028,2046,2091,2029,2029,2749,3334,3351,3160,3298,3019,2981,3066,3083,3168,2889,3374,3371,3200,3274,2920,3282,3307,3029,0.009990713,1.960010191,1.958179748,0.349065840244,4500.0,0.359861701727,0.00154969468713,0.0107958512381,-48.5813293457,0.0,6000.0,-0.00196331134066,-0.000597489473876,0.0,0.0,0.349065840244,0.0265011657029,-0.00416869530454,0.32074546814,0.00530541501939,0.00530541501939,0.00795672927052,0.01764350757,156.255737305,156.255737305,-1.05067431927,107.456947327,2020,2018,2539,2032,2032,2935,3429,3430,3247,3367,3095,3063,3165,3157,3246,2865,3412,3420,3255,3373,3142,3358,3391,3196
1508410369180819340,197,1508410369180560964,plot_matl,-0.300000011921,-2000.0,-0.266704082489,0.00348304375075,0.033295918256,67.4255371094,0.349065840244,0.0107958512381,-0.00195971713401,-0.266740232706,0.00163101998623,0.00163101998623,-0.000656682881527,0.00419740239158,-0.579460263252,-0.579460263252,0.181621134281,-95.5259475708,2019,2056,2093,2029,2029,2749,3334,3351,3160,3298,3019,2981,3066,3083,3168,2890,3377,3369,3201,3274,2919,3282,3306,3029,0.010034121,1.970044618,1.976721837,0.349065840244,4500.0,0.359861701727,0.00240745744668,0.0107958512381,-48.5813293457,0.0,6000.0,-0.00196316372603,-0.000604643777478,0.0,0.0,0.349065840244,0.0265011657029,-0.00419096695259,0.320775508881,0.00323298783042,0.00323298783042,-0.00715974997729,0.0159262921661,156.325378418,156.325378418,-1.12398648262,107.216079712,2017,2024,2541,2032,2032,2935,3429,3430,3247,3367,3095,3063,3165,3157,3246,2865,3414,3421,3257,3372,3146,3358,3393,3195
1508410369190939747,198,1508410369190524215,plot_matl,-0.300000011921,-2000.0,-0.266704827547,-0.0024807585869,0.0332951769233,65.9936065674,0.349065840244,0.0107958512381,-0.00195971713401,-0.266740232706,0.00163101998623,0.00163101998623,-0.000656682881527,0.00419740239158,-0.579460263252,-0.579460263252,0.181621134281,-95.5259475708,2024,2052,2093,2028,2028,2748,3334,3351,3161,3299,3018,2981,3065,3082,3168,2888,3375,3370,3200,3272,2919,3282,3308,3029,0.009963091,1.980008044,1.972692018,0.349065840244,4500.0,0.359861701727,0.00197137938812,0.0107958512381,-48.5813293457,0.0,6000.0,-0.00196863990277,-0.00049512082478,0.0,0.0,0.349065840244,0.0265011657029,-0.00419096695259,0.320775508881,0.00323298783042,0.00323298783042,-0.00715974997729,0.0159262921661,156.325378418,156.325378418,-1.12398648262,107.216079712,2021,2018,2541,2035,2035,2937,3430,3427,3247,3368,3095,3067,3164,3158,3247,2864,3414,3421,3256,3370,3145,3359,3394,3195
1508410369200969568,199,1508410369200511460,plot_matl,-0.300000011921,-2000.0,-0.266710966825,-0.00235362816602,0.033289026469,66.0132141113,0.349065840244,0.0107958512381,-0.00195971713401,-0.266740232706,0.00163101998623,0.00163101998623,-0.000656682881527,0.00419740239158,-0.579460263252,-0.579460263252,0.181621134281,-95.5259475708,2025,2052,2092,2027,2027,2750,3330,3351,3161,3299,3020,2981,3065,3082,3168,2888,3375,3370,3200,3272,2919,3282,3308,3028,0.009986568,1.989995118,1.987327032,0.349065840244,4500.0,0.359861701727,0.00363568030298,0.0107958512381,-48.5813293457,0.0,6000.0,-0.00197312841192,-0.000405353319366,0.0,0.0,0.349065840244,0.0265011657029,-0.00419096695259,0.320775508881,0.00323298783042,0.00323298783042,-0.00715974997729,0.0159262921661,156.325378418,156.325378418,-1.12398648262,107.216079712,2029,2025,2542,2033,2033,2937,3430,3428,3247,3366,3096,3067,3164,3158,3247,2864,3414,3421,3256,3370,3145,3359,3394,3197
1508410369211007248,200,1508410369210544439,plot_matl,-0.300000011921,-2000.0,-0.26670101285,-0.00256917416118,0.0332989767194,65.9547348022,0.349065840244,0.0107958512381,-0.00195971713401,-0.266740232706,0.00163101998623,0.00163101998623,-0.000656682881527,0.00419740239158,-0.579460263252,-0.579460263252,0.181621134281,-95.5259475708,2007,2055,2092,2027,2027,2750,3330,3351,3161,3299,3020,2979,3067,3084,3170,2888,3378,3371,3200,3272,2919,3282,3308,3028,0.01003374,2.000028382,2.006748,0.349065840244,4500.0,0.359861701727,0.00245428946801,0.0107958512381,-48.5813293457,0.0,6000.0,-0.0019768148195,-0.000331623770762,0.0,0.0,0.349065840244,0.0265011657029,-0.00419096695259,0.320775508881,0.00323298783042,0.00323298783042,-0.00715974997729,0.0159262921661,156.325378418,156.325378418,-1.12398648262,107.216079712,2021,2027,2542,2033,2033,2937,3430,3428,3247,3366,3096,3064,3166,3158,3246,2865,3414,3420,3256,3373,3142,3359,3394,3197
1508410369220910649,201,1508410369220512209,plot_matl,-0.300000011921,-2000.0,-0.266686528921,0.00311557645909,0.0333134606481,67.4153518677,0.349065840244,0.0107958512381,-0.00195861421525,-0.266711235046,0.00137822551187,0.00137822551187,-0.000695631490089,0.00362957059406,-0.5218719244,-0.5218719244,0.304517120123,-95.3969650269,2007,2054,2092,2026,2026,2749,3333,3353,3163,3299,3020,2979,3067,3084,3170,2888,3378,3371,3200,3272,2919,3280,3306,3027,0.009966052,2.009995747,2.003176452,0.349065840244,4500.0,0.359861701727,0.00246694474481,0.0107958512381,-48.5813293457,0.0,6000.0,-0.00197982462123,-0.000271429074928,0.0,0.0,0.349065840244,0.0265011657029,-0.00418636668473,0.32106512785,0.00380070321262,0.00380070321262,-0.00737112667412,0.00971599668264,156.423187256,156.423187256,-0.772511184216,107.334632874,2026,2034,2541,2033,2033,2937,3428,3430,3249,3366,3096,3064,3166,3158,3246,2865,3414,3420,3256,3373,3142,3357,3391,3197
1508410369230740910,202,1508410369230530453,plot_matl,-0.300000011921,-2000.0,-0.266685187817,0.00309133715928,0.0333148017526,67.394744873,0.349065840244,0.0107958512381,-0.00195861421525,-0.266711235046,0.00137822551187,0.00137822551187,-0.000695631490089,0.00362957059406,-0.5218719244,-0.5218719244,0.304517120123,-95.3969650269,2011,2056,2092,2026,2026,2749,3333,3353,3163,3299,3020,2979,3064,3083,3167,2887,3375,3370,3199,3272,2919,3280,3306,3027,0.01001834,2.020014185,2.02370468,0.349065840244,4500.0,0.361211180687,0.0296577923,0.0121453320608,-54.6539955139,0.0,6000.0,-0.00196994794533,-0.00047234701924,0.0,0.0,0.349065840244,0.0265011657029,-0.00418636668473,0.32106512785,0.00380070321262,0.00380070321262,-0.00737112667412,0.00971599668264,156.423187256,156.423187256,-0.772511184216,107.334632874,2027,2028,2541,2033,2033,2937,3428,3430,3249,3369,3095,3063,3166,3156,3247,2866,3413,3421,3257,3373,3142,3357,3391,3197
1508410369241040700,203,1508410369240544651,plot_matl,-0.300000011921,-2000.0,-0.266679316759,-0.00300871185027,0.0333206802607,65.9211807251,0.349065840244,0.0107958512381,-0.00195861421525,-0.266711235046,0.00137822551187,0.00137822551187,-0.000695631490089,0.00362957059406,-0.5218719244,-0.5218719244,0.304517120123,-95.3969650269,2023,2049,2091,2027,2027,2750,3333,3353,3163,3299,3020,2979,3064,3083,3167,2887,3375,3370,3199,3274,2919,3280,3309,3029,0.010014191,2.030028619,2.032880773,0.349065840244,4500.0,0.359861701727,0.00147423706949,0.0107958512381,-48.5813293457,0.0,6000.0,-0.00197418872267,-0.000386918778531,0.0,0.0,0.349065840244,0.0265011657029,-0.00418636668473,0.32106512785,0.00380070321262,0.00380070321262,-0.00737112667412,0.00971599668264,156.423187256,156.423187256,-0.772511184216,107.334632874,2027,2026,2540,2041,2041,2937,3429,3430,3249,3369,3095,3063,3166,3156,3247,2866,3413,3421,3257,3370,3143,3360,3393,3197
1508410369250912770,204,1508410369250544043,plot_matl,-0.300000011921,-2000.0,-0.266658127308,0.00253609986976,0.033341858536,67.2879104614,0.349065840244,0.0107958512381,-0.00195861421525,-0.266711235046,0.00137822551187,0.00137822551187,-0.000695631490089,0.00362957059406,-0.5218719244,-0.5218719244,0.304517120123,-95.3969650269,2023,2046,2091,2027,2027,2750,3333,3351,3163,3299,3019,2980,3067,3082,3167,2889,3374,3370,3199,3274,2919,3280,3309,3029,0.00999837,2.040027521,2.03966748,0.349065840244,4500.0,0.361211180687,0.027428407222,0.0121453320608,-54.6539955139,0.0,6000.0,-0.00197765673511,-0.000317061931128,0.0,0.0,0.349065840244,0.0265011657029,-0.00418636668473,0.32106512785,0.00380070321262,0.00380070321262,-0.00737112667412,0.00971599668264,156.423187256,156.423187256,-0.772511184216,107.334632874,2018,2023,2540,2041,2041,2937,3429,3427,3247,3368,3095,3064,3164,3159,3245,2866,3414,3421,3257,3370,3143,3360,3393,3197
1508410369260878124,205,1508410369260532326,plot_matl,-0.300000011921,-2000.0,-0.266656816006,0.00251085800119,0.0333431810141,67.2392425537,0.349065840244,0.0107958512381,-0.00197776732966,-0.266697049141,0.00142044795211,0.00142044795211,-0.000312573567498,0.0033246697858,-0.634285748005,-0.634285748005,0.386591434479,-95.3618621826,2018,2073,2092,2027,2027,2750,3333,3351,3163,3299,3019,2980,3067,3082,3167,2889,3374,3372,3200,3274,2921,3280,3308,3028,0.009988352,2.050016169,2.04761216,0.349065840244,4500.0,0.361211180687,0.0264249239117,0.0121453320608,-54.6539955139,0.0,6000.0,-0.00195618555881,-0.000735578301828,0.0,0.0,0.349065840244,0.0240919683129,-0.00423987163231,0.321157693863,-0.0183748621494,-0.0183748621494,-0.00636840052903,0.00738458987325,156.013931274,156.013931274,-0.946724295616,107.230697632,2013,2022,2540,2035,2035,2937,3429,3427,3247,3368,3095,3064,3164,3159,3245,2866,3414,3420,3257,3372,3144,3359,3391,3195
1508410369270920168,206,1508410369270554910,plot_matl,-0.300000011921,-2000.0,-0.266655653715,0.00248842942528,0.0333443433046,67.2863922119,0.349065840244,0.0107958512381,-0.00197776732966,-0.266697049141,0.00142044795211,0.00142044795211,-0.000312573567498,0.0033246697858,-0.634285748005,-0.634285748005,0.386591434479,-95.3618621826,2012,2051,2092,2027,2027,2748,3332,3350,3163,3300,3019,2980,3065,3083,3169,2889,3374,3372,3200,3274,2921,3280,3308,3028,0.010021683,2.060038484,2.064466698,0.349065840244,4500.0,0.359861701727,-0.00165577826556,0.0107958512381,-48.5813293457,0.0,6000.0,-0.00196293368936,-0.000602180371061,0.0,0.0,0.349065840244,0.0240919683129,-0.00423987163231,0.321157693863,-0.0183748621494,-0.0183748621494,-0.00636840052903,0.00738458987325,156.013931274,156.013931274,-0.946724295616,107.230697632,2018,2023,2540,2035,2035,2938,3427,3429,3247,3368,3094,3065,3166,3157,3246,2866,3414,3420,3257,3372,3144,3359,3391,3195
1508410369280943185,207,1508410369280545934,plot_matl,-0.300000011921,-2000.0,-0.26665982604,0.00257008336484,0.0333401747048,67.3002243042,0.349065840244,0.0107958512381,-0.00197776732966,-0.266697049141,0.00142044795211,0.00142044795211,-0.000312573567498,0.0033246697858,-0.634285748005,-0.634285748005,0.386591434479,-95.3618621826,2020,2039,2092,2027,2027,2748,3332,3350,3163,3300,3019,2980,3065,3083,3169,2889,3375,3371,3200,3273,2920,3280,3307,3030,0.009990688,2.070029512,2.068072416,0.349065840244,4500.0,0.359861701727,-0.00283541367389,0.0107958512381,-48.5813293457,0.0,6000.0,-0.00196845619939,-0.000493014289532,0.0,0.0,0.349065840244,0.0240919683129,-0.00423987163231,0.321157693863,-0.0183748621494,-0.0183748621494,-0.00636840052903,0.00738458987325,156.013931274,156.013931274,-0.946724295616,107.230697632,2026,2015,2540,2035,2035,2938,3427,3429,3247,3368,3094,3065,3166,3157,3246,2865,3413,3421,3255,3371,3144,3358,3390,3195
