%time,field.header.seq,field.header.stamp,field.header.frame_id,field.FFJ4_set_point,field.FFJ4_position_gain,field.FFJ4_process_value,field.FFJ4_process_value_dot,field.FFJ4_error,field.FFJ4_command,field.FFJ1,field.FFJ2,field.FFJ3,field.FFJ4,field.FFJ1_dot,field.FFJ2_dot,field.FFJ3_dot,field.FFJ4_dot,field.FFJ1_tao,field.FFJ2_tao,field.FFJ3_tao,field.FFJ4_tao,field.pac0,field.pac1,field.pdc0,field.tac0,field.tdc0,field.el0,field.el1,field.el2,field.el3,field.el4,field.el5,field.el6,field.el7,field.el8,field.el9,field.el10,field.el11,field.el12,field.el13,field.el14,field.el15,field.el16,field.el17,field.el18,field.dt,field.time,field.test_time2,field.FFJ0_set_point,field.FFJ0_position_gain,field.FFJ0_process_value,field.FFJ0_process_value_dot,field.FFJ0_error,field.FFJ0_command,field.FFJ3_set_point,field.FFJ3_position_gain,field.FFJ3_process_value,field.FFJ3_process_value_dot,field.FFJ3_error,field.FFJ3_command,field.MFJ1,field.MFJ2,field.MFJ3,field.MFJ4,field.MFJ1_dot,field.MFJ2_dot,field.MFJ3_dot,field.MFJ4_dot,field.MFJ1_tao,field.MFJ2_tao,field.MFJ3_tao,field.MFJ4_tao,field.Mpac0,field.Mpac1,field.Mpdc0,field.Mtac0,field.Mtdc0,field.Mel0,field.Mel1,field.Mel2,field.Mel3,field.Mel4,field.Mel5,field.Mel6,field.Mel7,field.Mel8,field.Mel9,field.Mel10,field.Mel11,field.Mel12,field.Mel13,field.Mel14,field.Mel15,field.Mel16,field.Mel17,field.Mel18
1508410488505165851,120,1508410488504640711,plot_matl,-0.300000011921,-2000.0,-0.266725182533,-0.00205065007322,0.0332748256624,66.0597991943,0.349065840244,0.0107958512381,-0.00196987809613,-0.266731292009,-0.00166512222495,-0.00166512222495,-0.000380942161428,-0.00198560347781,-0.287490516901,-0.287490516901,-0.0581431277096,-95.2020874023,2026,2054,2092,2026,2026,2756,3342,3359,3170,3306,3026,2987,3070,3088,3175,2892,3378,3375,3205,3278,2922,3283,3310,3030,0.00994119,1.200007001,1.1929428,0.349065840244,4500.0,0.359861701727,-0.00399388140067,0.0107958512381,-48.5813293457,0.0,6000.0,-0.00196519144811,-0.000456854730146,0.0,0.0,0.349065840244,0.0265011657029,-0.00425254087895,0.320775479078,0.00457997526973,0.00457997526973,-0.00612108316272,-0.0471895486116,156.223754883,156.223754883,0.414209157228,106.425727844,2037,2032,2541,2038,2038,2942,3439,3437,3255,3372,3099,3069,3170,3163,3251,2868,3417,3424,3260,3376,3147,3360,3395,3197
1508410488515276576,121,1508410488514682685,plot_matl,-0.300000011921,-2000.0,-0.266727507114,0.00396931590512,0.0332724936306,68.3763122559,0.349065840244,0.0107958512381,-0.0019741228316,-0.266733080149,-0.00141608261038,-0.00141608261038,-0.000312188203679,0.00407720962539,-0.271848499775,-0.271848499775,0.021906003356,-95.2042922974,2006,2060,2092,2026,2026,2752,3340,3356,3167,3304,3024,2986,3074,3091,3176,2892,3378,3375,3205,3278,2922,3283,3310,3030,0.010042816,1.210049155,1.215180736,0.349065840244,4500.0,0.359861701727,-0.00262980023399,0.0107958512381,-48.5813293457,0.0,6000.0,-0.00197166251019,-0.000352040195139,0.0,0.0,0.349065840244,0.0265011657029,-0.00429260497913,0.320745408535,0.0025060523767,0.0025060523767,0.0100249834359,0.0157839786261,156.258331299,156.258331299,0.185514569283,106.426971436,2022,2030,2541,2038,2038,2939,3434,3433,3251,3370,3096,3069,3173,3163,3254,2868,3417,3424,3260,3376,3147,3360,3395,3197
1508410488525060089,122,1508410488524651613,plot_matl,-0.300000011921,-2000.0,-0.266746014357,-0.00163995323237,0.0332539752126,66.1021499634,0.349065840244,0.0107958512381,-0.0019741228316,-0.266733080149,-0.00141608261038,-0.00141608261038,-0.000312188203679,0.00407720962539,-0.271848499775,-0.271848499775,0.021906003356,-95.2042922974,2013,2059,2092,2026,2026,2752,3340,3356,3167,3304,3024,2986,3074,3091,3176,2892,3382,3376,3204,3276,2924,3284,3309,3030,0.009966804,1.220017683,1.215950088,0.349065840244,4500.0,0.359861701727,-0.00262980023399,0.0107958512381,-48.5813293457,0.0,6000.0,-0.00197560316883,-0.000288208306301,0.0,0.0,0.349065840244,0.0265011657029,-0.00429260497913,0.320745408535,0.0025060523767,0.0025060523767,0.0100249834359,0.0157839786261,156.258331299,156.258331299,0.185514569283,106.426971436,2025,2027,2540,2038,2038,2939,3434,3433,3251,3370,3096,3069,3173,3163,3254,2870,3420,3426,3261,3379,3147,3363,3395,3197
1508410488535110793,123,1508410488534645273,plot_matl,-0.300000011921,-2000.0,-0.266766220331,-0.00123460311443,0.0332337729633,66.1778411865,0.349065840244,0.0107958512381,-0.0019741228316,-0.266733080149,-0.00141608261038,-0.00141608261038,-0.000312188203679,0.00407720962539,-0.271848499775,-0.271848499775,0.021906003356,-95.2042922974,2018,2043,2092,2026,2026,2754,3336,3353,3163,3303,3022,2983,3068,3091,3176,2892,3382,3376,3204,3276,2924,3284,3309,3030,0.009993986,1.230011598,1.229260278,0.349065840244,4500.0,0.359861701727,-0.00262980023399,0.0107958512381,-48.5813293457,0.0,6000.0,-0.00197560316883,-0.000288208306301,0.0,0.0,0.349065840244,0.0265011657029,-0.00429260497913,0.320745408535,0.0025060523767,0.0025060523767,0.0100249834359,0.0157839786261,156.258331299,156.258331299,0.185514569283,106.426971436,2032,2033,2540,2035,2035,2938,3432,3431,3249,3370,3097,3067,3167,3163,3254,2870,3420,3426,3261,3379,3147,3363,3395,3197
1508410488545023915,124,1508410488544663022,plot_matl,-0.300000011921,-2000.0,-0.26676094532,-0.00134527205955,0.0332390554249,66.1535263062,0.349065840244,0.0107958512381,-0.0019741228316,-0.266733080149,-0.00141608261038,-0.00141608261038,-0.000312188203679,0.00407720962539,-0.271848499775,-0.271848499775,0.021906003356,-95.2042922974,2012,2041,2092,2026,2026,2754,3336,3353,3163,3303,3022,2983,3068,3086,3172,2889,3378,3373,3201,3275,2921,3281,3308,3030,0.010016727,1.240029147,1.242074148,0.349065840244,4500.0,0.359861701727,-0.00351259647869,0.0107958512381,-48.5813293457,0.0,6000.0,-0.00198146724142,-0.000193223211681,0.0,0.0,0.349065840244,0.0265011657029,-0.00429260497913,0.320745408535,0.0025060523767,0.0025060523767,0.0100249834359,0.0157839786261,156.258331299,156.258331299,0.185514569283,106.426971436,2026,2026,2540,2035,2035,2938,3432,3431,3249,3370,3097,3067,3167,3160,3249,2865,3416,3423,3257,3373,3144,3360,3392,3197
1508410488554931216,125,1508410488554690874,plot_matl,-0.300000011921,-2000.0,-0.266767919064,-0.00120630511083,0.0332320742309,66.1714401245,0.349065840244,0.0107958512381,-0.00198281556368,-0.266762912273,-0.00155779207125,-0.00155779207125,-0.000171384090208,-0.00130669854116,-0.414663881063,-0.414663881063,-0.223083391786,-95.4057388306,2017,2059,2093,2028,2028,2753,3333,3351,3163,3301,3021,2983,3068,3086,3172,2889,3378,3373,3201,3275,2921,3281,3308,3031,0.010027587,1.250056928,1.253448375,0.349065840244,4500.0,0.359861701727,-0.00339183933102,0.0107958512381,-48.5813293457,0.0,6000.0,-0.00198362860829,-0.000158216673299,0.0,0.0,0.349065840244,0.0265011657029,-0.00426706345752,0.320719987154,0.00491824606434,0.00491824606434,-0.00585754960775,0.0161139443517,156.294631958,156.294631958,0.620319008827,106.474632263,2026,2028,2540,2035,2035,2937,3429,3429,3248,3369,3095,3067,3167,3160,3249,2865,3416,3423,3257,3373,3144,3360,3392,3197
1508410488565334320,126,1508410488564717598,plot_matl,-0.300000011921,-2000.0,-0.266778856516,-0.00098819041159,0.0332211591303,66.2104949951,0.349065840244,0.0107958512381,-0.00198281556368,-0.266762912273,-0.00155779207125,-0.00155779207125,-0.000171384090208,-0.00130669854116,-0.414663881063,-0.414663881063,-0.223083391786,-95.4057388306,2009,2051,2093,2028,2028,2753,3333,3351,3163,3301,3021,2981,3067,3084,3170,2888,3378,3373,3201,3275,2921,3281,3308,3031,0.010028168,1.260084049,1.263549168,0.349065840244,4500.0,0.359861701727,-0.00322693749331,0.0107958512381,-48.5813293457,0.0,6000.0,-0.00198539462872,-0.000129609165015,0.0,0.0,0.349065840244,0.0265011657029,-0.00426706345752,0.320719987154,0.00491824606434,0.00491824606434,-0.00585754960775,0.0161139443517,156.294631958,156.294631958,0.620319008827,106.474632263,2020,2022,2540,2035,2035,2937,3429,3429,3248,3369,3095,3065,3166,3159,3248,2866,3413,3423,3258,3373,3145,3360,3392,3197
1508410488575089280,127,1508410488574633512,plot_matl,-0.300000011921,-2000.0,-0.266772180796,-0.00112589320634,0.0332278162241,66.185798645,0.349065840244,0.0107958512381,-0.00198281556368,-0.266762912273,-0.00155779207125,-0.00155779207125,-0.000171384090208,-0.00130669854116,-0.414663881063,-0.414663881063,-0.223083391786,-95.4057388306,2027,2062,2093,2026,2026,2750,3336,3351,3163,3301,3021,2981,3067,3084,3170,2888,3378,3373,3201,3275,2921,3281,3308,3031,0.009913793,1.269999416,1.259051711,0.349065840244,4500.0,0.359861701727,-0.00454486906528,0.0107958512381,-48.5813293457,0.0,6000.0,-0.00198684912175,-0.000106051804323,0.0,0.0,0.349065840244,0.0265011657029,-0.00426706345752,0.320719987154,0.00491824606434,0.00491824606434,-0.00585754960775,0.0161139443517,156.294631958,156.294631958,0.620319008827,106.474632263,2022,2028,2540,2035,2035,2938,3431,3429,3248,3369,3095,3065,3166,3159,3248,2866,3413,3423,3258,3373,3145,3361,3392,3197
1508410488585109720,128,1508410488584682702,plot_matl,-0.300000011921,-2000.0,-0.266786575317,-0.000835945480503,0.0332134217024,66.2339630127,0.349065840244,0.0107958512381,-0.00198281556368,-0.266762912273,-0.00155779207125,-0.00155779207125,-0.000171384090208,-0.00130669854116,-0.414663881063,-0.414663881063,-0.223083391786,-95.4057388306,2030,2062,2093,2026,2026,2750,3336,3351,3163,3301,3020,2980,3066,3084,3169,2888,3377,3371,3200,3275,2921,3281,3308,3031,0.010049406,1.280048957,1.286323968,0.349065840244,4500.0,0.359861701727,-0.00372168119065,0.0107958512381,-48.5813293457,0.0,6000.0,-0.00198803492822,-8.68432107382e-05,0.0,0.0,0.349065840244,0.0265011657029,-0.00426706345752,0.320719987154,0.00491824606434,0.00491824606434,-0.00585754960775,0.0161139443517,156.294631958,156.294631958,0.620319008827,106.474632263,2014,2014,2540,2035,2035,2938,3431,3429,3248,3368,3094,3067,3166,3156,3246,2864,3414,3421,3255,3373,3145,3361,3392,3197
1508410488595162233,129,1508410488594705317,plot_matl,-0.300000011921,-2000.0,-0.266786575317,-0.000835945480503,0.0332134217024,66.2339630127,0.349065840244,0.0107958512381,-0.00198864005506,-0.266783088446,-0.00140305061359,-0.00140305061359,-7.70402184571e-05,-0.000905878900085,-0.348359584808,-0.348359584808,-0.384321808815,-95.7389450073,2026,2071,2093,2027,2027,2751,3335,3351,3163,3301,3020,2980,3066,3084,3169,2888,3377,3371,3200,3273,2922,3280,3310,3031,0.010023306,1.290072229,1.293006474,0.349065840244,4500.0,0.361211180687,0.024144327268,0.0121453320608,-54.6539955139,0.0,6000.0,-0.00198900722899,-7.10927415639e-05,0.0,0.0,0.349065840244,0.0265011657029,-0.00420150207356,0.320798486471,0.00461868196726,0.00461868196726,-0.00718020880595,0.0144853293896,156.324295044,156.324295044,0.579249799252,106.638389587,2023,2023,2541,2036,2036,2937,3429,3429,3248,3368,3094,3067,3166,3156,3246,2864,3414,3421,3255,3373,3143,3357,3393,3196
1508410488604935884,130,1508410488604630742,plot_matl,-0.300000011921,-2000.0,-0.266788423061,-0.000797206826974,0.0332115776837,66.2263259888,0.349065840244,0.0107958512381,-0.00198864005506,-0.266783088446,-0.00140305061359,-0.00140305061359,-7.70402184571e-05,-0.000905878900085,-0.348359584808,-0.348359584808,-0.384321808815,-95.7389450073,2018,2055,2093,2027,2027,2751,3335,3351,3162,3302,3021,2979,3066,3084,3168,2886,3376,3371,3200,3273,2922,3280,3310,3031,0.009922899,1.29999642,1.28997687,0.349065840244,4500.0,0.359861701727,-0.00351532991044,0.0107958512381,-48.5813293457,0.0,6000.0,-0.00197775894776,-0.000288876501145,0.0,0.0,0.349065840244,0.0265011657029,-0.00420150207356,0.320798486471,0.00461868196726,0.00461868196726,-0.00718020880595,0.0144853293896,156.324295044,156.324295044,0.579249799252,106.638389587,2022,2022,2541,2036,2036,2937,3429,3429,3246,3368,3094,3062,3164,3156,3246,2866,3416,3421,3255,3373,3143,3357,3393,3196
1508410488615028543,131,1508410488614634585,plot_matl,-0.300000011921,-2000.0,-0.266789913177,-0.000768498808611,0.033210080117,66.2349777222,0.349065840244,0.0107958512381,-0.00198864005506,-0.266783088446,-0.00140305061359,-0.00140305061359,-7.70402184571e-05,-0.000905878900085,-0.348359584808,-0.348359584808,-0.384321808815,-95.7389450073,2029,2057,2093,2029,2029,2751,3335,3351,3162,3302,3021,2979,3066,3084,3168,2886,3376,3371,3199,3274,2920,3283,3309,3030,0.010004544,1.310000839,1.310595264,0.349065840244,4500.0,0.359861701727,-0.00485896784812,0.0107958512381,-48.5813293457,0.0,6000.0,-0.0019917213358,-9.7714137155e-06,0.0,0.0,0.349065840244,0.0265011657029,-0.00420150207356,0.320798486471,0.00461868196726,0.00461868196726,-0.00718020880595,0.0144853293896,156.324295044,156.324295044,0.579249799252,106.638389587,2031,2028,2540,2035,2035,2937,3429,3429,3246,3368,3094,3062,3164,3156,3246,2866,3416,3421,3257,3372,3142,3359,3390,3195
1508410488625040940,132,1508410488624638718,plot_matl,-0.300000011921,-2000.0,-0.266789913177,-0.000768498808611,0.033210080117,66.2349777222,0.349065840244,0.0107958512381,-0.00198864005506,-0.266783088446,-0.00140305061359,-0.00140305061359,-7.70402184571e-05,-0.000905878900085,-0.348359584808,-0.348359584808,-0.384321808815,-95.7389450073,2016,2039,2093,2029,2029,2753,3331,3353,3163,3301,3021,2979,3065,3085,3171,2886,3376,3371,3199,3274,2920,3283,3309,3030,0.010003016,1.320004657,1.320398112,0.349065840244,4500.0,0.359861701727,-0.00646208180115,0.0107958512381,-48.5813293457,0.0,6000.0,-0.00199202424847,-8.00477573648e-06,0.0,0.0,0.349065840244,0.0265011657029,-0.00420150207356,0.320798486471,0.00461868196726,0.00461868196726,-0.00718020880595,0.0144853293896,156.324295044,156.324295044,0.579249799252,106.638389587,2028,2027,2540,2035,2035,2936,3428,3428,3247,3368,3095,3065,3165,3158,3247,2866,3416,3421,3257,3372,3142,3359,3390,3195
1508410488634966495,133,1508410488634645833,plot_matl,-0.300000011921,-2000.0,-0.266774326563,-0.00108801096212,0.0332256630063,66.1960067749,0.349065840244,0.0121453320608,-0.00199217931367,-0.266783118248,0.00974566955119,0.00974566955119,-7.09989808456e-06,-0.000906608358491,-0.425171077251,-0.425171077251,-0.509628653526,-96.1109466553,2010,2048,2092,2029,2029,2753,3331,3353,3163,3301,3021,2979,3065,3085,3171,2888,3376,3370,3200,3275,2923,3280,3310,3030,0.010007916,1.330012178,1.331052828,0.349065840244,4500.0,0.359861701727,-0.00768914446235,0.0107958512381,-48.5813293457,0.0,6000.0,-0.00199298327789,2.34363574236e-06,0.0,0.0,0.349065840244,0.0265011657029,-0.00413326220587,0.320738047361,0.00593372713774,0.00593372713774,0.0067697125487,0.0156328938901,156.243057251,156.243057251,0.187758773565,106.864097595,2032,2032,2539,2035,2035,2936,3428,3428,3247,3368,3095,3065,3165,3158,3247,2866,3414,3421,3257,3372,3144,3358,3392,3194
1508410488645095361,134,1508410488644642690,plot_matl,-0.300000011921,-2000.0,-0.266774326563,-0.00108801096212,0.0332256630063,66.1960067749,0.349065840244,0.0121453320608,-0.00199217931367,-0.266783118248,0.00974566955119,0.00974566955119,-7.09989808456e-06,-0.000906608358491,-0.425171077251,-0.425171077251,-0.509628653526,-96.1109466553,2015,2044,2092,2029,2029,2752,3332,3351,3164,3301,3020,2981,3064,3085,3171,2888,3376,3370,3200,3275,2923,3280,3310,3030,0.009995769,1.340008834,1.339433046,0.349065840244,4500.0,0.359861701727,-0.00820835586637,0.0107958512381,-48.5813293457,0.0,6000.0,-0.00199305848219,1.91654839909e-06,0.0,0.0,0.349065840244,0.0265011657029,-0.00413326220587,0.320738047361,0.00593372713774,0.00593372713774,0.0067697125487,0.0156328938901,156.243057251,156.243057251,0.187758773565,106.864097595,2024,2021,2539,2041,2041,2938,3431,3429,3248,3368,3094,3063,3165,3158,3247,2866,3414,3421,3257,3372,3144,3358,3392,3194
1508410488655037263,135,1508410488654655618,plot_matl,-0.300000011921,-2000.0,-0.266773372889,-0.00111052684952,0.0332266278565,66.1702728271,0.349065840244,0.0121453320608,-0.00199217931367,-0.266783118248,0.00974566955119,0.00974566955119,-7.09989808456e-06,-0.000906608358491,-0.425171077251,-0.425171077251,-0.509628653526,-96.1109466553,2014,2043,2092,2029,2029,2752,3332,3351,3164,3301,3020,2981,3064,3084,3170,2889,3374,3371,3200,3273,2920,3282,3310,3030,0.010014161,1.350022474,1.351911735,0.349065840244,4500.0,0.359861701727,-0.00672184629366,0.0107958512381,-48.5813293457,0.0,6000.0,-0.00199311948381,1.56985583999e-06,0.0,0.0,0.349065840244,0.0265011657029,-0.00413326220587,0.320738047361,0.00593372713774,0.00593372713774,0.0067697125487,0.0156328938901,156.243057251,156.243057251,0.187758773565,106.864097595,2025,2023,2539,2041,2041,2938,3431,3429,3248,3368,3094,3063,3165,3156,3247,2863,3414,3421,3256,3373,3144,3358,3391,3194
1508410488665021672,136,1508410488664655852,plot_matl,-0.300000011921,-2000.0,-0.266780912876,-0.000963658909313,0.0332190990448,66.2123260498,0.349065840244,0.0121453320608,-0.00199217931367,-0.266783118248,0.00974566955119,0.00974566955119,-7.09989808456e-06,-0.000906608358491,-0.425171077251,-0.425171077251,-0.509628653526,-96.1109466553,2010,2051,2093,2025,2025,2751,3333,3352,3161,3298,3019,2981,3064,3084,3170,2889,3374,3371,3200,3273,2920,3282,3310,3030,0.009997778,1.360021952,1.359697808,0.349065840244,4500.0,0.359861701727,-0.00551888067275,0.0107958512381,-48.5813293457,0.0,6000.0,-0.00199316977523,1.28498311369e-06,0.0,0.0,0.349065840244,0.0265011657029,-0.00413326220587,0.320738047361,0.00593372713774,0.00593372713774,0.0067697125487,0.0156328938901,156.243057251,156.243057251,0.187758773565,106.864097595,2022,2021,2540,2037,2037,2937,3427,3429,3247,3368,3096,3063,3165,3156,3247,2863,3414,3421,3256,3373,3144,3358,3391,3194
1508410488675039516,137,1508410488674652574,plot_matl,-0.300000011921,-2000.0,-0.266778826714,-0.00101379037369,0.0332211665809,66.1988677979,0.349065840244,0.0107958512381,-0.00199315068312,-0.266782969236,-0.00299225770868,-0.00299225770868,1.3933987475e-06,-0.000917989178561,-0.655451536179,-0.655451536179,-0.370998561382,-96.348991394,2021,2056,2093,2025,2025,2751,3333,3352,3161,3298,3019,2980,3067,3084,3170,2889,3376,3371,3201,3274,2920,3282,3310,3030,0.009997444,1.3700194,1.369649828,0.349065840244,4500.0,0.359861701727,-0.00551888067275,0.0107958512381,-48.5813293457,0.0,6000.0,-0.00198178878054,-0.000231890822761,0.0,0.0,0.349065840244,0.0265011657029,-0.00418072100729,0.321066409349,0.00411758432165,0.00411758432165,-0.00760496407747,0.00900795497,156.153213501,156.153213501,-0.0218488480896,107.013999939,2016,2015,2540,2037,2037,2937,3427,3429,3247,3368,3096,3065,3166,3158,3247,2866,3414,3421,3258,3371,3144,3358,3391,3194
1508410488685045453,138,1508410488684644414,plot_matl,-0.300000011921,-2000.0,-0.26676607132,0.00470473337919,0.0332339406013,67.6438980103,0.349065840244,0.0107958512381,-0.00199315068312,-0.266782969236,-0.00299225770868,-0.00299225770868,1.3933987475e-06,-0.000917989178561,-0.655451536179,-0.655451536179,-0.370998561382,-96.348991394,2026,2067,2093,2026,2026,2752,3332,3353,3164,3298,3019,2980,3067,3084,3170,2889,3376,3371,3201,3274,2920,3282,3309,3031,0.009990361,1.380010524,1.378669818,0.349065840244,4500.0,0.359861701727,-0.00580750731751,0.0107958512381,-48.5813293457,0.0,6000.0,-0.0019715745002,-0.000431462482084,0.0,0.0,0.349065840244,0.0265011657029,-0.00418072100729,0.321066409349,0.00411758432165,0.00411758432165,-0.00760496407747,0.00900795497,156.153213501,156.153213501,-0.0218488480896,107.013999939,2016,2022,2541,2038,2038,2937,3430,3428,3246,3368,3096,3065,3166,3158,3247,2866,3414,3421,3258,3371,3144,3357,3392,3196
1508410488695087402,139,1508410488694638314,plot_matl,-0.300000011921,-2000.0,-0.26676607132,0.00470473337919,0.0332339406013,67.6438980103,0.349065840244,0.0107958512381,-0.00199315068312,-0.266782969236,-0.00299225770868,-0.00299225770868,1.3933987475e-06,-0.000917989178561,-0.655451536179,-0.655451536179,-0.370998561382,-96.348991394,2017,2058,2093,2026,2026,2752,3332,3353,3164,3301,3020,2982,3066,3085,3168,2888,3375,3371,3200,3274,2920,3282,3309,3031,0.009993119,1.390004058,1.389043541,0.349065840244,4500.0,0.359861701727,-0.00580750731751,0.0107958512381,-48.5813293457,0.0,6000.0,-0.0019715745002,-0.000431462482084,0.0,0.0,0.349065840244,0.0265011657029,-0.00418072100729,0.321066409349,0.00411758432165,0.00411758432165,-0.00760496407747,0.00900795497,156.153213501,156.153213501,-0.0218488480896,107.013999939,2023,2020,2541,2038,2038,2937,3430,3428,3246,3367,3096,3064,3166,3158,3245,2866,3414,3420,3254,3371,3144,3357,3392,3196
1508410488704933927,140,1508410488704656349,plot_matl,-0.300000011921,-2000.0,-0.2667504251,-0.00158273125999,0.0332495868206,66.1292037964,0.349065840244,0.0107958512381,-0.00199315068312,-0.266782969236,-0.00299225770868,-0.00299225770868,1.3933987475e-06,-0.000917989178561,-0.655451536179,-0.655451536179,-0.370998561382,-96.348991394,2017,2054,2092,2024,2024,2751,3331,3353,3164,3301,3020,2982,3066,3085,3168,2888,3375,3371,3200,3274,2919,3283,3310,3027,0.010019478,1.40002305,1.40272692,0.349065840244,4500.0,0.359861701727,-0.0047378889285,0.0107958512381,-48.5813293457,0.0,6000.0,-0.00197552563623,-0.000353337585693,0.0,0.0,0.349065840244,0.0265011657029,-0.00418072100729,0.321066409349,0.00411758432165,0.00411758432165,-0.00760496407747,0.00900795497,156.153213501,156.153213501,-0.0218488480896,107.013999939,2023,2017,2541,2036,2036,2937,3429,3428,3246,3367,3096,3064,3166,3158,3245,2866,3414,3420,3254,3374,3142,3359,3391,3195
1508410488715142014,141,1508410488714685945,plot_matl,-0.300000011921,-2000.0,-0.266742229462,-0.00174029951449,0.0332577601075,66.1142654419,0.349065840244,0.0121453320608,-0.00197753822431,-0.266747862101,0.0110073937103,0.0110073937103,-0.000313544966048,-0.00163181731477,-0.680411100388,-0.680411100388,-0.279688537121,-96.2409057617,2021,2066,2092,2024,2024,2751,3331,3354,3161,3300,3021,2980,3066,3084,3170,2887,3376,3371,3200,3274,2919,3283,3310,3027,0.010029265,1.410052521,1.414126365,0.349065840244,4500.0,0.359861701727,-0.00535701308399,0.0107958512381,-48.5813293457,0.0,6000.0,-0.0019787736237,-0.000289120158413,0.0,0.0,0.349065840244,0.0265011657029,-0.00416797539219,0.32151478529,0.00279000517912,0.00279000517912,0.00747400894761,-6.50033180136e-05,156.270065308,156.270065308,-0.136667743325,106.980918884,2024,2025,2541,2036,2036,2937,3429,3429,3246,3368,3094,3063,3165,3158,3248,2865,3414,3420,3254,3374,3142,3359,3391,3195
1508410488724924810,142,1508410488724638615,plot_matl,-0.300000011921,-2000.0,-0.266736954451,0.00412510707974,0.0332630388439,67.5094985962,0.349065840244,0.0121453320608,-0.00197753822431,-0.266747862101,0.0110073937103,0.0110073937103,-0.000313544966048,-0.00163181731477,-0.680411100388,-0.680411100388,-0.279688537121,-96.2409057617,2005,2058,2094,2025,2025,2751,3331,3354,3161,3300,3021,2980,3066,3084,3170,2887,3376,3370,3201,3273,2922,3282,3309,3029,0.009950714,1.42000464,1.413001388,0.349065840244,4500.0,0.359861701727,-0.00439112121239,0.0107958512381,-48.5813293457,0.0,6000.0,-0.00198141019791,-0.000236990570556,0.0,0.0,0.349065840244,0.0265011657029,-0.00416797539219,0.32151478529,0.00279000517912,0.00279000517912,0.00747400894761,-6.50033180136e-05,156.270065308,156.270065308,-0.136667743325,106.980918884,2025,2030,2541,2039,2039,2937,3429,3429,3246,3368,3094,3063,3165,3158,3248,2865,3414,3421,3258,3372,3143,3360,3393,3194
1508410488735009351,143,1508410488734632804,plot_matl,-0.300000011921,-2000.0,-0.266734004021,-0.00190587504767,0.0332660079002,66.1011047363,0.349065840244,0.0121453320608,-0.00197753822431,-0.266747862101,0.0110073937103,0.0110073937103,-0.000313544966048,-0.00163181731477,-0.680411100388,-0.680411100388,-0.279688537121,-96.2409057617,2008,2046,2094,2025,2025,2750,3332,3351,3160,3300,3020,2981,3066,3084,3169,2887,3376,3370,3201,3273,2922,3282,3309,3029,0.009994166,1.429999006,1.429165738,0.349065840244,4500.0,0.359861701727,-0.00386175792664,0.0107958512381,-48.5813293457,0.0,6000.0,-0.00198536855169,-0.000158726325026,0.0,0.0,0.349065840244,0.0265011657029,-0.00416797539219,0.32151478529,0.00279000517912,0.00279000517912,0.00747400894761,-6.50033180136e-05,156.270065308,156.270065308,-0.136667743325,106.980918884,2025,2030,2541,2039,2039,2937,3429,3431,3248,3368,3095,3065,3165,3158,3248,2865,3414,3421,3258,3372,3143,3360,3393,3194
1508410488745062741,144,1508410488744666843,plot_matl,-0.300000011921,-2000.0,-0.266740560532,-0.00177814299241,0.0332594402134,66.1058959961,0.349065840244,0.0121453320608,-0.00197753822431,-0.266747862101,0.0110073937103,0.0110073937103,-0.000313544966048,-0.00163181731477,-0.680411100388,-0.680411100388,-0.279688537121,-96.2409057617,2033,2051,2093,2025,2025,2750,3332,3351,3160,3300,3020,2981,3066,3084,3169,2888,3376,3371,3199,3275,2921,3279,3309,3029,0.010034389,1.440033278,1.444952016,0.349065840244,4500.0,0.359861701727,-0.0041760574095,0.0107958512381,-48.5813293457,0.0,6000.0,-0.00198682560585,-0.000129915119032,0.0,0.0,0.349065840244,0.0265011657029,-0.00416797539219,0.32151478529,0.00279000517912,0.00279000517912,0.00747400894761,-6.50033180136e-05,156.270065308,156.270065308,-0.136667743325,106.980918884,2031,2021,2539,2039,2039,2937,3429,3431,3248,3368,3095,3065,3165,3158,3248,2863,3413,3420,3256,3371,3142,3358,3392,3194
1508410488754924516,145,1508410488754644657,plot_matl,-0.300000011921,-2000.0,-0.266740560532,-0.00177814299241,0.0332594402134,66.1058959961,0.349065840244,0.0107958512381,-0.0019862758927,-0.266739159822,-0.00198320555501,-0.00198320555501,-0.000140786229167,-0.00180199625902,-0.488325834274,-0.488325834274,-0.409801512957,-96.3173675537,2028,2046,2093,2027,2027,2749,3332,3353,3162,3302,3021,2980,3068,3084,3169,2888,3376,3371,3199,3275,2921,3279,3309,3029,0.009977037,1.450010731,1.446670365,0.349065840244,4500.0,0.359861701727,-0.0041760574095,0.0107958512381,-48.5813293457,0.0,6000.0,-0.00198682560585,-0.000129915119032,0.0,0.0,0.349065840244,0.0265011657029,-0.00428181840107,0.321118324995,0.00281353364699,0.00281353364699,-0.0055768485181,0.00776367587969,156.168380737,156.168380737,-0.411202341318,107.416671753,2025,2023,2539,2039,2039,2937,3429,3430,3248,3368,3093,3063,3166,3158,3248,2863,3413,3420,3256,3371,3142,3358,3392,3194
1508410488765015527,146,1508410488764666866,plot_matl,-0.300000011921,-2000.0,-0.266710191965,-0.00239523733035,0.0332898050547,66.0173721313,0.349065840244,0.0107958512381,-0.0019862758927,-0.266739159822,-0.00198320555501,-0.00198320555501,-0.000140786229167,-0.00180199625902,-0.488325834274,-0.488325834274,-0.409801512957,-96.3173675537,2024,2062,2093,2027,2027,2749,3332,3353,3162,3302,3021,2980,3068,3086,3184,2901,3387,3383,3210,3284,2926,3288,3317,3029,0.01002265,1.460033417,1.4633069,0.349065840244,4500.0,0.359861701727,-0.00538570946082,0.0107958512381,-48.5813293457,0.0,6000.0,-0.00198864331469,-9.39780438785e-05,0.0,0.0,0.349065840244,0.0265011657029,-0.00428181840107,0.321118324995,0.00281353364699,0.00281353364699,-0.0055768485181,0.00776367587969,156.168380737,156.168380737,-0.411202341318,107.416671753,2022,2018,2539,2039,2039,2937,3429,3430,3248,3368,3093,3063,3166,3157,3261,2876,3424,3430,3264,3381,3150,3367,3399,3194
1508410488775050099,147,1508410488774643307,plot_matl,-0.300000011921,-2000.0,-0.266715735197,-0.00228698877618,0.0332842543721,66.0090332031,0.349065840244,0.0107958512381,-0.0019862758927,-0.266739159822,-0.00198320555501,-0.00198320555501,-0.000140786229167,-0.00180199625902,-0.488325834274,-0.488325834274,-0.409801512957,-96.3173675537,2032,2051,2092,2028,2028,2754,3336,3356,3166,3303,3022,2980,3068,3086,3184,2901,3387,3383,3210,3284,2926,3288,3317,3034,0.009975293,1.470009486,1.466368071,0.349065840244,4500.0,0.359861701727,-0.00394025817513,0.0107958512381,-48.5813293457,0.0,6000.0,-0.00198950362392,-7.69691469031e-05,0.0,0.0,0.349065840244,0.0265011657029,-0.00428181840107,0.321118324995,0.00281353364699,0.00281353364699,-0.0055768485181,0.00776367587969,156.168380737,156.168380737,-0.411202341318,107.416671753,2035,2024,2541,2041,2041,2940,3433,3432,3251,3369,3096,3063,3166,3157,3261,2876,3424,3430,3264,3381,3150,3367,3399,3203
1508410488785034227,148,1508410488784681532,plot_matl,-0.300000011921,-2000.0,-0.266720205545,-0.00219124415889,0.0332797877491,66.0571289062,0.349065840244,0.0107958512381,-0.0019862758927,-0.266739159822,-0.00198320555501,-0.00198320555501,-0.000140786229167,-0.00180199625902,-0.488325834274,-0.488325834274,-0.409801512957,-96.3173675537,2017,2046,2092,2028,2028,2754,3336,3356,3166,3303,3022,2983,3067,3084,3172,2890,3378,3372,3200,3277,2923,3288,3317,3034,0.010038861,1.480048118,1.485751428,0.349065840244,4500.0,0.358512222767,-0.0299593061209,0.00944636948407,-42.5086631775,0.0,6000.0,-0.00200102571398,0.000157227710588,0.0,0.0,0.349065840244,0.0265011657029,-0.00428181840107,0.321118324995,0.00281353364699,0.00281353364699,-0.0055768485181,0.00776367587969,156.168380737,156.168380737,-0.411202341318,107.416671753,2035,2035,2541,2041,2041,2940,3433,3432,3251,3369,3096,3068,3168,3160,3249,2866,3415,3424,3259,3374,3147,3367,3399,3203
1508410488795025892,149,1508410488794644963,plot_matl,-0.300000011921,-2000.0,-0.266718059778,0.00374858034775,0.0332819335163,67.4445037842,0.349065840244,0.00944636948407,-0.00200102571398,-0.266720205545,-0.0149796530604,-0.0149796530604,0.000157227710588,-0.00219124415889,-0.487442135811,-0.487442135811,-0.410065978765,-95.7851333618,2011,2051,2094,2029,2029,2751,3333,3355,3163,3303,3022,2983,3067,3084,3172,2890,3378,3372,3200,3277,2923,3283,3307,3027,0.009963522,1.490011529,1.484564778,0.349065840244,4500.0,0.358512222767,-0.0299593061209,0.00944636948407,-42.5086631775,0.0,6000.0,-0.00200102571398,0.000157227710588,0.0,0.0,0.349065840244,0.0265011657029,-0.00422107568011,0.32129496336,0.00182295229752,0.00182295229752,0.00894929748029,0.00217739958316,156.010437012,156.010437012,-0.787086725235,106.668167114,2019,2026,2541,2039,2039,2938,3429,3429,3250,3369,3096,3068,3168,3160,3249,2866,3415,3424,3259,3374,3147,3360,3393,3195
1508410488805038559,150,1508410488804641414,plot_matl,-0.300000011921,-2000.0,-0.266718059778,0.00374858034775,0.0332819335163,67.4445037842,0.349065840244,0.00944636948407,-0.00200102571398,-0.266720205545,-0.0149796530604,-0.0149796530604,0.000157227710588,-0.00219124415889,-0.487442135811,-0.487442135811,-0.410065978765,-95.7851333618,2011,2051,2094,2029,2029,2751,3333,3355,3163,3303,3022,2983,3067,3084,3172,2890,3378,3372,3200,3277,2923,3283,3307,3027,0.009995414,1.500008361,1.4993121,0.349065840244,4500.0,0.359861701727,-0.00321573996916,0.0107958512381,-48.5813293457,0.0,6000.0,-0.00199964269996,0.000128724728711,0.0,0.0,0.349065840244,0.0265011657029,-0.00422107568011,0.32129496336,0.00182295229752,0.00182295229752,0.00894929748029,0.00217739958316,156.010437012,156.010437012,-0.787086725235,106.668167114,2019,2026,2541,2039,2039,2938,3429,3429,3250,3369,3096,3068,3168,3160,3249,2866,3415,3424,3259,3374,3147,3360,3393,3195
1508410488815192182,151,1508410488814688775,plot_matl,-0.300000011921,-2000.0,-0.266728520393,0.00395166268572,0.0332714915276,67.4692764282,0.349065840244,0.00944636948407,-0.00200102571398,-0.266720205545,-0.0149796530604,-0.0149796530604,0.000157227710588,-0.00219124415889,-0.487442135811,-0.487442135811,-0.410065978765,-95.7851333618,2023,2057,2092,2030,2030,2750,3335,3355,3163,3302,3019,2980,3067,3084,3170,2888,3377,3373,3201,3275,2920,3283,3308,3030,0.010047095,1.510055276,1.517111345,0.349065840244,4500.0,0.359861701727,-0.00494129024446,0.0107958512381,-48.5813293457,0.0,6000.0,-0.00199758657254,8.63543027663e-05,0.0,0.0,0.349065840244,0.0265011657029,-0.00422107568011,0.32129496336,0.00182295229752,0.00182295229752,0.00894929748029,0.00217739958316,156.010437012,156.010437012,-0.787086725235,106.668167114,2023,2023,2541,2037,2037,2937,3429,3429,3250,3369,3096,3064,3165,3159,3246,2864,3415,3422,3256,3373,3144,3359,3393,3195
1508410488825046130,152,1508410488824643687,plot_matl,-0.300000011921,-2000.0,-0.266724854708,0.00388425868005,0.0332751311362,67.4696884155,0.349065840244,0.00944636948407,-0.00200102571398,-0.266720205545,-0.0149796530604,-0.0149796530604,0.000157227710588,-0.00219124415889,-0.487442135811,-0.487442135811,-0.410065978765,-95.7851333618,2019,2049,2092,2030,2030,2750,3335,3351,3163,3298,3020,2979,3066,3082,3170,2889,3378,3373,3201,3275,2920,3283,3308,3030,0.009954641,1.520010338,1.513105432,0.349065840244,4500.0,0.359861701727,-0.0050494056195,0.0107958512381,-48.5813293457,0.0,6000.0,-0.00197206158191,-0.000425824458944,0.0,0.0,0.349065840244,0.0265011657029,-0.00422107568011,0.32129496336,0.00182295229752,0.00182295229752,0.00894929748029,0.00217739958316,156.010437012,156.010437012,-0.787086725235,106.668167114,2025,2019,2541,2037,2037,2937,3429,3428,3247,3368,3093,3064,3166,3158,3248,2865,3414,3422,3256,3373,3144,3359,3393,3195
1508410488835143726,153,1508410488834673023,plot_matl,-0.300000011921,-2000.0,-0.266722887754,0.00384132075123,0.0332771129906,67.49974823,0.349065840244,0.0107958512381,-0.00197206158191,-0.266724854708,-0.00252470280975,-0.00252470280975,-0.000425824458944,0.00388425868005,-0.241503894329,-0.241503894329,-0.544909536839,-95.4645843506,2020,2060,2092,2028,2028,2750,3335,3351,3163,3298,3020,2979,3066,3082,3170,2889,3378,3373,3202,3276,2920,3281,3310,3029,0.010029887,1.530040244,1.534572711,0.349065840244,4500.0,0.359861701727,-0.00568683631718,0.0107958512381,-48.5813293457,0.0,6000.0,-0.00197593914345,-0.000348432891769,0.0,0.0,0.349065840244,0.0265011657029,-0.00422245031223,0.321186035872,0.00263700354844,0.00263700354844,0.00873996969312,0.00553090404719,155.758636475,155.758636475,-1.14816653728,106.959022522,2017,2021,2540,2038,2038,2937,3429,3428,3247,3368,3093,3064,3166,3158,3248,2865,3414,3420,3256,3371,3144,3357,3391,3197
1508410488845058600,154,1508410488844666918,plot_matl,-0.300000011921,-2000.0,-0.266720443964,0.00379603519104,0.0332795530558,67.4705581665,0.349065840244,0.0107958512381,-0.00197206158191,-0.266724854708,-0.00252470280975,-0.00252470280975,-0.000425824458944,0.00388425868005,-0.241503894329,-0.241503894329,-0.544909536839,-95.4645843506,2019,2058,2092,2028,2028,2750,3334,3353,3162,3298,3020,2979,3066,3083,3169,2889,3378,3373,3202,3276,2920,3281,3310,3029,0.009991519,1.540033217,1.538693926,0.349065840244,4500.0,0.359861701727,-0.00514238933101,0.0107958512381,-48.5813293457,0.0,6000.0,-0.00197910610586,-0.000285221089143,0.0,0.0,0.349065840244,0.0265011657029,-0.00422245031223,0.321186035872,0.00263700354844,0.00263700354844,0.00873996969312,0.00553090404719,155.758636475,155.758636475,-1.14816653728,106.959022522,2015,2021,2540,2038,2038,2938,3429,3429,3249,3369,3096,3063,3164,3160,3245,2865,3414,3420,3256,3371,3144,3357,3391,3197
1508410488855034680,155,1508410488854638918,plot_matl,-0.300000011921,-2000.0,-0.266724765301,0.00387953803875,0.0332752466202,67.4168777466,0.349065840244,0.0107958512381,-0.00197206158191,-0.266724854708,-0.00252470280975,-0.00252470280975,-0.000425824458944,0.00388425868005,-0.241503894329,-0.241503894329,-0.544909536839,-95.4645843506,2010,2053,2092,2028,2028,2750,3334,3353,3162,3298,3020,2979,3066,3083,3169,2889,3376,3372,3200,3273,2919,3283,3306,3028,0.009971103,1.550004717,1.545520965,0.349065840244,4500.0,0.361211180687,0.0215266868472,0.0121453320608,-54.6539955139,0.0,6000.0,-0.00198168936186,-0.000233659666264,0.0,0.0,0.349065840244,0.0265011657029,-0.00422245031223,0.321186035872,0.00263700354844,0.00263700354844,0.00873996969312,0.00553090404719,155.758636475,155.758636475,-1.14816653728,106.959022522,2024,2024,2540,2038,2038,2938,3429,3429,3249,3369,3096,3063,3164,3160,3245,2864,3415,3422,3257,3374,3142,3359,3392,3195
1508410488865150296,156,1508410488864669211,plot_matl,-0.300000011921,-2000.0,-0.266727030277,0.00392997963354,0.0332729667425,67.4870529175,0.349065840244,0.0107958512381,-0.00197206158191,-0.266724854708,-0.00252470280975,-0.00252470280975,-0.000425824458944,0.00388425868005,-0.241503894329,-0.241503894329,-0.544909536839,-95.4645843506,2023,2039,2092,2029,2029,2751,3333,3352,3163,3299,3018,2981,3065,3083,3169,2889,3376,3372,3200,3273,2919,3283,3306,3028,0.010031476,1.560035696,1.564910256,0.349065840244,4500.0,0.359861701727,-0.00672042742372,0.0107958512381,-48.5813293457,0.0,6000.0,-0.00197151303291,-0.000435293157352,0.0,0.0,0.349065840244,0.0265011657029,-0.00422245031223,0.321186035872,0.00263700354844,0.00263700354844,0.00873996969312,0.00553090404719,155.758636475,155.758636475,-1.14816653728,106.959022522,2029,2018,2540,2036,2036,2937,3429,3431,3247,3367,3095,3065,3166,3160,3245,2864,3415,3422,3257,3374,3142,3359,3392,3195
1508410488874989355,157,1508410488874643546,plot_matl,-0.300000011921,-2000.0,-0.266724854708,-0.00209256494418,0.0332751460373,66.0548171997,0.349065840244,0.0107958512381,-0.00197151303291,-0.266727030277,-0.00336021371186,-0.00336021371186,-0.000435293157352,0.00392997963354,0.146400362253,0.146400362253,-0.438110083342,-95.349319458,2026,2047,2092,2029,2029,2751,3333,3352,3163,3299,3018,2981,3065,3086,3168,2890,3375,3370,3202,3273,2919,3279,3310,3028,0.009972667,1.570009586,1.565708719,0.349065840244,4500.0,0.359861701727,-0.00600293837488,0.0107958512381,-48.5813293457,0.0,6000.0,-0.00197548116557,-0.00035635905806,0.0,0.0,0.349065840244,0.0265011657029,-0.00419299770147,0.320884555578,0.00282507296652,0.00282507296652,-0.00730206398293,-0.0496112219989,155.968765259,155.968765259,-0.812205255032,106.71685791,2028,2020,2540,2036,2036,2937,3429,3431,3247,3367,3095,3065,3166,3159,3247,2865,3415,3420,3257,3371,3142,3358,3391,3195
1508410488885204642,158,1508410488884678564,plot_matl,-0.300000011921,-2000.0,-0.266722291708,-0.00215030787513,0.0332777015865,66.0330734253,0.349065840244,0.0107958512381,-0.00197151303291,-0.266727030277,-0.00336021371186,-0.00336021371186,-0.000435293157352,0.00392997963354,0.146400362253,0.146400362253,-0.438110083342,-95.349319458,2014,2035,2093,2026,2026,2752,3335,3351,3162,3301,3021,2981,3065,3086,3168,2890,3375,3370,3202,3273,2919,3279,3310,3028,0.010036592,1.580044959,1.585781536,0.349065840244,4500.0,0.361211180687,0.0208700820804,0.0121453320608,-54.6539955139,0.0,6000.0,-0.00197874917649,-0.000291353440844,0.0,0.0,0.349065840244,0.0265011657029,-0.00419299770147,0.320884555578,0.00282507296652,0.00282507296652,-0.00730206398293,-0.0496112219989,155.968765259,155.968765259,-0.812205255032,106.71685791,2029,2021,2540,2036,2036,2938,3429,3429,3248,3366,3094,3065,3166,3159,3247,2865,3415,3420,3257,3371,3142,3358,3391,3195
1508410488895246927,159,1508410488894652349,plot_matl,-0.300000011921,-2000.0,-0.266722291708,-0.00215030787513,0.0332777015865,66.0330734253,0.349065840244,0.0107958512381,-0.00197151303291,-0.266727030277,-0.00336021371186,-0.00336021371186,-0.000435293157352,0.00392997963354,0.146400362253,0.146400362253,-0.438110083342,-95.349319458,2014,2035,2093,2026,2026,2752,3335,3351,3162,3301,3021,2981,3065,3086,3168,2890,3375,3370,3202,3273,2919,3279,3310,3028,0.009971855,1.590018283,1.585524945,0.349065840244,4500.0,0.361211180687,0.0208700820804,0.0121453320608,-54.6539955139,0.0,6000.0,-0.00198139483109,-0.000238731241552,0.0,0.0,0.349065840244,0.0265011657029,-0.00419299770147,0.320884555578,0.00282507296652,0.00282507296652,-0.00730206398293,-0.0496112219989,155.968765259,155.968765259,-0.812205255032,106.71685791,2029,2021,2540,2036,2036,2938,3429,3429,3248,3366,3094,3065,3166,3159,3247,2865,3415,3420,3257,3371,3142,3358,3391,3195
1508410488905065650,160,1508410488904650233,plot_matl,-0.300000011921,-2000.0,-0.266748070717,-0.00162638013717,0.0332519263029,66.1045913696,0.349065840244,0.0107958512381,-0.00197151303291,-0.266727030277,-0.00336021371186,-0.00336021371186,-0.000435293157352,0.00392997963354,0.146400362253,0.146400362253,-0.438110083342,-95.349319458,2014,2048,2093,2026,2026,2752,3335,3351,3162,3301,3021,2981,3067,3085,3169,2888,3377,3371,3203,3274,2920,3279,3310,3028,0.00999804,1.600016849,1.5996864,0.349065840244,4500.0,0.361211180687,0.0208700820804,0.0121453320608,-54.6539955139,0.0,6000.0,-0.00198139483109,-0.000238731241552,0.0,0.0,0.349065840244,0.0265011657029,-0.00419299770147,0.320884555578,0.00282507296652,0.00282507296652,-0.00730206398293,-0.0496112219989,155.968765259,155.968765259,-0.812205255032,106.71685791,2030,2035,2540,2036,2036,2938,3429,3429,3248,3366,3094,3064,3164,3159,3248,2865,3415,3421,3257,3372,3143,3358,3391,3195
1508410488915150170,161,1508410488914673169,plot_matl,-0.300000011921,-2000.0,-0.266751259565,0.00441399915144,0.0332487300038,67.5560836792,0.349065840244,0.0107958512381,-0.00198357272893,-0.266748070717,-0.00275183538906,-0.00275183538906,-0.000195409113076,-0.00162638013717,0.433787167072,0.433787167072,-0.843864440918,-95.5668182373,2030,2050,2093,2025,2025,2751,3333,3353,3163,3300,3021,2979,3066,3082,3169,2887,3376,3372,3201,3274,2920,3281,3305,3028,0.010023077,1.610039704,1.613715397,0.349065840244,4500.0,0.358512222767,-0.0327074639499,0.00944636948407,-42.5086631775,0.0,6000.0,-0.00198535015807,-0.000160051582498,0.0,0.0,0.349065840244,0.0240919683129,-0.004232771229,0.320828914642,-0.0195423290133,-0.0195423290133,-0.00653839157894,0.0134403584525,155.977142334,155.977142334,-0.0642046332359,106.88924408,2029,2020,2541,2033,2033,2938,3431,3428,3247,3367,3094,3063,3166,3157,3245,2864,3414,3422,3257,3372,3143,3358,3390,3195
1508410488925122672,162,1508410488924675699,plot_matl,-0.300000011921,-2000.0,-0.266754716635,-0.00149276247248,0.0332452878356,66.117225647,0.349065840244,0.0107958512381,-0.00198357272893,-0.266748070717,-0.00275183538906,-0.00275183538906,-0.000195409113076,-0.00162638013717,0.433787167072,0.433787167072,-0.843864440918,-95.5668182373,2016,2048,2092,2025,2025,2751,3333,3353,3163,3300,3021,2979,3066,3082,3169,2887,3376,3372,3201,3273,2921,3282,3308,3030,0.010001984,1.620042089,1.620321408,0.349065840244,4500.0,0.362560659647,0.0484903864563,0.0134948138148,-60.7266616821,0.0,6000.0,-0.00197457522154,-0.000388660962926,0.0,0.0,0.349065840244,0.0240919683129,-0.004232771229,0.320828914642,-0.0195423290133,-0.0195423290133,-0.00653839157894,0.0134403584525,155.977142334,155.977142334,-0.0642046332359,106.88924408,2023,2021,2541,2033,2033,2937,3429,3428,3247,3367,3094,3063,3166,3157,3245,2864,3414,3422,3257,3373,3142,3358,3391,3196
1508410488935022995,163,1508410488934638027,plot_matl,-0.300000011921,-2000.0,-0.266757547855,-0.0014360860223,0.0332424640656,66.1508560181,0.349065840244,0.0107958512381,-0.00198357272893,-0.266748070717,-0.00275183538906,-0.00275183538906,-0.000195409113076,-0.00162638013717,0.433787167072,0.433787167072,-0.843864440918,-95.5668182373,2016,2055,2092,2025,2025,2751,3333,3351,3162,3301,3019,2979,3066,3083,3170,2888,3376,3372,3201,3273,2921,3282,3308,3030,0.009961005,1.630003906,1.623643815,0.349065840244,4500.0,0.361211180687,0.0202794224024,0.0121453320608,-54.6539955139,0.0,6000.0,-0.0019655295182,-0.000571655924432,0.0,0.0,0.349065840244,0.0240919683129,-0.004232771229,0.320828914642,-0.0195423290133,-0.0195423290133,-0.00653839157894,0.0134403584525,155.977142334,155.977142334,-0.0642046332359,106.88924408,2019,2023,2541,2033,2033,2937,3429,3428,3246,3366,3095,3064,3165,3159,3246,2864,3414,3422,3257,3373,3142,3358,3391,3196
1508410488945117623,164,1508410488944648745,plot_matl,-0.300000011921,-2000.0,-0.266765475273,-0.00127768155653,0.0332345142961,66.1776885986,0.349065840244,0.0107958512381,-0.00198357272893,-0.266748070717,-0.00275183538906,-0.00275183538906,-0.000195409113076,-0.00162638013717,0.433787167072,0.433787167072,-0.843864440918,-95.5668182373,2023,2066,2093,2025,2025,2751,3333,3351,3162,3301,3019,2979,3066,3083,3170,2888,3376,3373,3198,3275,2919,3280,3306,3031,0.010010748,1.640015181,1.641762672,0.349065840244,4500.0,0.359861701727,-0.00614092033356,0.0107958512381,-48.5813293457,0.0,6000.0,-0.0019705768209,-0.000468117214041,0.0,0.0,0.349065840244,0.0240919683129,-0.004232771229,0.320828914642,-0.0195423290133,-0.0195423290133,-0.00653839157894,0.0134403584525,155.977142334,155.977142334,-0.0642046332359,106.88924408,2021,2017,2540,2033,2033,2937,3429,3428,3246,3366,3095,3064,3165,3159,3246,2864,3414,3421,3257,3373,3143,3358,3390,3193
1508410488955068514,165,1508410488954673986,plot_matl,-0.300000011921,-2000.0,-0.266771256924,-0.00115962245036,0.0332287363708,66.1792907715,0.349065840244,0.0107958512381,-0.0019705768209,-0.266765475273,-0.00307046016678,-0.00307046016678,-0.000468117214041,-0.00127768155653,0.442905783653,0.442905783653,-1.02686345577,-96.1657104492,2031,2048,2093,2025,2025,2751,3334,3350,3163,3298,3019,2981,3066,3084,3170,2888,3376,3373,3198,3275,2919,3280,3306,3031,0.01002372,1.650039607,1.6539138,0.349065840244,4500.0,0.359861701727,-0.00644574547186,0.0107958512381,-48.5813293457,0.0,6000.0,-0.00196178280748,-0.000644860090688,0.0,0.0,0.349065840244,0.0289103612304,-0.00426402548328,0.32104241848,0.0286184363067,0.0286184363067,-0.00592678086832,0.00930357351899,156.065948486,156.065948486,0.0297467689961,107.074951172,2025,2017,2540,2033,2033,2937,3429,3430,3249,3367,3097,3062,3166,3156,3245,2864,3414,3421,3257,3373,3143,3358,3390,3193
1508410488964993209,166,1508410488964668307,plot_matl,-0.300000011921,-2000.0,-0.266759604216,0.00458326144144,0.0332404002547,67.5728302002,0.349065840244,0.0107958512381,-0.0019705768209,-0.266765475273,-0.00307046016678,-0.00307046016678,-0.000468117214041,-0.00127768155653,0.442905783653,0.442905783653,-1.02686345577,-96.1657104492,2013,2032,2093,2025,2025,2751,3334,3350,3163,3298,3019,2981,3066,3084,3170,2888,3374,3373,3202,3276,2921,3281,3307,3028,0.009994943,1.660034437,1.659160538,0.349065840244,4500.0,0.359861701727,-0.00527174724266,0.0107958512381,-48.5813293457,0.0,6000.0,-0.0019675407093,-0.000527408323251,0.0,0.0,0.349065840244,0.0289103612304,-0.00426402548328,0.32104241848,0.0286184363067,0.0286184363067,-0.00592678086832,0.00930357351899,156.065948486,156.065948486,0.0297467689961,107.074951172,2029,2027,2540,2033,2033,2937,3429,3430,3249,3367,3097,3062,3166,3156,3245,2865,3414,3422,3256,3370,3142,3359,3393,3197
1508410488974920739,167,1508410488974645199,plot_matl,-0.300000011921,-2000.0,-0.266760259867,0.00461009051651,0.0332397446036,67.5847854614,0.349065840244,0.0107958512381,-0.0019705768209,-0.266765475273,-0.00307046016678,-0.00307046016678,-0.000468117214041,-0.00127768155653,0.442905783653,0.442905783653,-1.02686345577,-96.1657104492,2029,2068,2093,2024,2024,2749,3333,3354,3162,3299,3018,2978,3065,3084,3170,2888,3374,3373,3202,3276,2921,3281,3307,3028,0.009977322,1.670011784,1.666212774,0.349065840244,4500.0,0.361211180687,0.0218964312226,0.0121453320608,-54.6539955139,0.0,6000.0,-0.00197221897542,-0.000431978463894,0.0,0.0,0.349065840244,0.0289103612304,-0.00426402548328,0.32104241848,0.0286184363067,0.0286184363067,-0.00592678086832,0.00930357351899,156.065948486,156.065948486,0.0297467689961,107.074951172,2017,2022,2540,2033,2033,2937,3431,3428,3249,3368,3095,3066,3166,3156,3245,2865,3414,3422,3256,3370,3142,3359,3393,3197
1508410488984961074,168,1508410488984635862,plot_matl,-0.300000011921,-2000.0,-0.266762197018,0.00464183697477,0.0332377925515,67.492805481,0.349065840244,0.0107958512381,-0.0019705768209,-0.266765475273,-0.00307046016678,-0.00307046016678,-0.000468117214041,-0.00127768155653,0.442905783653,0.442905783653,-1.02686345577,-96.1657104492,2019,2054,2093,2024,2024,2749,3333,3354,3162,3299,3018,2978,3065,3083,3169,2888,3377,3373,3201,3276,2920,3279,3308,3028,0.009989515,1.680002036,1.67823852,0.349065840244,4500.0,0.359861701727,-0.00388888525777,0.0107958512381,-48.5813293457,0.0,6000.0,-0.00197604391724,-0.000353955867467,0.0,0.0,0.349065840244,0.0289103612304,-0.00426402548328,0.32104241848,0.0286184363067,0.0286184363067,-0.00592678086832,0.00930357351899,156.065948486,156.065948486,0.0297467689961,107.074951172,2023,2026,2540,2033,2033,2937,3431,3428,3249,3368,3095,3066,3166,3157,3245,2864,3414,3422,3256,3371,3143,3359,3390,3197
1508410488995011544,169,1508410488994648173,plot_matl,-0.300000011921,-2000.0,-0.266762197018,0.00464183697477,0.0332377925515,67.492805481,0.349065840244,0.0121453320608,-0.00197221897542,-0.266760259867,0.0109482156113,0.0109482156113,-0.000431978463894,0.00461009051651,0.094803147018,0.094803147018,-0.793348133564,-96.2216262817,2009,2021,2092,2027,2027,2750,3333,3351,3162,3298,3019,2978,3065,3083,3169,2888,3377,3373,3201,3276,2920,3279,3308,3028,0.010011836,1.690014288,1.692000284,0.349065840244,4500.0,0.359861701727,-0.00388888525777,0.0107958512381,-48.5813293457,0.0,6000.0,-0.00196713325568,-0.00053633376956,0.0,0.0,0.349065840244,0.0265011657029,-0.00421085115522,0.320878982544,0.00537964003161,0.00537964003161,-0.00699260830879,0.0125465262681,156.270370483,156.270370483,0.0185581687838,107.248855591,2041,2033,2541,2031,2031,2937,3431,3430,3249,3368,3095,3066,3166,3157,3245,2864,3414,3422,3256,3371,3143,3359,3390,3195
1508410489004933118,170,1508410489004630733,plot_matl,-0.300000011921,-2000.0,-0.266750156879,-0.00157708616462,0.0332498326898,66.1104660034,0.349065840244,0.0121453320608,-0.00197221897542,-0.266760259867,0.0109482156113,0.0109482156113,-0.000431978463894,0.00461009051651,0.094803147018,0.094803147018,-0.793348133564,-96.2216262817,2035,2049,2092,2027,2027,2750,3333,3351,3162,3298,3019,2981,3067,3084,3170,2888,3376,3371,3201,3276,2920,3279,3308,3028,0.009981958,1.699996526,1.69693286,0.349065840244,4500.0,0.359861701727,-0.00644787447527,0.0107958512381,-48.5813293457,0.0,6000.0,-0.00197188416496,-0.00043931408436,0.0,0.0,0.349065840244,0.0265011657029,-0.00421085115522,0.320878982544,0.00537964003161,0.00537964003161,-0.00699260830879,0.0125465262681,156.270370483,156.270370483,0.0185581687838,107.248855591,2028,2021,2541,2031,2031,2937,3431,3430,3249,3368,3095,3064,3165,3157,3246,2865,3414,3420,3256,3373,3144,3359,3390,3195
1508410489015023574,171,1508410489014638642,plot_matl,-0.300000011921,-2000.0,-0.266749083996,-0.00758022675291,0.0332509204745,64.6433563232,0.349065840244,0.0121453320608,-0.00197221897542,-0.266760259867,0.0109482156113,0.0109482156113,-0.000431978463894,0.00461009051651,0.094803147018,0.094803147018,-0.793348133564,-96.2216262817,2040,2060,2093,2030,2030,2749,3334,3353,3163,3298,3019,2981,3067,3084,3170,2888,3376,3371,3201,3276,2920,3281,3308,3029,0.010007044,1.710004277,1.711204524,0.349065840244,4500.0,0.359861701727,-0.0052793007344,0.0107958512381,-48.5813293457,0.0,6000.0,-0.00197578291409,-0.000359695462976,0.0,0.0,0.349065840244,0.0265011657029,-0.00421085115522,0.320878982544,0.00537964003161,0.00537964003161,-0.00699260830879,0.0125465262681,156.270370483,156.270370483,0.0185581687838,107.248855591,2021,2018,2540,2034,2034,2936,3431,3431,3246,3368,3095,3064,3165,3157,3246,2865,3414,3420,3256,3373,3144,3361,3392,3194
1508410489025021861,172,1508410489024637496,plot_matl,-0.300000011921,-2000.0,-0.266741544008,0.00422676978633,0.0332584418356,67.599105835,0.349065840244,0.0121453320608,-0.00197221897542,-0.266760259867,0.0109482156113,0.0109482156113,-0.000431978463894,0.00461009051651,0.094803147018,0.094803147018,-0.793348133564,-96.2216262817,1997,2041,2093,2030,2030,2749,3334,3353,3163,3301,3021,2981,3067,3084,3170,2888,3376,3373,3201,3276,2920,3281,3308,3029,0.00999917,1.720003395,1.71985724,0.349065840244,4500.0,0.359861701727,-0.00526529690251,0.0107958512381,-48.5813293457,0.0,6000.0,-0.00197898689657,-0.000294263591059,0.0,0.0,0.349065840244,0.0265011657029,-0.00421085115522,0.320878982544,0.00537964003161,0.00537964003161,-0.00699260830879,0.0125465262681,156.270370483,156.270370483,0.0185581687838,107.248855591,2025,2032,2540,2034,2034,2936,3431,3431,3246,3368,3097,3065,3164,3157,3246,2864,3414,3422,3258,3373,3144,3361,3392,3194
1508410489034990079,173,1508410489034632729,plot_matl,-0.300000011921,-2000.0,-0.26675722003,-0.00143117504194,0.0332427732646,66.14478302,0.349065840244,0.0107958512381,-0.00197604391724,-0.266762197018,-0.00194444262888,-0.00194444262888,-0.000353955867467,0.00464183697477,0.00412331009284,0.00412331009284,-0.650056123734,-96.1998062134,2018,2050,2093,2031,2031,2751,3335,3353,3163,3301,3021,2981,3067,3084,3170,2888,3376,3373,3201,3274,2920,3282,3311,3029,0.009994787,1.729998548,1.729098151,0.349065840244,4500.0,0.359861701727,-0.00480363098904,0.0107958512381,-48.5813293457,0.0,6000.0,-0.00198158947751,-0.000241115776589,0.0,0.0,0.349065840244,0.0265011657029,-0.0042326208204,0.320768654346,0.00572138419375,0.00572138419375,-0.00655042752624,0.0147277731448,156.287902832,156.287902832,0.178760141134,107.195594788,2023,2016,2540,2034,2034,2937,3430,3431,3246,3368,3097,3065,3164,3157,3246,2864,3414,3422,3258,3371,3143,3360,3391,3195
1508410489045053171,174,1508410489044662380,plot_matl,-0.300000011921,-2000.0,-0.26674875617,-0.00160086818505,0.0332512557507,66.1409454346,0.349065840244,0.0107958512381,-0.00197604391724,-0.266762197018,-0.00194444262888,-0.00194444262888,-0.000353955867467,0.00464183697477,0.00412331009284,0.00412331009284,-0.650056123734,-96.1998062134,2036,2068,2093,2031,2031,2751,3335,3352,3163,3301,3019,2982,3065,3085,3169,2890,3376,3373,3201,3274,2920,3282,3311,3029,0.010029937,1.74002878,1.745209038,0.349065840244,4500.0,0.359861701727,-0.00589320855215,0.0107958512381,-48.5813293457,0.0,6000.0,-0.00198373943567,-0.000197211353225,0.0,0.0,0.349065840244,0.0265011657029,-0.0042326208204,0.320768654346,0.00572138419375,0.00572138419375,-0.00655042752624,0.0147277731448,156.287902832,156.287902832,0.178760141134,107.195594788,2006,2007,2540,2034,2034,2937,3430,3430,3248,3367,3094,3064,3165,3158,3244,2866,3413,3422,3258,3371,3143,3360,3391,3195
1508410489055180289,175,1508410489054662900,plot_matl,-0.300000011921,-2000.0,-0.26674708724,-0.00162638828624,0.0332529060543,66.1088943481,0.349065840244,0.0107958512381,-0.00197604391724,-0.266762197018,-0.00194444262888,-0.00194444262888,-0.000353955867467,0.00464183697477,0.00412331009284,0.00412331009284,-0.650056123734,-96.1998062134,2008,2045,2093,2031,2031,2751,3335,3352,3163,3301,3019,2982,3065,3085,3169,2890,3376,3374,3202,3274,2921,3282,3309,3031,0.010000971,1.750029415,1.750169925,0.349065840244,4500.0,0.362560659647,0.0467589236796,0.0134948138148,-60.7266616821,0.0,6000.0,-0.0019854910206,-0.000161436852068,0.0,0.0,0.349065840244,0.0265011657029,-0.0042326208204,0.320768654346,0.00572138419375,0.00572138419375,-0.00655042752624,0.0147277731448,156.287902832,156.287902832,0.178760141134,107.195594788,2025,2025,2540,2029,2029,2937,3430,3430,3248,3367,3094,3064,3165,3158,3244,2866,3413,3420,3257,3372,3143,3357,3390,3195
1508410489065095886,176,1508410489064639271,plot_matl,-0.300000011921,-2000.0,-0.26675632596,-0.00144313846249,0.0332436710596,66.1369018555,0.349065840244,0.0107958512381,-0.00197604391724,-0.266762197018,-0.00194444262888,-0.00194444262888,-0.000353955867467,0.00464183697477,0.00412331009284,0.00412331009284,-0.650056123734,-96.1998062134,2011,2053,2093,2031,2031,2749,3335,3353,3161,3300,3021,2980,3067,3084,3171,2890,3376,3374,3202,3274,2921,3282,3309,3031,0.009974476,1.760005039,1.755507776,0.349065840244,4500.0,0.361211180687,0.0199130866677,0.0121453320608,-54.6539955139,0.0,6000.0,-0.00198691617697,-0.000132337314426,0.0,0.0,0.349065840244,0.0265011657029,-0.0042326208204,0.320768654346,0.00572138419375,0.00572138419375,-0.00655042752624,0.0147277731448,156.287902832,156.287902832,0.178760141134,107.195594788,2033,2027,2540,2029,2029,2936,3428,3428,3246,3368,3094,3063,3164,3158,3247,2866,3413,3420,3257,3372,3143,3357,3390,3195
1508410489075036168,177,1508410489074640174,plot_matl,-0.300000011921,-2000.0,-0.266748130322,-0.00160716637038,0.0332518666983,66.1212539673,0.349065840244,0.0107958512381,-0.00197898689657,-0.266741544008,-0.00263264845125,-0.00263264845125,-0.000294263591059,0.00422676978633,-0.296497404575,-0.296497404575,-0.368650883436,-96.290435791,2032,2060,2093,2031,2031,2749,3335,3353,3161,3300,3021,2980,3067,3084,3171,2889,3374,3370,3202,3274,2921,3282,3308,3029,0.010000813,1.770006219,1.770143901,0.349065840244,4500.0,0.359861701727,-0.00600638566539,0.0107958512381,-48.5813293457,0.0,6000.0,-0.00195323536173,-0.000808350683656,0.0,0.0,0.349065840244,0.0265011657029,-0.00418604677543,0.320621579885,0.00731592113152,0.00731592113152,0.0078248642385,0.017943199724,155.837097168,155.837097168,-0.354579895735,107.025840759,2024,2014,2539,2029,2029,2936,3428,3428,3246,3368,3094,3063,3164,3158,3247,2865,3413,3420,3256,3372,3143,3359,3389,3196
1508410489085085470,178,1508410489084650604,plot_matl,-0.300000011921,-2000.0,-0.26674118638,-0.00174509943463,0.0332588218153,66.1050338745,0.349065840244,0.0107958512381,-0.00197898689657,-0.266741544008,-0.00263264845125,-0.00263264845125,-0.000294263591059,0.00422676978633,-0.296497404575,-0.296497404575,-0.368650883436,-96.290435791,2034,2047,2093,2029,2029,2750,3333,3351,3162,3300,3019,2982,3065,3084,3171,2889,3374,3370,3202,3274,2921,3282,3308,3029,0.010010512,1.780016939,1.781871136,0.349065840244,4500.0,0.358512222767,-0.0311118923128,0.00944636948407,-42.5086631775,0.0,6000.0,-0.00194768153597,0.0124989757314,0.0,0.0,0.349065840244,0.0265011657029,-0.00418604677543,0.320621579885,0.00731592113152,0.00731592113152,0.0078248642385,0.017943199724,155.837097168,155.837097168,-0.354579895735,107.025840759,2031,2027,2539,2031,2031,2937,3428,3428,3247,3369,3094,3062,3164,3158,3247,2865,3413,3420,3256,3372,3143,3359,3389,3196
1508410489095023642,179,1508410489094670182,plot_matl,-0.300000011921,-2000.0,-0.266725003719,0.00389621360227,0.0332749933004,67.4889526367,0.349065840244,0.0107958512381,-0.00197898689657,-0.266741544008,-0.00263264845125,-0.00263264845125,-0.000294263591059,0.00422676978633,-0.296497404575,-0.296497404575,-0.368650883436,-96.290435791,2010,2033,2093,2029,2029,2750,3333,3351,3162,3300,3019,2982,3065,3085,3169,2887,3377,3372,3200,3274,2920,3280,3306,3029,0.010018786,1.790036206,1.793362694,0.349065840244,4500.0,0.361211180687,0.0230713542551,0.0121453320608,-54.6539955139,0.0,6000.0,-0.00194768153597,0.0124989757314,0.0,0.0,0.349065840244,0.0265011657029,-0.00418604677543,0.320621579885,0.00731592113152,0.00731592113152,0.0078248642385,0.017943199724,155.837097168,155.837097168,-0.354579895735,107.025840759,2024,2027,2539,2031,2031,2937,3428,3428,3247,3369,3094,3062,3164,3158,3246,2865,3415,3421,3256,3372,3145,3358,3390,3196
1508410489105035168,180,1508410489104701540,plot_matl,-0.300000011921,-2000.0,-0.26673361659,-0.00191265356261,0.033266376704,66.0849151611,0.349065840244,0.0107958512381,-0.00197898689657,-0.266741544008,-0.00263264845125,-0.00263264845125,-0.000294263591059,0.00422676978633,-0.296497404575,-0.296497404575,-0.368650883436,-96.290435791,2034,2056,2093,2032,2032,2751,3333,3350,3164,3301,3019,2982,3065,3085,3169,2887,3377,3372,3200,3274,2920,3280,3306,3028,0.010031375,1.800067741,1.8056475,0.349065840244,4500.0,0.359861701727,-0.00201504072174,0.0107958512381,-48.5813293457,0.0,6000.0,-0.0019494513981,-0.000867399096023,0.0,0.0,0.349065840244,0.0265011657029,-0.00418604677543,0.320621579885,0.00731592113152,0.00731592113152,0.0078248642385,0.017943199724,155.837097168,155.837097168,-0.354579895735,107.025840759,2029,2022,2541,2033,2033,2936,3428,3426,3249,3368,3095,3062,3164,3158,3246,2865,3415,3421,3256,3372,3145,3358,3390,3194
1508410489115179168,181,1508410489114678340,plot_matl,-0.300000011921,-2000.0,-0.266750723124,-0.0015670391731,0.0332492664456,66.1341552734,0.349065840244,0.0121453320608,-0.00198691617697,-0.26675632596,0.00995654333383,0.00995654333383,-0.000132337314426,-0.00144313846249,-0.37293702364,-0.37293702364,-0.301893621683,-96.427482605,2042,2061,2093,2032,2032,2751,3333,3350,3164,3301,3019,2979,3066,3083,3170,2889,3377,3371,3201,3275,2922,3280,3306,3028,0.009977895,1.810044533,1.805998995,0.349065840244,4500.0,0.359861701727,-0.00116727605928,0.0107958512381,-48.5813293457,0.0,6000.0,-0.00195739208721,-0.000710660999175,0.0,0.0,0.349065840244,0.0265011657029,-0.00417452771217,0.321017742157,0.00595940789208,0.00595940789208,-0.00775302480906,0.00987172592431,156.01751709,156.01751709,-0.356936424971,107.111221313,2024,2026,2541,2033,2033,2936,3428,3426,3249,3368,3095,3063,3165,3157,3248,2866,3415,3422,3256,3370,3146,3358,3390,3194
