%time,field.header.seq,field.header.stamp,field.header.frame_id,field.FFJ4_set_point,field.FFJ4_position_gain,field.FFJ4_process_value,field.FFJ4_process_value_dot,field.FFJ4_error,field.FFJ4_command,field.FFJ1,field.FFJ2,field.FFJ3,field.FFJ4,field.FFJ1_dot,field.FFJ2_dot,field.FFJ3_dot,field.FFJ4_dot,field.FFJ1_tao,field.FFJ2_tao,field.FFJ3_tao,field.FFJ4_tao,field.pac0,field.pac1,field.pdc0,field.tac0,field.tdc0,field.el0,field.el1,field.el2,field.el3,field.el4,field.el5,field.el6,field.el7,field.el8,field.el9,field.el10,field.el11,field.el12,field.el13,field.el14,field.el15,field.el16,field.el17,field.el18,field.dt,field.time,field.test_time2,field.FFJ0_set_point,field.FFJ0_position_gain,field.FFJ0_process_value,field.FFJ0_process_value_dot,field.FFJ0_error,field.FFJ0_command,field.FFJ3_set_point,field.FFJ3_position_gain,field.FFJ3_process_value,field.FFJ3_process_value_dot,field.FFJ3_error,field.FFJ3_command,field.MFJ1,field.MFJ2,field.MFJ3,field.MFJ4,field.MFJ1_dot,field.MFJ2_dot,field.MFJ3_dot,field.MFJ4_dot,field.MFJ1_tao,field.MFJ2_tao,field.MFJ3_tao,field.MFJ4_tao,field.Mpac0,field.Mpac1,field.Mpdc0,field.Mtac0,field.Mtdc0,field.Mel0,field.Mel1,field.Mel2,field.Mel3,field.Mel4,field.Mel5,field.Mel6,field.Mel7,field.Mel8,field.Mel9,field.Mel10,field.Mel11,field.Mel12,field.Mel13,field.Mel14,field.Mel15,field.Mel16,field.Mel17,field.Mel18
1508410547106521417,92,1508410547105947399,plot_matl,-0.300000011921,-4000.0,-0.272417187691,-0.00661178166047,0.027582814917,108.7290802,0.349065840244,0.0107958512381,-0.000888228707481,-0.272418409586,-0.00671607535332,-0.00671607535332,-0.00889311823994,-0.000613448035438,-0.0704349949956,-0.0704349949956,0.711881220341,-91.1611862183,2036,2064,2094,2036,2036,2765,3339,3359,3169,3307,3027,2987,3075,3090,3174,2892,3381,3376,3207,3280,2926,3288,3314,3035,0.010002515,0.920021377,0.92023138,0.349065840244,4500.0,0.359861701727,-0.0139672262594,0.0107958512381,-48.5813293457,0.0,6000.0,-0.000870673160534,-0.00924738030881,0.0,0.0,0.349065840244,0.0265011657029,-0.00684032216668,0.318892389536,0.00552230933681,0.00552230933681,7.98727778601e-05,-0.00911025423557,155.747894287,155.747894287,-0.608123600483,107.63835144,2029,2030,2536,2028,2028,2938,3431,3429,3252,3370,3100,3061,3165,3157,3244,2862,3412,3422,3255,3373,3144,3358,3392,3197
1508410547116372437,93,1508410547115976153,plot_matl,-0.300000011921,-4000.0,-0.272422939539,-0.0064937165007,0.0275770612061,108.76726532,0.349065840244,0.0121453320608,-0.000873209675774,-0.272423952818,0.00713872164488,0.00713872164488,0.00422842567787,-0.000496732187457,-0.0588266588748,-0.0588266588748,0.648835122585,-91.143371582,2031,2056,2094,2035,2035,2762,3339,3355,3169,3306,3027,2987,3075,3090,3174,2892,3381,3376,3207,3280,2926,3288,3314,3036,0.010027601,0.930050077,0.932566893,0.349065840244,4500.0,0.359861701727,-0.0124009735882,0.0107958512381,-48.5813293457,0.0,6000.0,-0.000868202652782,-0.00929533224553,0.0,0.0,0.349065840244,0.0240919683129,-0.00682540144771,0.318811237812,-0.0189257133752,-0.0189257133752,-0.000212111088331,-0.00742882490158,155.651046753,155.651046753,-0.714506685734,107.651168823,2017,2020,2537,2031,2031,2936,3430,3431,3250,3370,3099,3061,3165,3157,3244,2862,3412,3422,3255,3373,3144,3358,3392,3199
1508410547126280758,94,1508410547125950449,plot_matl,-0.300000011921,-4000.0,-0.272427648306,-0.000423354736995,0.0275723617524,110.186790466,0.349065840244,0.0121453320608,-0.000883749569766,-0.272422552109,0.0068224305287,0.0068224305287,0.00444817077368,0.0054503842257,-0.154540732503,-0.154540732503,0.71249049902,-90.9013519287,2005,2050,2093,2036,2036,2760,3338,3358,3168,3306,3027,2987,3072,3089,3177,2895,3381,3377,3207,3279,2928,3287,3314,3037,0.009973885,0.940024237,0.93754519,0.349065840244,4500.0,0.361211180687,0.0136510469019,0.0121453320608,-54.6539955139,0.0,6000.0,-0.000879325903952,-0.00906476937234,0.0,0.0,0.349065840244,0.0265011657029,-0.0068273502402,0.318911969662,0.00486542936414,0.00486542936414,-0.000173661901499,0.0524070374668,155.678222656,155.678222656,-0.668278694153,107.919578552,2024,2026,2536,2034,2034,2936,3431,3430,3252,3370,3099,3062,3163,3156,3245,2861,3414,3421,3256,3372,3144,3360,3393,3197
1508410547136319299,95,1508410547135977504,plot_matl,-0.300000011921,-4000.0,-0.272426456213,-0.000446519465186,0.0275735538453,110.186027527,0.349065840244,0.0121453320608,-0.000879321014509,-0.27242732048,0.00604501739144,0.00604501739144,-0.00906457658857,-0.000429002189776,-0.168810009956,-0.168810009956,0.601883351803,-90.8634872437,2020,2036,2093,2036,2036,2760,3338,3358,3168,3304,3028,2988,3072,3090,3175,2895,3380,3376,3206,3279,2928,3287,3314,3037,0.010026478,0.950051015,0.95251541,0.349065840244,4500.0,0.361211180687,0.01313471701,0.0121453320608,-54.6539955139,0.0,6000.0,-0.000874413468409,0.00425997702405,0.0,0.0,0.349065840244,0.0265011657029,-0.00682894466445,0.318828672171,0.00439431006089,0.00439431006089,-0.000142213568324,-0.00774668250233,155.763885498,155.763885498,-0.613486111164,108.124938965,2029,2023,2536,2034,2034,2936,3431,3430,3252,3370,3100,3063,3164,3154,3246,2861,3411,3420,3256,3372,3144,3360,3393,3197
1508410547146338642,96,1508410547145963777,plot_matl,-0.300000011921,-4000.0,-0.272424280643,0.00548835331574,0.0275757312775,111.709434509,0.349065840244,0.0107958512381,-0.000864381727297,-0.272425204515,-0.00793917942792,-0.00793917942792,-0.00936786551028,-0.0004662538704,-0.201662912965,-0.201662912965,0.529931306839,-90.8849945068,2002,2036,2093,2032,2032,2760,3340,3358,3168,3304,3028,2988,3072,3090,3175,2895,3380,3376,3206,3280,2928,3286,3313,3033,0.009986096,0.96003757,0.958665216,0.349065840244,4500.0,0.361211180687,0.0112754702568,0.0121453320608,-54.6539955139,0.0,6000.0,-0.000858775572851,0.00394098786637,0.0,0.0,0.349065840244,0.0265011657029,-0.00683024991304,0.31881955266,0.00358907016926,0.00358907016926,-0.000116465176689,-0.00750919897109,155.912780762,155.912780762,-0.651684045792,108.063484192,2028,2035,2536,2035,2035,2937,3431,3430,3252,3370,3100,3063,3164,3154,3246,2861,3411,3420,3256,3370,3144,3357,3394,3196
1508410547156247741,97,1508410547155969691,plot_matl,-0.300000011921,-4000.0,-0.272428542376,-0.000397293828428,0.0275714658201,110.188224792,0.349065840244,0.0107958512381,-0.00085063604638,-0.272429347038,-0.00870043598115,-0.00870043598115,0.00378319621086,-0.000381654914236,-0.0912138670683,-0.0912138670683,0.489633589983,-90.9163131714,2003,2036,2093,2032,2032,2760,3340,3358,3168,3307,3028,2986,3072,3090,3175,2895,3380,3376,3206,3280,2928,3286,3313,3033,0.010004534,0.970042911,0.970439798,0.349065840244,4500.0,0.361211180687,0.00970365572721,0.0121453320608,-54.6539955139,0.0,6000.0,-0.000858264626004,0.0039382185787,0.0,0.0,0.349065840244,0.0240919683129,-0.00681780138984,0.318862855434,-0.0200700480491,-0.0200700480491,-0.000366096617654,-0.00833130534738,155.816696167,155.816696167,-0.439960688353,107.906974792,2025,2027,2536,2035,2035,2937,3431,3431,3251,3371,3099,3060,3164,3155,3246,2861,3412,3420,3256,3370,3144,3357,3394,3196
1508410547166388272,98,1508410547165968415,plot_matl,-0.300000011921,-4000.0,-0.272427022457,-0.000432998320321,0.0275729745626,110.186172485,0.349065840244,0.0107958512381,-0.000842016655952,-0.272427886724,-0.00885767117143,-0.00885767117143,0.00358146219514,-0.000416112656239,-0.112815774977,-0.112815774977,0.423789650202,-91.0708007812,2004,2051,2094,2035,2035,2760,3340,3358,3168,3307,3028,2986,3072,3090,3175,2895,3380,3376,3206,3279,2928,3288,3312,3036,0.010000381,0.980042509,0.980037338,0.349065840244,4500.0,0.362560659647,0.0366420559585,0.0134948138148,-60.7266616821,0.0,6000.0,-0.000835650775116,0.0034571387805,0.0,0.0,0.349065840244,0.0240919683129,-0.00682112528011,0.318887710571,-0.0203618165106,-0.0203618165106,-0.000299788924167,-0.00896576512605,155.85144043,155.85144043,-0.606458485126,107.817596436,2020,2030,2536,2035,2035,2937,3431,3431,3251,3371,3099,3060,3164,3155,3246,2861,3412,3421,3254,3371,3145,3358,3392,3199
1508410547176383250,99,1508410547175954393,plot_matl,-0.300000011921,-4000.0,-0.272424936295,0.00550128193572,0.0275750663131,111.665100098,0.349065840244,0.0121453320608,-0.000846894050483,-0.272425860167,0.00466320756823,0.00466320756823,-0.00973956659436,-0.00045434673666,-0.0963358581066,-0.0963358581066,0.418472766876,-91.1019668579,2000,2045,2094,2035,2035,2762,3339,3356,3171,3305,3028,2985,3073,3089,3174,2895,3380,3376,3206,3279,2928,3288,3312,3036,0.00998521,0.990028436,0.98853579,0.349065840244,4500.0,0.359861701727,-0.0180931519717,0.0107958512381,-48.5813293457,0.0,6000.0,-0.000827512587421,0.00328735518269,0.0,0.0,0.349065840244,0.0289103612304,-0.00681099155918,0.318872511387,0.0266967527568,0.0266967527568,-0.000508575700223,-0.00862295925617,155.671310425,155.671310425,-0.676629722118,107.818061829,2025,2028,2536,2035,2035,2938,3431,3430,3251,3371,3100,3063,3165,3155,3246,2861,3412,3421,3254,3371,3145,3358,3392,3199
1508410547186461992,100,1508410547185981523,plot_matl,-0.300000011921,-4000.0,-0.272423654795,-0.000503145391122,0.0275763329118,110.184310913,0.349065840244,0.0121453320608,-0.000863333174493,-0.272418916225,0.00430584093556,0.00430584093556,-0.00938809104264,-0.000599208578933,-0.0489413514733,-0.0489413514733,0.503386259079,-91.1477279663,2015,2049,2094,2035,2035,2762,3339,3356,3171,3305,3028,2985,3073,3089,3174,2894,3381,3373,3207,3280,2928,3288,3311,3035,0.010026985,1.000055722,1.0026985,0.349065840244,4500.0,0.359861701727,-0.0182989332825,0.0107958512381,-48.5813293457,0.0,6000.0,-0.000857794540934,0.00392326479778,0.0,0.0,0.349065840244,0.0265011657029,-0.00681555969641,0.318914920092,0.00155297538731,0.00155297538731,-0.000416245689848,0.0523781627417,155.598007202,155.598007202,-0.945029020309,107.84992218,2021,2014,2536,2035,2035,2938,3431,3430,3251,3371,3100,3063,3165,3155,3246,2860,3413,3422,3257,3372,3144,3357,3395,3197
1508410547196458423,101,1508410547195978425,plot_matl,-0.300000011921,-4000.0,-0.272428661585,-0.000402379839215,0.0275713484734,110.187141418,0.349065840244,0.0121453320608,-0.000839415180963,-0.272429436445,0.00571940280497,0.00571940280497,0.00354330800474,-0.000386625528336,-0.0719394609332,-0.0719394609332,0.494582295418,-91.3906784058,2015,2049,2094,2035,2035,2762,3339,3356,3171,3305,3028,2985,3073,3089,3174,2894,3381,3373,3207,3280,2928,3288,3311,3035,0.00999612,1.010052318,1.00960812,0.349065840244,4500.0,0.359861701727,-0.015904949978,0.0107958512381,-48.5813293457,0.0,6000.0,-0.000846544047818,0.00368769140914,0.0,0.0,0.349065840244,0.0265011657029,-0.00681851617992,0.318830132484,0.00131681328639,0.00131681328639,-0.000354911695467,-0.00777531880885,155.51940918,155.51940918,-0.945542037487,107.881622314,2021,2014,2536,2035,2035,2938,3431,3430,3251,3371,3100,3063,3165,3155,3246,2860,3413,3422,3257,3372,3144,3357,3395,3197
1508410547206224254,102,1508410547205958389,plot_matl,-0.300000011921,-4000.0,-0.272426813841,-0.000440645235358,0.0275731794536,110.187187195,0.349065840244,0.0121453320608,-0.000880452163983,-0.272427678108,0.0058648516424,0.0058648516424,0.00437036249787,-0.000423231278546,-0.0951325297356,-0.0951325297356,0.404289454222,-91.1887359619,2002,2035,2094,2036,2036,2761,3340,3359,3171,3306,3029,2986,3073,3089,3175,2896,3381,3378,3206,3279,2928,3286,3314,3035,0.009977953,1.020031453,1.017751206,0.349065840244,4500.0,0.361211180687,0.0122123258188,0.0121453320608,-54.6539955139,0.0,6000.0,-0.000875632395037,-0.00914913695306,0.0,0.0,0.349065840244,0.0265011657029,-0.00683450466022,0.31876039505,0.00233495980501,0.00233495980501,-3.17774356517e-05,-0.00636358745396,155.606658936,155.606658936,-0.810874402523,107.937171936,2018,2019,2536,2035,2035,2937,3431,3431,3251,3370,3101,3063,3164,3158,3247,2860,3412,3419,3255,3373,3143,3358,3392,3197
1508410547216081629,103,1508410547215924683,plot_matl,-0.300000011921,-4000.0,-0.272425711155,-0.000462898868136,0.0275742821395,110.185394287,0.349065840244,0.0107958512381,-0.000890445022378,-0.272426635027,-0.00802898220718,-0.00802898220718,0.00456919427961,-0.000444739038358,0.0291523132473,0.0291523132473,0.35247913003,-91.2492141724,2030,2073,2094,2034,2034,2761,3339,3359,3169,3304,3027,2986,3073,3089,3175,2896,3381,3378,3206,3279,2928,3286,3314,3034,0.009965627,1.029997398,1.026459581,0.349065840244,4500.0,0.361211180687,0.0105547700077,0.0121453320608,-54.6539955139,0.0,6000.0,-0.0008858977817,-0.00894217193127,0.0,0.0,0.349065840244,0.0265011657029,-0.00684737041593,0.318703532219,0.00150698656216,0.00150698656216,0.000225797033636,-0.0052123516798,155.644668579,155.644668579,-0.87674921751,107.98399353,2012,2015,2536,2033,2033,2937,3431,3431,3249,3370,3101,3063,3164,3158,3247,2860,3412,3419,3255,3373,3143,3358,3392,3198
1508410547226259270,104,1508410547225937524,plot_matl,-0.300000011921,-4000.0,-0.272419512272,-0.000584450317547,0.027580473572,110.179130554,0.349065840244,0.0134948138148,-0.000919651938602,-0.27242064476,0.0192046612501,0.0192046612501,0.00516690174118,-0.000561859400477,0.132054939866,0.132054939866,0.509359896183,-91.0382003784,2028,2050,2094,2034,2034,2761,3339,3359,3169,3304,3027,2987,3073,3091,3177,2896,3381,3377,3206,3281,2930,3286,3314,3034,0.010014457,1.040011432,1.041503528,0.349065840244,4500.0,0.361211180687,0.0116072976962,0.0121453320608,-54.6539955139,0.0,6000.0,-0.000929912319407,-0.00804833695292,0.0,0.0,0.349065840244,0.0265011657029,-0.00685916747898,0.318714141846,0.00123409298249,0.00123409298249,0.000460147770355,-0.00535580795258,155.772171021,155.772171021,-1.26219522953,107.822212219,2031,2028,2536,2033,2033,2937,3431,3431,3249,3370,3101,3063,3165,3156,3245,2863,3412,3421,3255,3373,3143,3358,3392,3198
1508410547236487078,105,1508410547235987270,plot_matl,-0.300000011921,-4000.0,-0.272430419922,-0.000368052744307,0.0275695919991,110.186592102,0.349065840244,0.0107958512381,-0.000944663770497,-0.272431105375,-0.0078711733222,-0.0078711733222,0.00566230388358,-0.000354094663635,0.28935945034,0.28935945034,0.649763822556,-90.9601516724,2016,2048,2093,2035,2035,2761,3338,3359,3170,3304,3027,2987,3073,3091,3177,2896,3381,3377,3206,3281,2930,3287,3314,3035,0.010050504,1.050061414,1.05530292,0.349065840244,4500.0,0.361211180687,0.0119513561949,0.0121453320608,-54.6539955139,0.0,6000.0,-0.00094282644568,0.00562359998003,0.0,0.0,0.349065840244,0.0289103612304,-0.00685499655083,0.318605720997,0.0253097023815,0.0253097023815,0.000376751559088,-0.0032154971268,155.475387573,155.475387573,-1.25051450729,107.824401855,2031,2028,2536,2035,2035,2937,3433,3431,3250,3370,3101,3063,3165,3156,3245,2863,3412,3421,3255,3373,3143,3359,3392,3197
1508410547246368183,106,1508410547245954615,plot_matl,-0.300000011921,-4000.0,-0.272438526154,-0.000198348876438,0.0275614596903,110.193367004,0.349065840244,0.0121453320608,-0.000964541046415,-0.272438943386,0.00593698490411,0.00593698490411,0.00604414287955,-0.000190849415958,0.385288953781,0.385288953781,0.678623437881,-90.8389511108,2030,2062,2093,2035,2035,2761,3338,3359,3170,3305,3029,2988,3072,3089,3175,2895,3381,3378,3207,3281,2930,3287,3314,3035,0.00996558,1.060028233,1.05635148,0.349065840244,4500.0,0.361211180687,0.0123405586928,0.0121453320608,-54.6539955139,0.0,6000.0,-0.000976332521532,-0.00713244779035,0.0,0.0,0.349065840244,0.0265011657029,-0.00685157533735,0.318638563156,0.000797190528829,0.000797190528829,0.00030834050267,0.0579207316041,155.471313477,155.471313477,-1.0877597332,107.797943115,2018,2015,2536,2035,2035,2937,3433,3431,3250,3370,3100,3061,3165,3154,3244,2861,3412,3420,3256,3373,3143,3359,3392,3197
1508410547256343250,107,1508410547255976489,plot_matl,-0.300000011921,-4000.0,-0.2724404037,-0.000162621392519,0.0275596007705,110.197364807,0.349065840244,0.0107958512381,-0.000957188138273,-0.272446453571,-0.00751019315794,-0.00751019315794,0.00589061994106,-4.16315815528e-05,0.207816213369,0.207816213369,0.73677366972,-90.9492645264,2017,2050,2094,2037,2037,2761,3337,3359,3170,3305,3029,2988,3072,3089,3175,2895,3381,3378,3207,3280,2929,3285,3312,3037,0.010022735,1.070050497,1.072432645,0.349065840244,4500.0,0.359861701727,-0.0150819011033,0.0107958512381,-48.5813293457,0.0,6000.0,-0.00096899404889,0.00612819707021,0.0,0.0,0.349065840244,0.0265011657029,-0.00684878509492,0.318713277578,0.00107578060124,0.00107578060124,0.000252549041761,-0.00546366116032,155.379119873,155.379119873,-0.672123730183,107.621391296,2026,2029,2536,2038,2038,2939,3431,3431,3250,3370,3100,3061,3165,3154,3244,2861,3412,3420,3256,3373,3144,3357,3393,3197
1508410547266086656,108,1508410547265924035,plot_matl,-0.300000011921,-4000.0,-0.2724365592,-0.000245177652687,0.0275634378195,110.195777893,0.349065840244,0.0107958512381,-0.000976210227236,-0.272437036037,-0.0066428501159,-0.0066428501159,0.00626761838794,-0.000235564773902,0.204311460257,0.204311460257,0.749133706093,-91.1305465698,2009,2051,2094,2037,2037,2761,3337,3356,3168,3303,3027,2988,3073,3090,3175,2898,3381,3378,3207,3280,2929,3285,3312,3037,0.009944849,1.079997113,1.074043692,0.349065840244,4500.0,0.359861701727,-0.0138278603554,0.0107958512381,-48.5813293457,0.0,6000.0,-0.000975454808213,0.00625223387033,0.0,0.0,0.349065840244,0.0240919683129,-0.00684649171308,0.318716078997,-0.0229731667787,-0.0229731667787,0.000206695767702,-0.00552300177515,155.42350769,155.42350769,-0.813588559628,107.599716187,2032,2034,2536,2038,2038,2939,3431,3431,3249,3369,3098,3061,3166,3156,3245,2860,3413,3420,3256,3373,3144,3357,3393,3197
1508410547276352687,109,1508410547275971575,plot_matl,-0.300000011921,-4000.0,-0.272438794374,-0.000200417940505,0.0275611933321,110.192718506,0.349065840244,0.0121453320608,-0.000954527466092,-0.272439181805,0.00745928520337,0.00745928520337,0.00584112852812,-0.00019285955932,0.275803983212,0.275803983212,0.698326766491,-91.0576400757,2035,2073,2094,2036,2036,2761,3337,3356,3168,3303,3027,2988,3073,3090,3175,2898,3381,3376,3207,3280,2928,3286,3313,3035,0.010049737,1.090045624,1.095421333,0.349065840244,4500.0,0.359861701727,-0.012268576771,0.0107958512381,-48.5813293457,0.0,6000.0,-0.000965895305853,0.00607004854828,0.0,0.0,0.349065840244,0.0240919683129,-0.00683233095333,0.31871548295,-0.0227843932807,-0.0227843932807,-9.23835032154e-05,-0.00557584688067,155.355804443,155.355804443,-0.816038489342,107.60105896,2024,2023,2536,2033,2033,2939,3431,3431,3249,3369,3098,3061,3166,3156,3245,2860,3413,3420,3257,3374,3144,3358,3394,3198
1508410547286329140,110,1508410547285970036,plot_matl,-0.300000011921,-4000.0,-0.272440612316,-0.000164193246746,0.0275593772531,110.195861816,0.349065840244,0.0121453320608,-0.000976500741672,-0.272435337305,0.00758180813864,0.00758180813864,-0.00715105980635,-0.000272230856353,0.293432205915,0.293432205915,0.491071373224,-91.084197998,2027,2044,2094,2036,2036,2761,3338,3359,3170,3305,3026,2987,3072,3090,3175,2898,3381,3376,3207,3280,2928,3286,3313,3035,0.009997157,1.100043808,1.09968727,0.349065840244,4500.0,0.359861701727,-0.011481446214,0.0107958512381,-48.5813293457,0.0,6000.0,-0.000962323450949,-0.00743872718886,0.0,0.0,0.349065840244,0.0265011657029,-0.00683302525431,0.318724632263,0.0012734659249,0.0012734659249,-7.56101871957e-05,-0.00574749382213,155.278396606,155.278396606,-0.587761223316,107.695960999,2024,2022,2536,2033,2033,2937,3431,3430,3250,3370,3100,3063,3164,3156,3246,2860,3413,3420,3257,3374,3144,3358,3394,3198
1508410547296409355,111,1508410547295995146,plot_matl,-0.300000011921,-4000.0,-0.272442668676,-0.000125310340081,0.0275573320687,110.199333191,0.349065840244,0.0107958512381,-0.000931376940571,-0.272442907095,-0.00666463188827,-0.00666463188827,0.00536719383672,-0.000120404089103,0.206797480583,0.206797480583,0.511709570885,-91.1375198364,2006,2045,2094,2036,2036,2761,3338,3359,3170,3305,3026,2987,3072,3090,3175,2897,3381,3375,3207,3281,2929,3288,3313,3038,0.010025853,1.110069145,1.112869683,0.349065840244,4500.0,0.362560659647,0.0411996990442,0.0134948138148,-60.7266616821,0.0,6000.0,-0.00094225310022,0.0055858977139,0.0,0.0,0.349065840244,0.0240919683129,-0.00683359242976,0.318621039391,-0.0219998545945,-0.0219998545945,-6.19032143732e-05,-0.00364485010505,155.22215271,155.22215271,-0.879810869694,107.784729004,2025,2032,2535,2033,2033,2937,3431,3430,3250,3370,3100,3063,3164,3156,3246,2862,3413,3421,3256,3373,3143,3357,3392,3199
1508410547306207848,112,1508410547305972670,plot_matl,-0.300000011921,-4000.0,-0.27243834734,-0.000211383478018,0.027561660856,110.196891785,0.349065840244,0.0121453320608,-0.000940939469729,-0.27243283391,0.00671145552769,0.00671145552769,0.00556376529858,-0.000320410181303,0.142197072506,0.142197072506,0.58054459095,-91.0607299805,2023,2061,2094,2034,2034,2762,3340,3358,3168,3307,3029,2988,3073,3090,3175,2897,3381,3375,3207,3281,2929,3288,3313,3038,0.009977413,1.120046888,1.117470256,0.349065840244,4500.0,0.359861701727,-0.0138496374711,0.0107958512381,-48.5813293457,0.0,6000.0,-0.000952365866397,0.00579370977357,0.0,0.0,0.349065840244,0.0265011657029,-0.00682148057967,0.318643480539,0.00197932193987,0.00197932193987,-0.000304342363961,-0.00406482070684,155.263000488,155.263000488,-0.728345930576,107.575263977,2012,2016,2535,2034,2034,2937,3429,3429,3249,3369,3100,3063,3165,3156,3246,2862,3413,3421,3256,3373,3143,3357,3392,3199
1508410547316155248,113,1508410547315953825,plot_matl,-0.300000011921,-4000.0,-0.272435188293,-0.000273215846391,0.0275647975504,110.196937561,0.349065840244,0.0107958512381,-0.000949439068791,-0.272435724735,-0.0065923910588,-0.0065923910588,0.0057489941828,-0.000262456102064,0.261154472828,0.261154472828,0.620031476021,-90.942741394,2028,2057,2094,2034,2034,2762,3340,3358,3168,3307,3029,2988,3073,3089,3174,2895,3382,3376,3205,3278,2928,3287,3314,3038,0.009979809,1.130027593,1.127718417,0.349065840244,4500.0,0.359861701727,-0.013725310564,0.0107958512381,-48.5813293457,0.0,6000.0,-0.000961121928412,-0.00743962079287,0.0,0.0,0.349065840244,0.0265011657029,-0.00682413484901,0.318715810776,0.00167558377143,0.00167558377143,-0.000249294535024,-0.00550583237782,155.39630127,155.39630127,-0.717938423157,107.612548828,2026,2022,2535,2034,2034,2937,3429,3429,3249,3369,3100,3063,3165,3157,3245,2861,3414,3422,3255,3371,3144,3357,3394,3199
1508410547326377735,114,1508410547325953404,plot_matl,-0.300000011921,-4000.0,-0.272431850433,-0.000327446381561,0.0275681614876,110.187568665,0.349065840244,0.0107958512381,-0.000935306365136,-0.272432208061,-0.00586800649762,-0.00586800649762,-0.00798403192312,0.00565692875534,0.285908252001,0.285908252001,0.650125324726,-90.9010772705,2021,2052,2094,2038,2038,2763,3339,3359,3168,3306,3027,2988,3073,3089,3174,2895,3382,3376,3205,3278,2928,3287,3314,3038,0.010000618,1.140027768,1.140070452,0.349065840244,4500.0,0.359861701727,-0.0122061995789,0.0107958512381,-48.5813293457,0.0,6000.0,-0.000932525435928,0.00538105564192,0.0,0.0,0.349065840244,0.0265011657029,-0.00682631181553,0.318774908781,0.00141959183384,0.00141959183384,-0.000204141149879,-0.00667304405943,155.505645752,155.505645752,-0.332244187593,107.603118896,2029,2029,2536,2037,2037,2938,3431,3428,3250,3368,3098,3063,3165,3157,3245,2861,3414,3422,3255,3371,3144,3357,3394,3200
1508410547336222513,115,1508410547335935807,plot_matl,-0.300000011921,-4000.0,-0.272434681654,-0.000274681893643,0.0275653079152,110.195335388,0.349065840244,0.0121453320608,-0.000971034634858,-0.272435247898,0.00734404940158,0.00734404940158,-0.00726836547256,-0.00026417535264,0.376777380705,0.376777380705,0.695982515812,-90.812538147,2026,2069,2094,2038,2038,2763,3339,3359,3168,3306,3027,2986,3073,3089,3176,2897,3382,3377,3207,3281,2927,3287,3314,3038,0.009978833,1.150008637,1.147565795,0.349065840244,4500.0,0.359861701727,-0.0119827929884,0.0107958512381,-48.5813293457,0.0,6000.0,-0.000956800708082,0.00586256524548,0.0,0.0,0.349065840244,0.0240919683129,-0.00682809576392,0.318708539009,-0.0218127183616,-0.0218127183616,-0.000167139864061,-0.00536373630166,155.479568481,155.479568481,-0.502638757229,107.675827026,2021,2029,2536,2037,2037,2938,3431,3428,3250,3368,3098,3062,3164,3156,3247,2860,3412,3420,3254,3373,3142,3357,3394,3200
1508410547346258718,116,1508410547345963404,plot_matl,-0.300000011921,-4000.0,-0.272431582212,-0.000338480662322,0.0275684073567,110.19203949,0.349065840244,0.0107958512381,-0.000962283578701,-0.272426098585,-0.00686199124902,-0.00686199124902,0.0059848241508,0.00552946515381,0.207333981991,0.207333981991,0.751488804817,-90.6750183105,2021,2068,2094,2038,2038,2761,3340,3356,3169,3306,3027,2986,3073,3089,3176,2897,3382,3377,3207,3281,2927,3287,3314,3035,0.010028812,1.160036996,1.163342192,0.349065840244,4500.0,0.359861701727,-0.0137337455526,0.0107958512381,-48.5813293457,0.0,6000.0,-0.000974815455265,-0.00718696881086,0.0,0.0,0.349065840244,0.0265011657029,-0.00682956725359,0.318769991398,0.00296522607096,0.00296522607096,-0.000136624148581,-0.00657649058849,155.49987793,155.49987793,-0.511923670769,107.723121643,2033,2033,2536,2037,2037,2936,3430,3430,3252,3368,3098,3062,3164,3156,3247,2860,3412,3420,3254,3373,3142,3358,3395,3200
1508410547356248995,117,1508410547355949396,plot_matl,-0.300000011921,-4000.0,-0.272423446178,-0.000490316306241,0.0275765415281,110.183403015,0.349065840244,0.0107958512381,-0.000946553016547,-0.272430300713,-0.00709528988227,-0.00709528988227,-0.00775817688555,-0.000355225201929,0.349954426289,0.349954426289,0.515056788921,-90.5788269043,2012,2053,2094,2038,2038,2761,3340,3356,3169,3305,3028,2985,3070,3089,3176,2896,3379,3375,3205,3281,2927,3287,3314,3035,0.009985581,1.170023069,1.168312977,0.349065840244,4500.0,0.361211180687,0.0124966455624,0.0121453320608,-54.6539955139,0.0,6000.0,-0.000944606144913,-0.00780355138704,0.0,0.0,0.349065840244,0.0240919683129,-0.00683075236157,0.31888115406,-0.0209867060184,-0.0209867060184,-0.000112042049295,0.0530835017562,155.553329468,155.553329468,-0.468471080065,107.710601807,2037,2032,2536,2037,2037,2936,3430,3430,3252,3369,3098,3063,3164,3156,3247,2862,3413,3421,3255,3373,3142,3358,3395,3200
1508410547366350339,118,1508410547365940274,plot_matl,-0.300000011921,-4000.0,-0.272427648306,-0.000406984472647,0.027572337538,110.18775177,0.349065840244,0.0107958512381,-0.000955690164119,-0.272428452969,-0.00701975263655,-0.00701975263655,0.00584874255583,-0.000391706795199,0.395248025656,0.395248025656,0.380653679371,-90.5560379028,2015,2048,2094,2037,2037,2760,3339,3356,3169,3305,3028,2985,3070,3089,3176,2896,3379,3375,3205,3280,2929,3287,3315,3037,0.009990487,1.180013842,1.178877466,0.349065840244,4500.0,0.361211180687,0.0126570183784,0.0121453320608,-54.6539955139,0.0,6000.0,-0.000954479444772,0.00581774115562,0.0,0.0,0.349065840244,0.0240919683129,-0.00683386437595,0.318693727255,-0.0202601980418,-0.0202601980418,-0.0153867080808,-0.0667482838035,155.600219727,155.600219727,-0.780911743641,107.511764526,2022,2023,2536,2037,2037,2937,3431,3430,3252,3369,3098,3063,3164,3156,3247,2862,3413,3421,3255,3373,3143,3360,3391,3197
1508410547376249680,119,1508410547375943927,plot_matl,-0.300000011921,-4000.0,-0.272436797619,-0.000223438182729,0.0275632161647,110.190498352,0.349065840244,0.0121453320608,-0.000962222868111,-0.272431433201,0.00539375795051,0.00539375795051,-0.00741646671668,0.00564316241071,0.435975432396,0.435975432396,0.282304376364,-90.6375656128,2022,2057,2094,2037,2037,2760,3339,3359,3169,3306,3027,2988,3071,3091,3177,2898,3380,3375,3205,3280,2929,3287,3315,3037,0.010003247,1.190017499,1.190386393,0.349065840244,4500.0,0.361211180687,0.0117587251589,0.0121453320608,-54.6539955139,0.0,6000.0,-0.000947554886807,0.0057056620717,0.0,0.0,0.349065840244,0.0265011657029,-0.00683428021148,0.318762600422,0.00382084678859,0.00382084678859,-2.4575210773e-05,0.0556096360087,155.391174316,155.391174316,-0.902193427086,107.662162781,2021,2025,2536,2037,2037,2937,3431,3430,3249,3370,3099,3061,3164,3157,3247,2862,3414,3421,3255,3373,3143,3360,3391,3197
1508410547386447868,120,1508410547385965535,plot_matl,-0.300000011921,-4000.0,-0.272428959608,-0.000388044834835,0.027571041137,110.18536377,0.349065840244,0.0121453320608,-0.000956555013545,-0.272429734468,0.00588109809905,0.00588109809905,-0.00751411868259,-0.000373001152184,0.43288359046,0.43288359046,0.463911801577,-90.4766235352,2015,2056,2094,2037,2037,2760,3339,3359,3169,3306,3027,2988,3071,3091,3177,2898,3380,3376,3207,3279,2929,3286,3310,3036,0.010021663,1.200039342,1.20259956,0.349065840244,4500.0,0.359861701727,-0.0150260990486,0.0107958512381,-48.5813293457,0.0,6000.0,-0.000941536563914,0.0056065833196,0.0,0.0,0.349065840244,0.0265011657029,-0.00681981956586,0.31870508194,0.00319202104583,0.00319202104583,-0.000316359451972,-0.00510905031115,155.355743408,155.355743408,-0.898081481457,107.607337952,2024,2021,2537,2037,2037,2937,3431,3430,3249,3370,3099,3061,3164,3157,3247,2862,3414,3420,3257,3372,3144,3359,3394,3197
1508410547396435634,121,1508410547395981284,plot_matl,-0.300000011921,-4000.0,-0.272437989712,-0.000206190685276,0.0275620054454,110.198402405,0.349065840244,0.0107958512381,-0.00095182703808,-0.272438436747,-0.0073216878809,-0.0073216878809,0.00582212442532,-0.000197998742806,0.36147415638,0.36147415638,0.398295223713,-90.3872070312,2012,2048,2094,2037,2037,2759,3340,3358,3168,3307,3028,2988,3072,3088,3175,2898,3380,3376,3207,3279,2929,3286,3310,3036,0.010016316,1.210055412,1.211974236,0.349065840244,4500.0,0.361211180687,0.0120134558529,0.0121453320608,-54.6539955139,0.0,6000.0,-0.000950226210989,0.00578811857849,0.0,0.0,0.349065840244,0.0265011657029,-0.00682278024033,0.318658143282,0.00432494236156,0.00432494236156,-0.000259023130639,-0.00418309727684,155.287536621,155.287536621,-0.649053633213,107.70035553,2025,2022,2537,2037,2037,2936,3432,3433,3249,3371,3098,3061,3164,3155,3244,2862,3414,3420,3257,3372,3144,3359,3394,3197
1508410547406283408,122,1508410547405958256,plot_matl,-0.300000011921,-4000.0,-0.272439956665,-0.00016881468764,0.0275600366294,110.195991516,0.349065840244,0.0121453320608,-0.000960753590334,-0.272440314293,0.00563491694629,0.00563491694629,0.00599253643304,-0.000162098411238,0.293533653021,0.293533653021,0.308722555637,-90.5495681763,2021,2043,2093,2037,2037,2759,3340,3358,3168,3307,3028,2988,3072,3088,3175,2897,3381,3375,3207,3282,2926,3285,3316,3037,0.009977026,1.220032755,1.217197172,0.349065840244,4500.0,0.359861701727,-0.0149800805375,0.0107958512381,-48.5813293457,0.0,6000.0,-0.000958873541094,-0.00746491970494,0.0,0.0,0.349065840244,0.0265011657029,-0.00682520493865,0.318560510874,0.00306813744828,0.00306813744828,-0.000212058119359,-0.0640705227852,155.120986938,155.120986938,-0.470096707344,107.708473206,2021,2013,2536,2037,2037,2936,3432,3433,3249,3371,3098,3061,3164,3155,3244,2862,3413,3421,3254,3373,3143,3360,3392,3196
1508410547416265672,123,1508410547415928789,plot_matl,-0.300000011921,-4000.0,-0.27244156599,-0.000138216433697,0.0275584254414,110.198402405,0.349065840244,0.0107958512381,-0.000968731532339,-0.272441864014,-0.00775242364034,-0.00775242364034,-0.00727389892563,-0.00013272826618,0.280056148767,0.280056148767,0.185687556863,-90.5204315186,2026,2054,2093,2037,2037,2761,3338,3358,3169,3306,3027,2987,3074,3088,3175,2897,3381,3375,3207,3282,2926,3285,3316,3037,0.009967369,1.230001779,1.225986387,0.349065840244,4500.0,0.359861701727,-0.0155880199745,0.0107958512381,-48.5813293457,0.0,6000.0,-0.00095383770531,0.0058486731723,0.0,0.0,0.349065840244,0.0265011657029,-0.00681464979425,0.31854274869,0.00294341356494,0.00294341356494,-0.000426814018283,-0.00187774631195,155.422348022,155.422348022,-0.502580940723,107.90561676,2018,2018,2536,2035,2035,2935,3429,3431,3251,3370,3097,3063,3165,3155,3244,2862,3413,3421,3254,3373,3143,3360,3392,3196
1508410547426332221,124,1508410547425941476,plot_matl,-0.300000011921,-4000.0,-0.272443622351,-0.000103760576167,0.0275563728064,110.200378418,0.349065840244,0.0107958512381,-0.000937427859753,-0.272443830967,-0.00777523173019,-0.00777523173019,0.00552061619237,-9.96980597847e-05,0.300146043301,0.300146043301,0.34733530879,-90.6520233154,2014,2040,2093,2037,2037,2761,3338,3358,3169,3306,3027,2987,3074,3090,3176,2897,3377,3377,3205,3279,2929,3287,3312,3037,0.010013479,1.240014847,1.241671396,0.349065840244,4500.0,0.359861701727,-0.016184117645,0.0107958512381,-48.5813293457,0.0,6000.0,-0.000948550587054,0.00574557110667,0.0,0.0,0.349065840244,0.0240919683129,-0.00680377660319,0.318578630686,-0.0188373886049,-0.0188373886049,-0.000647058419418,0.0592039003968,155.487609863,155.487609863,-0.374851047993,107.958084106,2022,2020,2536,2035,2035,2935,3429,3431,3251,3370,3097,3063,3165,3156,3244,2860,3413,3422,3256,3370,3145,3359,3393,3196
1508410547436364694,125,1508410547435996103,plot_matl,-0.300000011921,-4000.0,-0.272433817387,-0.000296581245493,0.0275661926717,110.189155579,0.349065840244,0.0121453320608,-0.000948183471337,-0.272434383631,0.00627616187558,0.00627616187558,-0.00767710758373,-0.000285226182314,0.291354298592,0.291354298592,0.429766356945,-90.6433486938,2016,2062,2094,2039,2039,2762,3339,3358,3170,3308,3028,2987,3074,3090,3176,2897,3377,3377,3205,3279,2929,3287,3312,3036,0.010055344,1.250070242,1.256918,0.349065840244,4500.0,0.359861701727,-0.0147352181375,0.0107958512381,-48.5813293457,0.0,6000.0,-0.000933025672566,0.0054348227568,0.0,0.0,0.349065840244,0.0265011657029,-0.00682397931814,0.318554610014,0.00544296344742,0.00544296344742,-0.000236644424149,-0.0021720668301,155.474121094,155.474121094,-0.380647420883,107.862419128,2032,2034,2537,2034,2034,2937,3431,3431,3250,3372,3098,3063,3165,3156,3244,2860,3413,3422,3256,3370,3145,3359,3393,3197
1508410547446379556,126,1508410547445950574,plot_matl,-0.300000011921,-4000.0,-0.27243027091,-0.000360003614333,0.0275697205216,110.195289612,0.349065840244,0.0121453320608,-0.000944879080635,-0.272430986166,0.00709270499647,0.00709270499647,0.00568576296791,-0.000346018990967,0.171606272459,0.171606272459,0.421214342117,-90.5790405273,2034,2068,2094,2039,2039,2762,3339,3358,3170,3308,3028,2986,3073,3090,3175,2897,3380,3375,3208,3281,2927,3287,3312,3036,0.009953569,1.260024522,1.254149694,0.349065840244,4500.0,0.359861701727,-0.0130499899387,0.0107958512381,-48.5813293457,0.0,6000.0,-0.000942693150137,0.00564698781818,0.0,0.0,0.349065840244,0.0265011657029,-0.00681152986363,0.318379282951,0.00573459593579,0.00573459593579,0.0148506322876,0.00137685739901,155.274520874,155.274520874,-0.298974901438,107.820053101,2028,2030,2537,2034,2034,2937,3431,3431,3250,3372,3098,3063,3165,3156,3246,2860,3414,3421,3257,3371,3145,3359,3393,3197
1508410547456344711,127,1508410547455934927,plot_matl,-0.300000011921,-4000.0,-0.272433638573,-0.000294746103464,0.0275663528591,110.193244934,0.349065840244,0.0121453320608,-0.000919022539165,-0.272434234619,0.00703647639602,0.00703647639602,-0.0082625085488,-0.000283154658973,0.106627464294,0.106627464294,0.468019604683,-90.8463287354,2022,2049,2094,2039,2039,2761,3341,3358,3169,3308,3028,2986,3073,3090,3175,2897,3380,3375,3208,3281,2927,3288,3315,3035,0.009983346,1.270008199,1.267884942,0.349065840244,4500.0,0.359861701727,-0.0131713384762,0.0107958512381,-48.5813293457,0.0,6000.0,-0.000915990851354,0.00509761739522,0.0,0.0,0.349065840244,0.0265011657029,-0.00684231007472,0.318400859833,0.00771310692653,0.00771310692653,0.000130114160129,0.000936550903134,155.414306641,155.414306641,-0.406698793173,107.800178528,2034,2030,2537,2034,2034,2937,3431,3431,3250,3372,3098,3063,3165,3156,3246,2860,3414,3421,3257,3371,3145,3358,3392,3197
1508410547466322840,128,1508410547465950767,plot_matl,-0.300000011921,-4000.0,-0.272424161434,-0.000470738188596,0.027575828135,110.19065094,0.349065840244,0.0107958512381,-0.000934662355576,-0.272419601679,-0.00688508385792,-0.00688508385792,0.00542436074466,-0.00056833709823,0.161181643605,0.161181643605,0.588678002357,-91.0195236206,2013,2048,2094,2039,2039,2761,3341,3358,3169,3305,3026,2989,3071,3089,3175,2896,3381,3375,3207,3281,2927,3288,3315,3035,0.010015955,1.28002443,1.28204224,0.349065840244,4500.0,0.359861701727,-0.0137815633789,0.0107958512381,-48.5813293457,0.0,6000.0,-0.000945700565353,0.0056459591724,0.0,0.0,0.349065840244,0.0265011657029,-0.00684119062498,0.318522959948,0.00892095454037,0.00892095454037,0.000106451807369,-0.00147916912101,155.414215088,155.414215088,-0.431177824736,107.911117554,2022,2028,2537,2034,2034,2937,3431,3431,3250,3370,3099,3063,3164,3157,3246,2862,3414,3421,3254,3371,3145,3358,3392,3197
1508410547476533888,129,1508410547475988642,plot_matl,-0.300000011921,-4000.0,-0.272423893213,-0.00048474027426,0.0275761000812,110.186332703,0.349065840244,0.0107958512381,-0.000934662355576,-0.272419601679,-0.00688508385792,-0.00688508385792,0.00542436074466,-0.00056833709823,0.161181643605,0.161181643605,0.588678002357,-91.0195236206,2027,2073,2094,2037,2037,2760,3339,3358,3169,3305,3026,2989,3071,3089,3175,2896,3381,3375,3207,3280,2930,3287,3315,3037,0.010039423,1.29006257,1.295085567,0.349065840244,4500.0,0.361211180687,0.0144539503381,0.0121453320608,-54.6539955139,0.0,6000.0,-0.000945674371906,-0.00778049556538,0.0,0.0,0.349065840244,0.0265011657029,-0.00684119062498,0.318522959948,0.00892095454037,0.00892095454037,0.000106451807369,-0.00147916912101,155.414215088,155.414215088,-0.431177824736,107.911117554,2019,2020,2536,2032,2032,2938,3431,3431,3250,3370,3099,3063,3164,3157,3246,2862,3414,3421,3254,3373,3142,3358,3394,3198
1508410547486316805,130,1508410547485938126,plot_matl,-0.300000011921,-4000.0,-0.272417873144,-0.000605023291428,0.0275821294636,110.178886414,0.349065840244,0.0107958512381,-0.000934662355576,-0.272419601679,-0.00688508385792,-0.00688508385792,0.00542436074466,-0.00056833709823,0.161181643605,0.161181643605,0.588678002357,-91.0195236206,2027,2073,2094,2037,2037,2760,3339,3358,3169,3305,3026,2989,3071,3089,3175,2896,3381,3375,3207,3280,2930,3287,3315,3037,0.009946854,1.300011488,1.29309102,0.349065840244,4500.0,0.362560659647,0.0400113239884,0.0134948138148,-60.7266616821,0.0,6000.0,-0.000977219897322,-0.00709528196603,0.0,0.0,0.349065840244,0.0265011657029,-0.00684119062498,0.318522959948,0.00892095454037,0.00892095454037,0.000106451807369,-0.00147916912101,155.414215088,155.414215088,-0.431177824736,107.911117554,2019,2020,2536,2032,2032,2938,3431,3431,3250,3370,3099,3063,3164,3157,3246,2862,3414,3421,3254,3373,3142,3358,3394,3198
1508410547496331342,131,1508410547495939909,plot_matl,-0.300000011921,-4000.0,-0.272413253784,-0.000700761156622,0.0275867581367,110.173469543,0.349065840244,0.0107958512381,-0.000934662355576,-0.272419601679,-0.00688508385792,-0.00688508385792,0.00542436074466,-0.00056833709823,0.161181643605,0.161181643605,0.588678002357,-91.0195236206,2015,2051,2094,2041,2041,2760,3339,3357,3171,3305,3027,2987,3071,3089,3176,2898,3380,3377,3205,3279,2928,3285,3315,3034,0.010001632,1.310013386,1.310213792,0.349065840244,4500.0,0.361211180687,0.0123191084713,0.0121453320608,-54.6539955139,0.0,6000.0,-0.000981436111033,0.00640914170071,0.0,0.0,0.349065840244,0.0265011657029,-0.00684119062498,0.318522959948,0.00892095454037,0.00892095454037,0.000106451807369,-0.00147916912101,155.414215088,155.414215088,-0.431177824736,107.911117554,2028,2026,2536,2032,2032,2938,3431,3428,3250,3371,3101,3061,3164,3156,3246,2860,3413,3420,3257,3372,3144,3358,3390,3198
1508410547506395656,132,1508410547505982270,plot_matl,-0.300000011921,-4000.0,-0.272413402796,0.0052748019807,0.0275865998119,111.617759705,0.349065840244,0.0107958512381,-0.000982383266091,-0.272420465946,-0.00743835698813,-0.00743835698813,-0.00699490774423,-0.00653145555407,0.0453851185739,0.0453851185739,0.350986033678,-90.7656555176,2030,2068,2094,2041,2041,2761,3340,3358,3170,3306,3027,2987,3073,3091,3173,2898,3380,3377,3205,3279,2928,3285,3315,3034,0.010042444,1.32005627,1.325602608,0.349065840244,4500.0,0.359861701727,-0.0151640335098,0.0107958512381,-48.5813293457,0.0,6000.0,-0.00100763433147,0.00694170268252,0.0,0.0,0.349065840244,0.0240919683129,-0.00684983376414,0.318615406752,-0.0136913619936,-0.0136913619936,0.000272300210781,-0.00335908448324,155.293838501,155.293838501,-0.0652616620064,107.769126892,2010,2010,2536,2032,2032,2936,3428,3431,3252,3369,3099,3061,3163,3155,3244,2860,3413,3420,3257,3372,3144,3358,3390,3198
1508410547516112246,133,1508410547515934587,plot_matl,-0.300000011921,-4000.0,-0.272419810295,-0.000574399309698,0.0275801885873,110.185752869,0.349065840244,0.0107958512381,-0.000982383266091,-0.272420465946,-0.00743835698813,-0.00743835698813,-0.00699490774423,-0.00653145555407,0.0453851185739,0.0453851185739,0.350986033678,-90.7656555176,2009,2066,2094,2041,2041,2761,3340,3358,3170,3306,3027,2987,3073,3091,3173,2896,3381,3375,3205,3280,2927,3285,3312,3036,0.009950365,1.330007396,1.323398545,0.349065840244,4500.0,0.361211180687,0.0123548386618,0.0121453320608,-54.6539955139,0.0,6000.0,-0.000982991419733,-0.00698192790151,0.0,0.0,0.349065840244,0.0240919683129,-0.00684983376414,0.318615406752,-0.0136913619936,-0.0136913619936,0.000272300210781,-0.00335908448324,155.293838501,155.293838501,-0.0652616620064,107.769126892,2014,2020,2536,2032,2032,2936,3428,3431,3252,3369,3099,3061,3163,3155,3244,2860,3413,3420,3255,3374,3143,3360,3392,3196
1508410547526329529,134,1508410547525964306,plot_matl,-0.300000011921,-4000.0,-0.272425115108,-0.000469659949886,0.0275748930871,110.179092407,0.349065840244,0.0107958512381,-0.000982383266091,-0.272420465946,-0.00743835698813,-0.00743835698813,-0.00699490774423,-0.00653145555407,0.0453851185739,0.0453851185739,0.350986033678,-90.7656555176,1998,2033,2094,2038,2038,2762,3337,3358,3170,3306,3029,2988,3074,3091,3173,2896,3381,3375,3205,3280,2927,3285,3312,3036,0.010031777,1.340038059,1.344258118,0.349065840244,4500.0,0.361211180687,0.0130568705499,0.0121453320608,-54.6539955139,0.0,6000.0,-0.000974628259428,-0.00715280510485,0.0,0.0,0.349065840244,0.0240919683129,-0.00684983376414,0.318615406752,-0.0136913619936,-0.0136913619936,0.000272300210781,-0.00335908448324,155.293838501,155.293838501,-0.0652616620064,107.769126892,2028,2028,2536,2034,2034,2938,3430,3429,3249,3369,3099,3063,3167,3155,3244,2860,3413,3420,3255,3374,3143,3360,3392,3196
1508410547536268227,135,1508410547535946004,plot_matl,-0.300000011921,-4000.0,-0.272429406643,-0.000384448096156,0.0275705847889,110.184761047,0.349065840244,0.0107958512381,-0.000982383266091,-0.272420465946,-0.00743835698813,-0.00743835698813,-0.00699490774423,-0.00653145555407,0.0453851185739,0.0453851185739,0.350986033678,-90.7656555176,2025,2051,2094,2038,2038,2762,3337,3358,3170,3306,3029,2988,3074,3090,3176,2897,3381,3374,3206,3279,2926,3288,3312,3036,0.009980655,1.350019816,1.347388425,0.349065840244,4500.0,0.361211180687,0.0132306469604,0.0121453320608,-54.6539955139,0.0,6000.0,-0.000993386376649,-0.00680199638009,0.0,0.0,0.349065840244,0.0240919683129,-0.00684983376414,0.318615406752,-0.0136913619936,-0.0136913619936,0.000272300210781,-0.00335908448324,155.293838501,155.293838501,-0.0652616620064,107.769126892,2033,2028,2536,2034,2034,2938,3430,3429,3249,3369,3099,3063,3167,3155,3244,2861,3413,3421,3256,3374,3143,3358,3391,3196
1508410547546373727,136,1508410547545971716,plot_matl,-0.300000011921,-4000.0,-0.272428184748,-0.000427084829425,0.02757181786,110.187538147,0.349065840244,0.0121453320608,-0.000980854965746,-0.272430151701,0.00662030326203,0.00662030326203,0.00636173179373,-0.000369801244233,0.148490384221,0.148490384221,0.0696584805846,-91.3660583496,2024,2045,2094,2039,2039,2761,3338,3359,3169,3305,3027,2988,3074,3090,3176,2897,3381,3374,3206,3279,2926,3288,3312,3036,0.010025311,1.360045403,1.363442296,0.349065840244,4500.0,0.362560659647,0.0404814071953,0.0134948138148,-60.7266616821,0.0,6000.0,-0.000982751254924,0.00639190664515,0.0,0.0,0.349065840244,0.0240919683129,-0.00682396581396,0.318653136492,-0.0125843081623,-0.0125843081623,-0.000246501964284,-0.00420433981344,155.160446167,155.160446167,-0.0325578711927,107.496887207,2029,2025,2536,2034,2034,2937,3429,3429,3252,3368,3098,3063,3167,3155,3244,2861,3413,3421,3256,3374,3143,3358,3391,3199
1508410547556270385,137,1508410547555941981,plot_matl,-0.300000011921,-4000.0,-0.272426456213,-0.000457677262602,0.0275735314935,110.18536377,0.349065840244,0.0121453320608,-0.000980854965746,-0.272430151701,0.00662030326203,0.00662030326203,0.00636173179373,-0.000369801244233,0.148490384221,0.148490384221,0.0696584805846,-91.3660583496,2014,2045,2094,2039,2039,2761,3338,3359,3169,3305,3027,2988,3071,3089,3176,2896,3381,3374,3207,3279,2928,3288,3312,3036,0.009969244,1.370015207,1.365786428,0.349065840244,4500.0,0.359861701727,-0.0139505742118,0.0107958512381,-48.5813293457,0.0,6000.0,-0.000984206213616,0.00643472280353,0.0,0.0,0.349065840244,0.0240919683129,-0.00682396581396,0.318653136492,-0.0125843081623,-0.0125843081623,-0.000246501964284,-0.00420433981344,155.160446167,155.160446167,-0.0325578711927,107.496887207,2032,2032,2536,2034,2034,2937,3429,3429,3252,3368,3098,3061,3165,3156,3247,2859,3413,3421,3254,3371,3144,3358,3391,3199
1508410547566060839,138,1508410547565930700,plot_matl,-0.300000011921,-4000.0,-0.272436141968,-0.00623456062749,0.0275638438761,108.819824219,0.349065840244,0.0121453320608,-0.000980854965746,-0.272430151701,0.00662030326203,0.00662030326203,0.00636173179373,-0.000369801244233,0.148490384221,0.148490384221,0.0696584805846,-91.3660583496,2015,2061,2094,2039,2039,2761,3338,3358,3167,3305,3027,2988,3071,3089,3176,2896,3381,3374,3207,3279,2928,3287,3314,3037,0.009988487,1.380003847,1.378411206,0.349065840244,4500.0,0.359861701727,-0.014371169731,0.0107958512381,-48.5813293457,0.0,6000.0,-0.000972331850789,0.0062004472129,0.0,0.0,0.349065840244,0.0240919683129,-0.00682396581396,0.318653136492,-0.0125843081623,-0.0125843081623,-0.000246501964284,-0.00420433981344,155.160446167,155.160446167,-0.0325578711927,107.496887207,2023,2028,2536,2037,2037,2937,3430,3431,3248,3368,3098,3061,3165,3156,3247,2859,3413,3421,3254,3371,3144,3360,3393,3197
1508410547576240522,139,1508410547575994950,plot_matl,-0.300000011921,-4000.0,-0.272433131933,-0.000314947450534,0.0275668613613,110.201095581,0.349065840244,0.0121453320608,-0.000980854965746,-0.272430151701,0.00662030326203,0.00662030326203,0.00636173179373,-0.000369801244233,0.148490384221,0.148490384221,0.0696584805846,-91.3660583496,2021,2066,2094,2039,2039,2761,3338,3358,3167,3308,3029,2985,3071,3090,3174,2897,3382,3377,3204,3279,2928,3287,3314,3037,0.010065409,1.390068848,1.399091851,0.349065840244,4500.0,0.359861701727,-0.0132566867396,0.0107958512381,-48.5813293457,0.0,6000.0,-0.00096378789749,0.00602859165519,0.0,0.0,0.349065840244,0.0240919683129,-0.00682396581396,0.318653136492,-0.0125843081623,-0.0125843081623,-0.000246501964284,-0.00420433981344,155.160446167,155.160446167,-0.0325578711927,107.496887207,2016,2016,2536,2037,2037,2937,3430,3431,3248,3370,3100,3063,3165,3156,3244,2861,3414,3421,3256,3371,3144,3360,3393,3197
1508410547586462139,140,1508410547585997786,plot_matl,-0.300000011921,-4000.0,-0.272431015968,-0.000366630963981,0.0275689959526,110.186378479,0.349065840244,0.0121453320608,-0.000978268217295,-0.272427916527,0.00699553871527,0.00699553871527,-0.00710451975465,0.00555525720119,-0.181204453111,-0.181204453111,-0.344315886497,-90.8693313599,2018,2050,2093,2036,2036,2761,3340,3358,3167,3308,3029,2985,3071,3090,3174,2897,3382,3377,3204,3278,2928,3285,3312,3035,0.010002082,1.400071085,1.40029148,0.349065840244,4500.0,0.359861701727,-0.0123175913468,0.0107958512381,-48.5813293457,0.0,6000.0,-0.000968053063843,0.00610192026943,0.0,0.0,0.349065840244,0.0265011657029,-0.00682285474613,0.318633049726,0.0137511491776,0.0137511491776,-0.00026503164554,0.0580800622702,155.55355835,155.55355835,-0.455649018288,107.487373352,2023,2020,2536,2039,2039,2938,3431,3431,3248,3370,3100,3063,3165,3156,3244,2861,3414,3421,3256,3374,3144,3358,3391,3198
1508410547596341669,141,1508410547595993465,plot_matl,-0.300000011921,-4000.0,-0.272431015968,-0.000366630963981,0.0275689959526,110.186378479,0.349065840244,0.0121453320608,-0.000978268217295,-0.272427916527,0.00699553871527,0.00699553871527,-0.00710451975465,0.00555525720119,-0.181204453111,-0.181204453111,-0.344315886497,-90.8693313599,2018,2050,2093,2036,2036,2761,3340,3358,3167,3308,3029,2985,3071,3090,3174,2897,3382,3377,3204,3278,2928,3285,3312,3035,0.009996927,1.410067984,1.409566707,0.349065840244,4500.0,0.359861701727,-0.0123175913468,0.0107958512381,-48.5813293457,0.0,6000.0,-0.000968053063843,0.00610192026943,0.0,0.0,0.349065840244,0.0265011657029,-0.00682285474613,0.318633049726,0.0137511491776,0.0137511491776,-0.00026503164554,0.0580800622702,155.55355835,155.55355835,-0.455649018288,107.487373352,2023,2020,2536,2039,2039,2938,3431,3431,3248,3370,3100,3063,3165,3156,3244,2861,3414,3421,3256,3374,3144,3358,3391,3198
1508410547606139647,142,1508410547605933997,plot_matl,-0.300000011921,-4000.0,-0.272441357374,-0.000159168746904,0.0275586359203,109.814704895,0.349065840244,0.0121453320608,-0.000978268217295,-0.272427916527,0.00699553871527,0.00699553871527,-0.00710451975465,0.00555525720119,-0.181204453111,-0.181204453111,-0.344315886497,-90.8693313599,2020,2052,2093,2036,2036,2761,3340,3355,3168,3306,3029,3007,3090,3104,3188,2908,3394,3377,3204,3278,2928,3285,3312,3035,0.009937058,1.420006822,1.411062236,0.349065840244,4500.0,0.361211180687,0.0143923675641,0.0121453320608,-54.6539955139,0.0,6000.0,-0.000898783386219,0.00472010998055,0.0,0.0,0.349065840244,0.0265011657029,-0.00682285474613,0.318633049726,0.0137511491776,0.0137511491776,-0.00026503164554,0.0580800622702,155.55355835,155.55355835,-0.455649018288,107.487373352,2021,2022,2536,2039,2039,2938,3431,3429,3251,3368,3101,3082,3181,3171,3259,2873,3425,3421,3256,3374,3144,3358,3391,3198
1508410547616157435,143,1508410547615937083,plot_matl,-0.300000011921,-4000.0,-0.272442787886,-0.000128900501295,0.0275572128594,110.200294495,0.349065840244,0.0121453320608,-0.000978268217295,-0.272427916527,0.00699553871527,0.00699553871527,-0.00710451975465,0.00555525720119,-0.181204453111,-0.181204453111,-0.344315886497,-90.8693313599,2011,2057,2094,2036,2036,2761,3340,3355,3168,3306,3029,3007,3090,3104,3188,2908,3394,3388,3218,3290,2935,3295,3320,3044,0.01000339,1.430010179,1.43048477,0.349065840244,4500.0,0.359861701727,-0.0130644422024,0.0107958512381,-48.5813293457,0.0,6000.0,-0.000878091261256,0.00429880106822,0.0,0.0,0.349065840244,0.0265011657029,-0.00682285474613,0.318633049726,0.0137511491776,0.0137511491776,-0.00026503164554,0.0580800622702,155.55355835,155.55355835,-0.455649018288,107.487373352,2020,2019,2536,2035,2035,2938,3431,3429,3251,3368,3101,3082,3181,3171,3259,2873,3425,3430,3266,3382,3152,3365,3401,3205
1508410547626250151,144,1508410547625982830,plot_matl,-0.300000011921,-4000.0,-0.27243873477,-0.000209657751839,0.0275612585247,110.195915222,0.349065840244,0.0107958512381,-0.000882693973836,-0.272443026304,-0.00627508992329,-0.00627508992329,0.00439114216715,-0.000123826524941,-0.237881138921,-0.237881138921,-0.907957792282,-90.4080047607,2002,2032,2094,2036,2036,2765,3342,3360,3172,3309,3031,2989,3075,3094,3177,2908,3394,3388,3218,3290,2935,3295,3320,3044,0.010046956,1.44005667,1.446761664,0.349065840244,4500.0,0.359861701727,-0.0121404947713,0.0107958512381,-48.5813293457,0.0,6000.0,-0.000850442971569,0.00374219543301,0.0,0.0,0.349065840244,0.0240919683129,-0.00685321399942,0.318588286638,-0.0144771523774,-0.0144771523774,0.00034303709981,-0.00285887881182,155.305252075,155.305252075,-0.747123837471,107.244049072,2028,2028,2536,2035,2035,2942,3436,3435,3254,3375,3103,3065,3167,3159,3249,2873,3425,3430,3266,3382,3152,3365,3401,3205
1508410547636332920,145,1508410547635938265,plot_matl,-0.300000011921,-4000.0,-0.272435545921,-0.000270340184215,0.0275644399226,110.194412231,0.349065840244,0.0107958512381,-0.000882693973836,-0.272443026304,-0.00627508992329,-0.00627508992329,0.00439114216715,-0.000123826524941,-0.237881138921,-0.237881138921,-0.907957792282,-90.4080047607,2005,2029,2095,2036,2036,2765,3342,3360,3172,3309,3031,2989,3075,3094,3177,2899,3385,3380,3208,3281,2929,3290,3315,3037,0.009954453,1.450011647,1.443395685,0.349065840244,4500.0,0.359861701727,-0.011835154146,0.0107958512381,-48.5813293457,0.0,6000.0,-0.000876514823176,-0.00914613902569,0.0,0.0,0.349065840244,0.0240919683129,-0.00685321399942,0.318588286638,-0.0144771523774,-0.0144771523774,0.00034303709981,-0.00285887881182,155.305252075,155.305252075,-0.747123837471,107.244049072,2035,2023,2536,2035,2035,2942,3436,3435,3254,3375,3103,3065,3167,3159,3249,2863,3417,3423,3256,3373,3146,3361,3396,3199
1508410547646290106,146,1508410547645930807,plot_matl,-0.300000011921,-4000.0,-0.27241781354,-0.00063303677598,0.0275821760297,110.17414093,0.349065840244,0.0107958512381,-0.000882693973836,-0.272443026304,-0.00627508992329,-0.00627508992329,0.00439114216715,-0.000123826524941,-0.237881138921,-0.237881138921,-0.907957792282,-90.4080047607,2014,2046,2095,2038,2038,2761,3341,3358,3169,3309,3029,2987,3074,3094,3177,2899,3385,3380,3208,3281,2929,3290,3315,3037,0.009991866,1.460004013,1.458812436,0.349065840244,4500.0,0.361211180687,0.0160533711314,0.0121453320608,-54.6539955139,0.0,6000.0,-0.000860580126755,0.00397501280531,0.0,0.0,0.349065840244,0.0240919683129,-0.00685321399942,0.318588286638,-0.0144771523774,-0.0144771523774,0.00034303709981,-0.00285887881182,155.305252075,155.305252075,-0.747123837471,107.244049072,2028,2028,2536,2037,2037,2939,3434,3433,3251,3371,3099,3063,3166,3159,3249,2863,3417,3423,3256,3373,3146,3361,3396,3199
1508410547656327535,147,1508410547655951969,plot_matl,-0.300000011921,-4000.0,-0.272428721189,-0.000412496854551,0.0275712739676,110.187820435,0.349065840244,0.0107958512381,-0.000882693973836,-0.272443026304,-0.00627508992329,-0.00627508992329,0.00439114216715,-0.000123826524941,-0.237881138921,-0.237881138921,-0.907957792282,-90.4080047607,2013,2029,2095,2038,2038,2761,3341,3358,3169,3309,3029,2987,3074,3090,3176,2897,3383,3378,3205,3281,2928,3287,3316,3037,0.010021889,1.470025822,1.473217683,0.349065840244,4500.0,0.359861701727,-0.0110807241872,0.0107958512381,-48.5813293457,0.0,6000.0,-0.000907110341359,0.00493958592415,0.0,0.0,0.349065840244,0.0240919683129,-0.00685321399942,0.318588286638,-0.0144771523774,-0.0144771523774,0.00034303709981,-0.00285887881182,155.305252075,155.305252075,-0.747123837471,107.244049072,2030,2029,2536,2037,2037,2939,3434,3433,3251,3371,3099,3063,3166,3156,3248,2862,3414,3422,3257,3375,3146,3361,3392,3199
1508410547666612821,148,1508410547666013953,plot_matl,-0.300000011921,-4000.0,-0.272432386875,-0.000337527511874,0.0275676157326,110.186096191,0.349065840244,0.0107958512381,-0.000923650921322,-0.272429525852,-0.00585228903219,-0.00585228903219,-0.00815201178193,-0.000396321876906,-0.110841691494,-0.110841691494,-0.343812584877,-90.6478271484,2021,2039,2094,2037,2037,2763,3340,3358,3171,3307,3027,2987,3074,3090,3176,2897,3383,3378,3205,3281,2928,3287,3316,3038,0.010062961,1.480087826,1.489318228,0.349065840244,4500.0,0.361211180687,0.0141967497766,0.0121453320608,-54.6539955139,0.0,6000.0,-0.000924190448131,-0.00817153416574,0.0,0.0,0.349065840244,0.0240919683129,-0.00684822676703,0.318604320288,-0.0115583706647,-0.0115583706647,0.000258757470874,-0.00327410176396,155.450378418,155.450378418,0.146757140756,107.355804443,2033,2029,2535,2034,2034,2938,3430,3429,3249,3372,3099,3063,3166,3156,3248,2862,3414,3422,3257,3375,3146,3361,3392,3200
1508410547676569406,149,1508410547676021013,plot_matl,-0.300000011921,-4000.0,-0.272441327572,-0.00016050778504,0.0275586843491,110.198997498,0.349065840244,0.0107958512381,-0.000923650921322,-0.272429525852,-0.00585228903219,-0.00585228903219,-0.00815201178193,-0.000396321876906,-0.110841691494,-0.110841691494,-0.343812584877,-90.6478271484,2028,2056,2094,2037,2037,2763,3340,3358,3171,3307,3027,2986,3073,3090,3175,2896,3382,3377,3206,3280,2930,3287,3316,3038,0.010006669,1.490094856,1.490993681,0.349065840244,4500.0,0.359861701727,-0.0126601140946,0.0107958512381,-48.5813293457,0.0,6000.0,-0.000912754388992,0.00501695973799,0.0,0.0,0.349065840244,0.0240919683129,-0.00684822676703,0.318604320288,-0.0115583706647,-0.0115583706647,0.000258757470874,-0.00327410176396,155.450378418,155.450378418,0.146757140756,107.355804443,2017,2020,2535,2034,2034,2938,3430,3429,3249,3372,3099,3063,3165,3157,3248,2860,3414,3420,3257,3372,3143,3361,3392,3200
1508410547686450125,150,1508410547685971740,plot_matl,-0.300000011921,-4000.0,-0.272452652454,7.95282539912e-05,0.0275473352522,110.207267761,0.349065840244,0.0107958512381,-0.000923650921322,-0.272429525852,-0.00585228903219,-0.00585228903219,-0.00815201178193,-0.000396321876906,-0.110841691494,-0.110841691494,-0.343812584877,-90.6478271484,2028,2056,2094,2037,2037,2763,3340,3358,3171,3307,3027,2986,3073,3090,3175,2896,3382,3377,3206,3280,2930,3287,3316,3038,0.009948998,1.500045513,1.4923497,0.349065840244,4500.0,0.359861701727,-0.0118191316724,0.0107958512381,-48.5813293457,0.0,6000.0,-0.00092779105762,-0.00809588190168,0.0,0.0,0.349065840244,0.0240919683129,-0.00684822676703,0.318604320288,-0.0115583706647,-0.0115583706647,0.000258757470874,-0.00327410176396,155.450378418,155.450378418,0.146757140756,107.355804443,2017,2020,2535,2034,2034,2938,3430,3429,3249,3372,3099,3063,3165,3157,3248,2860,3414,3420,3257,3372,3143,3361,3392,3200
1508410547696257266,151,1508410547695976424,plot_matl,-0.300000011921,-4000.0,-0.27245208621,-0.00590985408053,0.0275479089469,108.77457428,0.349065840244,0.0107958512381,-0.000923650921322,-0.272429525852,-0.00585228903219,-0.00585228903219,-0.00815201178193,-0.000396321876906,-0.110841691494,-0.110841691494,-0.343812584877,-90.6478271484,2029,2068,2094,2037,2037,2762,3338,3374,3183,3307,3027,2986,3073,3090,3175,2896,3382,3377,3206,3280,2930,3287,3315,3036,0.010003742,1.510050064,1.510565042,0.349065840244,4500.0,0.359861701727,-0.0141632752493,0.0107958512381,-48.5813293457,0.0,6000.0,-0.00101212225854,0.00630279490724,0.0,0.0,0.349065840244,0.0240919683129,-0.00684822676703,0.318604320288,-0.0115583706647,-0.0115583706647,0.000258757470874,-0.00327410176396,155.450378418,155.450378418,0.146757140756,107.355804443,2032,2033,2535,2037,2037,2937,3431,3447,3267,3372,3099,3063,3165,3157,3248,2860,3414,3420,3257,3372,3143,3357,3393,3197
1508410547706351315,152,1508410547705973773,plot_matl,-0.300000011921,-4000.0,-0.272446602583,-4.55047047581e-05,0.0275533925742,110.202865601,0.349065840244,0.0107958512381,-0.000993504771031,-0.272451817989,-0.00726818945259,-0.00726818945259,-0.00757159059867,6.20666905888e-05,-0.437403261662,-0.437403261662,0.0284603051841,-90.4612731934,2016,2070,2094,2037,2037,2762,3338,3374,3183,3319,3039,2998,3081,3097,3184,2905,3387,3383,3213,3280,2930,3287,3315,3036,0.009996555,1.520046986,1.51947636,0.349065840244,4500.0,0.361211180687,0.0116496821865,0.0121453320608,-54.6539955139,0.0,6000.0,-0.000995840528049,0.00610661599785,0.0,0.0,0.349065840244,0.0240919683129,-0.00685360562056,0.318475574255,-0.0133834769949,-0.0133834769949,0.000350072281435,-0.0628650709987,155.680831909,155.680831909,-0.0944780036807,107.674789429,2020,2031,2535,2037,2037,2937,3431,3447,3267,3382,3110,3072,3174,3163,3254,2867,3420,3426,3260,3372,3143,3357,3393,3197
