%time,field.header.seq,field.header.stamp,field.header.frame_id,field.FFJ4_set_point,field.FFJ4_position_gain,field.FFJ4_process_value,field.FFJ4_process_value_dot,field.FFJ4_error,field.FFJ4_command,field.FFJ1,field.FFJ2,field.FFJ3,field.FFJ4,field.FFJ1_dot,field.FFJ2_dot,field.FFJ3_dot,field.FFJ4_dot,field.FFJ1_tao,field.FFJ2_tao,field.FFJ3_tao,field.FFJ4_tao,field.pac0,field.pac1,field.pdc0,field.tac0,field.tdc0,field.el0,field.el1,field.el2,field.el3,field.el4,field.el5,field.el6,field.el7,field.el8,field.el9,field.el10,field.el11,field.el12,field.el13,field.el14,field.el15,field.el16,field.el17,field.el18,field.dt,field.time,field.test_time2,field.FFJ0_set_point,field.FFJ0_position_gain,field.FFJ0_process_value,field.FFJ0_process_value_dot,field.FFJ0_error,field.FFJ0_command,field.FFJ3_set_point,field.FFJ3_position_gain,field.FFJ3_process_value,field.FFJ3_process_value_dot,field.FFJ3_error,field.FFJ3_command,field.MFJ1,field.MFJ2,field.MFJ3,field.MFJ4,field.MFJ1_dot,field.MFJ2_dot,field.MFJ3_dot,field.MFJ4_dot,field.MFJ1_tao,field.MFJ2_tao,field.MFJ3_tao,field.MFJ4_tao,field.Mpac0,field.Mpac1,field.Mpdc0,field.Mtac0,field.Mtdc0,field.Mel0,field.Mel1,field.Mel2,field.Mel3,field.Mel4,field.Mel5,field.Mel6,field.Mel7,field.Mel8,field.Mel9,field.Mel10,field.Mel11,field.Mel12,field.Mel13,field.Mel14,field.Mel15,field.Mel16,field.Mel17,field.Mel18
1508410311154767410,117,1508410311154013246,plot_matl,0.25,-1000.0,0.197515413165,0.0281920656562,-0.0524845831096,-45.6267204285,0.349065840244,-0.00809688866138,-0.00159885478206,0.197390884161,0.00308221019804,0.00308221019804,0.00547625683248,0.0304619353265,0.531311094761,0.531311094761,0.299124479294,91.2895584106,2010,2045,2094,2029,2029,2728,3324,3345,3153,3292,3010,2978,3062,3081,3166,2900,3378,3370,3205,3272,2924,3277,3303,3022,0.009969345,1.170001118,1.166413365,0.349065840244,4500.0,0.340968966484,0.00799979548901,-0.00809688866138,36.4359970093,0.0,6000.0,-0.00159029418137,0.00528412824497,0.0,0.0,0.349065840244,0.0216827709228,-0.000273980491329,0.325797021389,-0.02190634422,-0.02190634422,0.00528618879616,0.0370145067573,155.723205566,155.723205566,1.78767418861,107.39200592,2034,2032,2542,2035,2035,2933,3426,3428,3244,3365,3091,3062,3162,3155,3244,2863,3413,3420,3253,3370,3140,3357,3389,3194
1508410311164401485,118,1508410311163988829,plot_matl,0.25,-1000.0,0.197467327118,-0.00868635717779,-0.0525326654315,-54.5403594971,0.349065840244,-0.00809688866138,-0.00159885478206,0.197390884161,0.00308221019804,0.00308221019804,0.00547625683248,0.0304619353265,0.531311094761,0.531311094761,0.299124479294,91.2895584106,1997,2055,2093,2027,2027,2728,3324,3345,3153,3292,3010,2978,3062,3081,3166,2900,3378,3370,3204,3272,2922,3278,3306,3023,0.009973233,1.179976211,1.176841494,0.349065840244,4500.0,0.340968966484,0.00949446484447,-0.00809688866138,36.4359970093,0.0,6000.0,-0.0015916491393,0.00530794495717,0.0,0.0,0.349065840244,0.0216827709228,-0.000273980491329,0.325797021389,-0.02190634422,-0.02190634422,0.00528618879616,0.0370145067573,155.723205566,155.723205566,1.78767418861,107.39200592,2024,2033,2542,2038,2038,2933,3426,3428,3244,3365,3091,3062,3162,3155,3244,2863,3413,3419,3254,3369,3141,3357,3389,3191
1508410311174347531,119,1508410311174007951,plot_matl,0.25,-1000.0,0.197422862053,-0.0456244908273,-0.0525771304965,-63.4328536987,0.349065840244,-0.00809688866138,-0.00157635542564,0.1974799335,0.00447087967768,0.00447087967768,0.00499895168468,-0.00890284590423,0.0930494442582,0.0930494442582,0.40411657095,91.0519104004,2008,2058,2093,2027,2027,2728,3323,3345,3152,3295,3010,2977,3061,3084,3165,2900,3378,3370,3204,3272,2922,3278,3306,3023,0.01001848,1.189995353,1.19219912,0.349065840244,4500.0,0.339619487524,-0.0174432657659,-0.00944636948407,42.5086631775,0.0,6000.0,-0.00161790195853,-0.00758425099775,0.0,0.0,0.349065840244,0.0240919683129,-0.00031696408405,0.32566472888,0.00376905757003,0.00376905757003,-0.00905048660934,-0.0221981350332,155.884307861,155.884307861,1.90149474144,107.547767639,2023,2026,2542,2038,2038,2933,3428,3426,3243,3363,3088,3062,3164,3156,3245,2863,3413,3419,3254,3369,3141,3357,3389,3191
1508410311184398561,120,1508410311183998539,plot_matl,0.25,-1000.0,0.197426140308,-0.00771925831214,-0.0525738596916,-54.3739624023,0.349065840244,-0.00809688866138,-0.00157635542564,0.1974799335,0.00447087967768,0.00447087967768,0.00499895168468,-0.00890284590423,0.0930494442582,0.0930494442582,0.40411657095,91.0519104004,2021,2059,2093,2027,2027,2728,3323,3345,3152,3295,3010,2977,3061,3084,3165,2898,3378,3371,3204,3274,2924,3278,3303,3025,0.0099917,1.199986472,1.199004,0.349065840244,4500.0,0.339619487524,-0.0177256837487,-0.00944636948407,42.5086631775,0.0,6000.0,-0.00162493181415,-0.00744402874261,0.0,0.0,0.349065840244,0.0240919683129,-0.00031696408405,0.32566472888,0.00376905757003,0.00376905757003,-0.00905048660934,-0.0221981350332,155.884307861,155.884307861,1.90149474144,107.547767639,2023,2028,2543,2038,2038,2933,3428,3426,3243,3363,3088,3062,3164,3156,3245,2861,3411,3420,3255,3368,3141,3356,3389,3190
1508410311194113447,121,1508410311193974105,plot_matl,0.25,-1000.0,0.197428688407,0.0301759764552,-0.0525713153183,-45.2842178345,0.349065840244,-0.00809688866138,-0.00157635542564,0.1974799335,0.00447087967768,0.00447087967768,0.00499895168468,-0.00890284590423,0.0930494442582,0.0930494442582,0.40411657095,91.0519104004,1995,2030,2093,2029,2029,2728,3323,3343,3151,3291,3010,2978,3060,3084,3165,2898,3378,3371,3204,3274,2924,3278,3303,3025,0.009973147,1.209960835,1.206750787,0.349065840244,4500.0,0.340968966484,0.00872778985649,-0.00809688866138,36.4359970093,0.0,6000.0,-0.00164589856286,-0.00701869418845,0.0,0.0,0.349065840244,0.0240919683129,-0.00031696408405,0.32566472888,0.00376905757003,0.00376905757003,-0.00905048660934,-0.0221981350332,155.884307861,155.884307861,1.90149474144,107.547767639,2024,2022,2543,2035,2035,2933,3426,3426,3244,3364,3091,3062,3165,3156,3245,2861,3411,3420,3255,3368,3141,3356,3389,3190
1508410311204297246,122,1508410311204005863,plot_matl,0.25,-1000.0,0.197392866015,-0.00698617752641,-0.0526071339846,-54.2600708008,0.349065840244,-0.00809688866138,-0.00157635542564,0.1974799335,0.00447087967768,0.00447087967768,0.00499895168468,-0.00890284590423,0.0930494442582,0.0930494442582,0.40411657095,91.0519104004,1997,2044,2093,2029,2029,2728,3323,3343,3151,3291,3010,2978,3060,3083,3164,2899,3378,3371,3205,3273,2925,3277,3303,3025,0.010033448,1.219993861,1.224080656,0.349065840244,4500.0,0.340968966484,0.00811469182372,-0.00809688866138,36.4359970093,0.0,6000.0,-0.00165871554054,0.00666327727959,0.0,0.0,0.349065840244,0.0240919683129,-0.00031696408405,0.32566472888,0.00376905757003,0.00376905757003,-0.00905048660934,-0.0221981350332,155.884307861,155.884307861,1.90149474144,107.547767639,2023,2024,2543,2035,2035,2933,3426,3426,3244,3364,3091,3062,3165,3156,3245,2863,3412,3419,3253,3370,3141,3356,3389,3190
1508410311214113444,123,1508410311213969048,plot_matl,0.25,-1000.0,0.197432264686,-0.00776888104156,-0.0525677315891,-54.4810714722,0.349065840244,-0.00809688866138,-0.0016652373597,0.197408616543,0.0040804380551,0.0040804380551,-0.00662476243451,-0.00730565795675,-0.1086820364,-0.1086820364,0.43435767293,91.1449890137,2019,2071,2093,2026,2026,2727,3324,3343,3154,3294,3012,2978,3060,3083,3164,2899,3378,3371,3205,3273,2925,3277,3303,3023,0.009960732,1.229956014,1.225170036,0.349065840244,4500.0,0.340968966484,0.00761439511552,-0.00809688866138,36.4359970093,0.0,6000.0,-0.00163341953885,0.00615469319746,0.0,0.0,0.349065840244,0.0265011657029,-0.000314519798849,0.325962036848,0.0249779112637,0.0249779112637,-0.00905023142695,0.0337117277086,155.926574707,155.926574707,1.38774967194,107.671379089,2014,2023,2542,2040,2040,2933,3428,3426,3243,3364,3091,3062,3165,3156,3245,2863,3412,3419,3253,3370,3141,3356,3389,3190
1508410311224127283,124,1508410311223973168,plot_matl,0.25,-1000.0,0.197431564331,-0.00772837083787,-0.0525684356689,-54.3505859375,0.349065840244,-0.00809688866138,-0.0016652373597,0.197408616543,0.0040804380551,0.0040804380551,-0.00662476243451,-0.00730565795675,-0.1086820364,-0.1086820364,0.43435767293,91.1449890137,2001,2051,2093,2026,2026,2727,3324,3343,3154,3294,3012,2978,3060,3083,3165,2896,3379,3371,3206,3273,2924,3277,3303,3023,0.010004257,1.239960097,1.240527868,0.349065840244,4500.0,0.339619487524,-0.0190260335803,-0.00944636948407,42.5086631775,0.0,6000.0,-0.00162774859928,0.00602975301445,0.0,0.0,0.349065840244,0.0265011657029,-0.000314519798849,0.325962036848,0.0249779112637,0.0249779112637,-0.00905023142695,0.0337117277086,155.926574707,155.926574707,1.38774967194,107.671379089,2021,2027,2542,2040,2040,2933,3428,3426,3243,3364,3091,3062,3162,3156,3245,2862,3413,3418,3253,3370,3140,3356,3389,3190
1508410311234164847,125,1508410311233974964,plot_matl,0.25,-1000.0,0.197467058897,-0.00844623800367,-0.0525329373777,-54.5388298035,0.349065840244,-0.00809688866138,-0.0016652373597,0.197408616543,0.0040804380551,0.0040804380551,-0.00662476243451,-0.00730565795675,-0.1086820364,-0.1086820364,0.43435767293,91.1449890137,2013,2041,2094,2027,2027,2727,3322,3343,3152,3294,3012,2978,3060,3083,3165,2896,3379,3371,3206,3273,2924,3277,3305,3024,0.010001369,1.249961767,1.250171125,0.349065840244,4500.0,0.339619487524,-0.0180517490953,-0.00944636948407,42.5086631775,0.0,6000.0,-0.00161003263202,0.00568109657615,0.0,0.0,0.349065840244,0.0265011657029,-0.000314519798849,0.325962036848,0.0249779112637,0.0249779112637,-0.00905023142695,0.0337117277086,155.926574707,155.926574707,1.38774967194,107.671379089,2032,2024,2542,2035,2035,2934,3427,3427,3245,3364,3091,3062,3162,3156,3245,2862,3413,3418,3253,3370,3140,3356,3389,3191
1508410311244157425,126,1508410311243968747,plot_matl,0.25,-1000.0,0.197456911206,-0.00823569577187,-0.0525430850685,-54.7059288025,0.349065840244,-0.00809688866138,-0.0016652373597,0.197408616543,0.0040804380551,0.0040804380551,-0.00662476243451,-0.00730565795675,-0.1086820364,-0.1086820364,0.43435767293,91.1449890137,2045,2070,2094,2027,2027,2727,3322,3343,3152,3294,3008,2977,3061,3083,3166,2900,3379,3370,3204,3273,2924,3277,3305,3024,0.009993498,1.259955538,1.259180748,0.349065840244,4500.0,0.339619487524,-0.017384769395,-0.00944636948407,42.5086631775,0.0,6000.0,-0.00163212476764,-0.00730203092098,0.0,0.0,0.349065840244,0.0265011657029,-0.000314519798849,0.325962036848,0.0249779112637,0.0249779112637,-0.00905023142695,0.0337117277086,155.926574707,155.926574707,1.38774967194,107.671379089,2023,2020,2542,2035,2035,2934,3427,3427,3245,3364,3090,3063,3164,3156,3243,2864,3413,3419,3253,3370,3140,3356,3389,3191
1508410311254153090,127,1508410311253965076,plot_matl,0.25,-1000.0,0.197450190783,-0.00812278687954,-0.0525498129427,-54.5420417786,0.349065840244,-0.00809688866138,-0.00163981528021,0.197470024228,0.00490159913898,0.00490159913898,0.00627215625718,0.0294031612575,-0.245647877455,-0.245647877455,0.588941037655,91.4440689087,2032,2053,2094,2029,2029,2726,3325,3344,3152,3294,3008,2977,3061,3083,3166,2900,3379,3370,3204,3273,2921,3277,3304,3024,0.009996069,1.269951883,1.269500763,0.349065840244,4500.0,0.340968966484,0.00948486570269,-0.00809688866138,36.4359970093,0.0,6000.0,-0.00166296586394,-0.0066976994276,0.0,0.0,0.349065840244,0.0240919683129,-0.000263087276835,0.325726062059,-0.000424520781962,-0.000424520781962,0.00518313515931,0.0383989214897,155.732971191,155.732971191,0.605073571205,107.585639954,2033,2029,2543,2037,2037,2933,3426,3427,3245,3364,3090,3063,3164,3156,3243,2864,3413,3419,3253,3370,3139,3358,3388,3192
1508410311264278978,128,1508410311263976960,plot_matl,0.25,-1000.0,0.197489574552,0.029013318941,-0.0525104291737,-44.9128990173,0.349065840244,-0.00809688866138,-0.00163981528021,0.197470024228,0.00490159913898,0.00490159913898,0.00627215625718,0.0294031612575,-0.245647877455,-0.245647877455,0.588941037655,91.4440689087,2014,2060,2094,2029,2029,2726,3325,3344,3151,3292,3008,2976,3060,3081,3165,2898,3377,3372,3203,3273,2921,3277,3304,3024,0.010012655,1.279964277,1.28161984,0.349065840244,4500.0,0.339619487524,-0.0167769826949,-0.00944636948407,42.5086631775,0.0,6000.0,-0.00164885446429,0.00647302763537,0.0,0.0,0.349065840244,0.0240919683129,-0.000263087276835,0.325726062059,-0.000424520781962,-0.000424520781962,0.00518313515931,0.0383989214897,155.732971191,155.732971191,0.605073571205,107.585639954,2032,2038,2543,2037,2037,2933,3426,3427,3243,3364,3090,3062,3165,3153,3244,2863,3412,3418,3254,3370,3139,3358,3388,3192
1508410311274399205,129,1508410311273985454,plot_matl,0.25,-1000.0,0.197518914938,-0.00942465104163,-0.0524810813367,-54.5450134277,0.349065840244,-0.00809688866138,-0.00163981528021,0.197470024228,0.00490159913898,0.00490159913898,0.00627215625718,0.0294031612575,-0.245647877455,-0.245647877455,0.588941037655,91.4440689087,2042,2075,2093,2029,2029,2728,3324,3344,3151,3292,3008,2976,3060,3081,3165,2898,3377,3372,3203,3273,2923,3278,3303,3024,0.010008308,1.289972545,1.291071732,0.349065840244,4500.0,0.340968966484,0.0100104715675,-0.00809688866138,36.4359970093,0.0,6000.0,-0.00165148393717,0.00653757061809,0.0,0.0,0.349065840244,0.0240919683129,-0.000263087276835,0.325726062059,-0.000424520781962,-0.000424520781962,0.00518313515931,0.0383989214897,155.732971191,155.732971191,0.605073571205,107.585639954,2028,2030,2541,2036,2036,2933,3426,3427,3243,3364,3090,3062,3165,3153,3244,2863,3412,3418,3254,3370,3140,3356,3386,3192
1508410311284446759,130,1508410311283984977,plot_matl,0.25,-1000.0,0.197567597032,-0.0104591920972,-0.052432410419,-54.9737014771,0.349065840244,-0.00809688866138,-0.00163981528021,0.197470024228,0.00490159913898,0.00490159913898,0.00627215625718,0.0294031612575,-0.245647877455,-0.245647877455,0.588941037655,91.4440689087,2028,2059,2093,2029,2029,2728,3324,3344,3150,3291,3011,2978,3060,3082,3165,2898,3378,3372,3203,3273,2923,3278,3303,3024,0.009999623,1.299972529,1.29995099,0.349065840244,4500.0,0.340968966484,0.0086665013805,-0.00809688866138,36.4359970093,0.0,6000.0,-0.00165002292488,0.0065260110423,0.0,0.0,0.349065840244,0.0240919683129,-0.000263087276835,0.325726062059,-0.000424520781962,-0.000424520781962,0.00518313515931,0.0383989214897,155.732971191,155.732971191,0.605073571205,107.585639954,2032,2036,2541,2036,2036,2933,3426,3427,3246,3364,3089,3062,3163,3154,3245,2863,3412,3418,3254,3370,3140,3356,3386,3192
1508410311294627598,131,1508410311293997289,plot_matl,0.25,-1000.0,0.197569489479,-0.0104991309345,-0.0524305142462,-54.9757537842,0.349065840244,-0.00809688866138,-0.00165613205172,0.197571501136,0.00408056937158,0.00408056937158,0.0066611408256,-0.01055053249,-0.356903851032,-0.356903851032,0.598274350166,91.3497543335,2022,2053,2093,2029,2029,2728,3324,3344,3150,3291,3011,2978,3060,3082,3165,2898,3378,3371,3204,3273,2922,3277,3303,3024,0.010013289,1.309985472,1.311740859,0.349065840244,4500.0,0.339619487524,-0.0180735867471,-0.00944636948407,42.5086631775,0.0,6000.0,-0.00167412380688,-0.00640039518476,0.0,0.0,0.349065840244,0.0240919683129,-0.000274012738373,0.325726747513,0.00108964717947,0.00108964717947,0.00549464346841,-0.0237302817404,155.80430603,155.80430603,0.708423435688,107.430915833,2029,2030,2543,2038,2038,2933,3426,3427,3246,3364,3089,3062,3163,3154,3245,2863,3412,3419,3255,3368,3139,3356,3390,3190
1508410311304488376,132,1508410311304024549,plot_matl,0.25,-1000.0,0.197611883283,-0.0113399615511,-0.0523881092668,-55.1541748047,0.349065840244,-0.00809688866138,-0.00165613205172,0.197571501136,0.00408056937158,0.00408056937158,0.0066611408256,-0.01055053249,-0.356903851032,-0.356903851032,0.598274350166,91.3497543335,2032,2045,2093,2029,2029,2727,3325,3342,3152,3289,3008,2977,3062,3081,3166,2898,3378,3371,3204,3273,2922,3277,3303,3024,0.010025667,1.320011926,1.323388044,0.349065840244,4500.0,0.339619487524,-0.0181713849306,-0.00944636948407,42.5086631775,0.0,6000.0,-0.00165756372735,0.00668467301875,0.0,0.0,0.349065840244,0.0240919683129,-0.000274012738373,0.325726747513,0.00108964717947,0.00108964717947,0.00549464346841,-0.0237302817404,155.80430603,155.80430603,0.708423435688,107.430915833,2019,2021,2543,2038,2038,2933,3428,3424,3244,3363,3091,3060,3163,3155,3245,2863,3412,3419,3255,3368,3139,3356,3390,3190
1508410311314470038,133,1508410311313991789,plot_matl,0.25,-1000.0,0.197686001658,0.0250787567347,-0.0523140020669,-46.0273933411,0.349065840244,-0.00809688866138,-0.00165613205172,0.197571501136,0.00408056937158,0.00408056937158,0.0066611408256,-0.01055053249,-0.356903851032,-0.356903851032,0.598274350166,91.3497543335,2032,2045,2093,2029,2029,2727,3325,3342,3152,3289,3008,2977,3062,3081,3166,2898,3378,3371,3204,3273,2922,3277,3303,3024,0.009967345,1.329979536,1.325656885,0.349065840244,4500.0,0.340968966484,0.00792869366705,-0.00809688866138,36.4359970093,0.0,6000.0,-0.00163226912264,0.00616892287508,0.0,0.0,0.349065840244,0.0240919683129,-0.000274012738373,0.325726747513,0.00108964717947,0.00108964717947,0.00549464346841,-0.0237302817404,155.80430603,155.80430603,0.708423435688,107.430915833,2019,2021,2543,2038,2038,2933,3428,3424,3244,3363,3091,3060,3163,3155,3245,2863,3412,3419,3255,3368,3139,3356,3390,3190
1508410311324383997,134,1508410311323980543,plot_matl,0.25,-1000.0,0.197643637657,0.0259209405631,-0.0523563623428,-46.1201210022,0.349065840244,-0.00809688866138,-0.00165613205172,0.197571501136,0.00408056937158,0.00408056937158,0.0066611408256,-0.01055053249,-0.356903851032,-0.356903851032,0.598274350166,91.3497543335,2011,2042,2093,2027,2027,2727,3325,3342,3153,3293,3008,2977,3058,3081,3166,2898,3379,3371,3203,3276,2924,3277,3302,3023,0.00998708,1.339967463,1.33826872,0.349065840244,4500.0,0.339619487524,-0.0183224324137,-0.00944636948407,42.5086631775,0.0,6000.0,-0.00159958936274,0.0055148890242,0.0,0.0,0.349065840244,0.0240919683129,-0.000274012738373,0.325726747513,0.00108964717947,0.00108964717947,0.00549464346841,-0.0237302817404,155.80430603,155.80430603,0.708423435688,107.430915833,2028,2022,2542,2033,2033,2933,3426,3426,3246,3365,3091,3063,3164,3155,3245,2863,3411,3418,3254,3367,3140,3355,3388,3193
1508410311334378754,135,1508410311334015471,plot_matl,0.25,-1000.0,0.197604060173,-0.0111719761044,-0.0523959361017,-55.0634422302,0.349065840244,-0.00944636948407,-0.00160932843573,0.197645485401,-0.00889001321048,-0.00889001321048,0.00570754334331,-0.0120182437822,-0.398476719856,-0.398476719856,0.319482535124,91.5402603149,2026,2043,2093,2027,2027,2727,3325,3342,3153,3293,3008,2977,3058,3083,3167,2897,3379,3371,3204,3273,2924,3278,3305,3023,0.010036652,1.350003689,1.35494802,0.349065840244,4500.0,0.339619487524,-0.0174587853253,-0.00944636948407,42.5086631775,0.0,6000.0,-0.00160916696768,0.00571318017319,0.0,0.0,0.349065840244,0.0240919683129,-0.000288328737952,0.325917422771,0.00164905702695,0.00164905702695,0.00580512778834,0.0344829261303,155.854095459,155.854095459,1.25080144405,107.279197693,2024,2016,2542,2033,2033,2933,3426,3426,3246,3365,3091,3063,3164,3155,3243,2862,3414,3420,3255,3370,3141,3356,3388,3193
1508410311344299807,136,1508410311343982229,plot_matl,0.25,-1000.0,0.197600379586,-0.0110890045762,-0.0523996204138,-55.1617431641,0.349065840244,-0.00944636948407,-0.00160932843573,0.197645485401,-0.00889001321048,-0.00889001321048,0.00570754334331,-0.0120182437822,-0.398476719856,-0.398476719856,0.319482535124,91.5402603149,2013,2048,2093,2028,2028,2728,3324,3345,3153,3293,3010,2977,3058,3083,3167,2897,3379,3371,3204,3273,2924,3278,3305,3023,0.009964644,1.359969435,1.355191584,0.349065840244,4500.0,0.340968966484,0.0104592023417,-0.00809688866138,36.4359970093,0.0,6000.0,-0.00162992649712,0.00612562755123,0.0,0.0,0.349065840244,0.0240919683129,-0.000288328737952,0.325917422771,0.00164905702695,0.00164905702695,0.00580512778834,0.0344829261303,155.854095459,155.854095459,1.25080144405,107.279197693,2024,2025,2543,2035,2035,2934,3426,3426,3244,3364,3091,3063,3164,3155,3243,2862,3414,3420,3255,3370,3141,3356,3388,3192
1508410311354397008,137,1508410311354004011,plot_matl,0.25,-1000.0,0.197635903955,-0.0118181295693,-0.0523640923202,-55.2198295593,0.349065840244,-0.00944636948407,-0.00160932843573,0.197645485401,-0.00889001321048,-0.00889001321048,0.00570754334331,-0.0120182437822,-0.398476719856,-0.398476719856,0.319482535124,91.5402603149,2012,2053,2093,2028,2028,2728,3324,3345,3153,3293,3010,2976,3061,3082,3166,2898,3378,3371,3205,3273,2923,3278,3305,3023,0.010021032,1.369990986,1.372881384,0.349065840244,4500.0,0.339619487524,-0.0171638485044,-0.00944636948407,42.5086631775,0.0,6000.0,-0.00159908947535,0.00548888556659,0.0,0.0,0.349065840244,0.0240919683129,-0.000288328737952,0.325917422771,0.00164905702695,0.00164905702695,0.00580512778834,0.0344829261303,155.854095459,155.854095459,1.25080144405,107.279197693,2030,2032,2543,2035,2035,2934,3426,3426,3244,3364,3091,3062,3164,3154,3244,2862,3413,3418,3255,3370,3141,3356,3388,3192
1508410311364254171,138,1508410311363982467,plot_matl,0.25,-1000.0,0.197696775198,-0.0130407046527,-0.0523032173514,-55.7574539185,0.349065840244,-0.00944636948407,-0.00160932843573,0.197645485401,-0.00889001321048,-0.00889001321048,0.00570754334331,-0.0120182437822,-0.398476719856,-0.398476719856,0.319482535124,91.5402603149,2013,2055,2094,2031,2031,2727,3324,3345,3151,3293,3010,2976,3061,3082,3166,2898,3378,3371,3205,3273,2923,3278,3302,3024,0.009979093,1.379969814,1.377114834,0.349065840244,4500.0,0.339619487524,-0.0160407852381,-0.00944636948407,42.5086631775,0.0,6000.0,-0.001574232243,0.0049718990922,0.0,0.0,0.349065840244,0.0240919683129,-0.000288328737952,0.325917422771,0.00164905702695,0.00164905702695,0.00580512778834,0.0344829261303,155.854095459,155.854095459,1.25080144405,107.279197693,2034,2034,2542,2032,2032,2933,3427,3426,3244,3364,3091,3062,3164,3154,3244,2862,3413,3418,3255,3370,3141,3357,3386,3191
1508410311374373125,139,1508410311373992599,plot_matl,0.25,-1000.0,0.197681799531,-0.0127364089713,-0.0523182041943,-55.2389564514,0.349065840244,-0.00809688866138,-0.00156020594295,0.197696268559,0.00579219171777,0.00579219171777,0.00468760635704,-0.0130480471998,-0.310659259558,-0.310659259558,0.439471632242,91.3240814209,2026,2052,2094,2031,2031,2727,3324,3345,3151,3293,3011,2977,3059,3082,3165,2899,3378,3370,3205,3273,2923,3278,3302,3024,0.010009836,1.389980347,1.391367204,0.349065840244,4500.0,0.339619487524,-0.015211571008,-0.00944636948407,42.5086631775,0.0,6000.0,-0.00156899890862,0.00485654827207,0.0,0.0,0.349065840244,0.0240919683129,-0.000245668197749,0.325959831476,0.00270880735479,0.00270880735479,-0.0103732906282,0.0335417687893,155.769241333,155.769241333,1.23103034496,107.410949707,2032,2026,2542,2032,2032,2933,3427,3426,3244,3364,3090,3061,3162,3154,3244,2862,3412,3420,3253,3370,3141,3357,3386,3191
1508410311384406341,140,1508410311383988238,plot_matl,0.25,-1000.0,0.197565734386,-0.010366297327,-0.052434258163,-55.0316696167,0.349065840244,-0.00809688866138,-0.00156020594295,0.197696268559,0.00579219171777,0.00579219171777,0.00468760635704,-0.0130480471998,-0.310659259558,-0.310659259558,0.439471632242,91.3240814209,2023,2055,2093,2030,2030,2727,3325,3345,3151,3293,3011,2977,3059,3082,3165,2899,3378,3370,3205,3275,2922,3277,3301,3021,0.009995905,1.39997591,1.3994267,0.349065840244,4500.0,0.340968966484,0.0123360967264,-0.00809688866138,36.4359970093,0.0,6000.0,-0.00161181227304,-0.00770752551034,0.0,0.0,0.349065840244,0.0240919683129,-0.000245668197749,0.325959831476,0.00270880735479,0.00270880735479,-0.0103732906282,0.0335417687893,155.769241333,155.769241333,1.23103034496,107.410949707,2030,2028,2542,2039,2039,2933,3426,3426,3244,3364,3090,3061,3162,3154,3244,2862,3412,3420,3253,3369,3139,3356,3387,3191
1508410311394358386,141,1508410311393996140,plot_matl,0.25,-1000.0,0.197570130229,-0.0483089797199,-0.0524298734963,-63.9050598145,0.349065840244,-0.00809688866138,-0.00156020594295,0.197696268559,0.00579219171777,0.00579219171777,0.00468760635704,-0.0130480471998,-0.310659259558,-0.310659259558,0.439471632242,91.3240814209,2023,2055,2093,2030,2030,2727,3325,3345,3151,3293,3011,2977,3059,3082,3165,2899,3378,3370,3205,3275,2922,3277,3301,3021,0.010007926,1.409983997,1.411117566,0.349065840244,4500.0,0.340968966484,0.0105007449165,-0.00809688866138,36.4359970093,0.0,6000.0,-0.00159613788128,0.00540891848505,0.0,0.0,0.349065840244,0.0240919683129,-0.000245668197749,0.325959831476,0.00270880735479,0.00270880735479,-0.0103732906282,0.0335417687893,155.769241333,155.769241333,1.23103034496,107.410949707,2030,2028,2542,2039,2039,2933,3426,3426,3244,3364,3090,3061,3162,3154,3244,2862,3412,3420,3253,3369,3139,3356,3387,3191
1508410311404424565,142,1508410311403990251,plot_matl,0.25,-1000.0,0.197544082999,-0.00990738160908,-0.0524559170008,-54.7630233765,0.349065840244,-0.00809688866138,-0.00156020594295,0.197696268559,0.00579219171777,0.00579219171777,0.00468760635704,-0.0130480471998,-0.310659259558,-0.310659259558,0.439471632242,91.3240814209,2032,2072,2092,2029,2029,2727,3325,3346,3151,3292,3010,2976,3059,3082,3166,2898,3377,3373,3204,3274,2923,3276,3303,3022,0.009992728,1.419977812,1.418967376,0.349065840244,4500.0,0.339619487524,-0.0165868401527,-0.00944636948407,42.5086631775,0.0,6000.0,-0.00160926952958,0.00564054166898,0.0,0.0,0.349065840244,0.0240919683129,-0.000245668197749,0.325959831476,0.00270880735479,0.00270880735479,-0.0103732906282,0.0335417687893,155.769241333,155.769241333,1.23103034496,107.410949707,2026,2021,2541,2036,2036,2933,3426,3427,3242,3367,3088,3062,3164,3155,3242,2862,3413,3418,3253,3369,3141,3356,3390,3191
1508410311414356993,143,1508410311413991908,plot_matl,0.25,-1000.0,0.197529867291,0.0283236186951,-0.0524701364338,-46.0940208435,0.349065840244,-0.00944636948407,-0.00161924771965,0.197515651584,-0.00833500176668,-0.00833500176668,-0.00757993198931,-0.0093333972618,-0.313087970018,-0.313087970018,0.314038127661,90.9471206665,2032,2072,2092,2029,2029,2727,3325,3346,3151,3292,3010,2976,3059,3082,3166,2898,3377,3373,3204,3274,2923,3276,3303,3022,0.01000054,1.429979019,1.43007722,0.349065840244,4500.0,0.340968966484,0.0109689347446,-0.00809688866138,36.4359970093,0.0,6000.0,-0.00161578564439,0.00568254850805,0.0,0.0,0.349065840244,0.0240919683129,-0.000231401034398,0.325926154852,0.00228895037435,0.00228895037435,0.00470427051187,-0.0275284480304,155.82611084,155.82611084,1.84318637848,107.512687683,2026,2021,2541,2036,2036,2933,3426,3427,3242,3367,3088,3062,3164,3155,3242,2862,3413,3418,3253,3369,3141,3356,3390,3191
1508410311424291550,144,1508410311424000041,plot_matl,0.25,-1000.0,0.197511315346,-0.00921633653343,-0.0524886809289,-54.6754493713,0.349065840244,-0.00944636948407,-0.00161924771965,0.197515651584,-0.00833500176668,-0.00833500176668,-0.00757993198931,-0.0093333972618,-0.313087970018,-0.313087970018,0.314038127661,90.9471206665,2029,2062,2093,2036,2036,2728,3325,3344,3151,3293,3008,2976,3059,3081,3165,2901,3376,3374,3203,3274,2923,3278,3303,3023,0.010008343,1.439987592,1.441201392,0.349065840244,4500.0,0.339619487524,-0.0177430920303,-0.00944636948407,42.5086631775,0.0,6000.0,-0.00161065335851,0.00560861639678,0.0,0.0,0.349065840244,0.0240919683129,-0.000231401034398,0.325926154852,0.00228895037435,0.00228895037435,0.00470427051187,-0.0275284480304,155.82611084,155.82611084,1.84318637848,107.512687683,2019,2022,2541,2038,2038,2933,3425,3426,3242,3364,3090,3062,3161,3157,3244,2862,3412,3419,3254,3367,3139,3355,3389,3192
1508410311434341534,145,1508410311434010944,plot_matl,0.25,-1000.0,0.197483807802,-0.00886277481914,-0.0525161996484,-54.4661178589,0.349065840244,-0.00944636948407,-0.00161924771965,0.197515651584,-0.00833500176668,-0.00833500176668,-0.00757993198931,-0.0093333972618,-0.313087970018,-0.313087970018,0.314038127661,90.9471206665,2029,2062,2093,2036,2036,2728,3325,3344,3151,3293,3008,2976,3059,3081,3165,2901,3376,3374,3203,3274,2923,3278,3303,3023,0.010010828,1.449998732,1.45157006,0.349065840244,4500.0,0.340968966484,0.00982384663075,-0.00809688866138,36.4359970093,0.0,6000.0,-0.00162085704505,0.00580824026838,0.0,0.0,0.349065840244,0.0240919683129,-0.000231401034398,0.325926154852,0.00228895037435,0.00228895037435,0.00470427051187,-0.0275284480304,155.82611084,155.82611084,1.84318637848,107.512687683,2019,2022,2541,2038,2038,2933,3425,3426,3242,3364,3090,3062,3161,3157,3244,2862,3412,3419,3254,3367,3139,3355,3389,3192
1508410311444332998,146,1508410311444009535,plot_matl,0.25,-1000.0,0.197499454021,-0.047162104398,-0.052500538528,-63.6477775574,0.349065840244,-0.00944636948407,-0.00161924771965,0.197515651584,-0.00833500176668,-0.00833500176668,-0.00757993198931,-0.0093333972618,-0.313087970018,-0.313087970018,0.314038127661,90.9471206665,2023,2045,2093,2036,2036,2725,3326,3341,3150,3294,3009,2977,3062,3083,3165,2901,3376,3374,3203,3274,2923,3278,3303,3023,0.009997754,1.459997001,1.459672084,0.349065840244,4500.0,0.340968966484,0.0114873899147,-0.00809688866138,36.4359970093,0.0,6000.0,-0.00162731006276,0.00594487832859,0.0,0.0,0.349065840244,0.0240919683129,-0.000231401034398,0.325926154852,0.00228895037435,0.00228895037435,0.00470427051187,-0.0275284480304,155.82611084,155.82611084,1.84318637848,107.512687683,2021,2012,2541,2038,2038,2933,3424,3424,3242,3363,3088,3061,3161,3154,3244,2862,3412,3419,3254,3367,3139,3355,3389,3192
1508410311454567789,147,1508410311454036881,plot_matl,0.25,-1000.0,0.197488337755,-0.00901221856475,-0.0525116659701,-54.3275108337,0.349065840244,-0.00809688866138,-0.00163616472855,0.197512254119,0.00566283240914,0.00566283240914,-0.00729039078578,0.0284256599844,-0.238350003958,-0.238350003958,0.0784699469805,90.9083557129,2008,2048,2093,2031,2031,2728,3324,3345,3154,3293,3011,2977,3062,3083,3163,2900,3376,3371,3204,3275,2923,3276,3303,3025,0.010028192,1.470024819,1.474144224,0.349065840244,4500.0,0.340968966484,0.0108475890011,-0.00809688866138,36.4359970093,0.0,6000.0,-0.0016347944038,0.00609634909779,0.0,0.0,0.349065840244,0.0240919683129,-0.000235691477428,0.325912684202,0.000778980669565,0.000778980669565,0.00483195856214,0.0342042185366,156.113555908,156.113555908,1.89563274384,107.196388245,2026,2027,2543,2037,2037,2934,3426,3427,3244,3364,3090,3060,3161,3154,3244,2863,3412,3418,3253,3371,3141,3356,3388,3193
1508410311464406062,148,1508410311463994168,plot_matl,0.25,-1000.0,0.197547212243,0.0277708228678,-0.0524527952075,-46.1411323547,0.349065840244,-0.00809688866138,-0.00163616472855,0.197512254119,0.00566283240914,0.00566283240914,-0.00729039078578,0.0284256599844,-0.238350003958,-0.238350003958,0.0784699469805,90.9083557129,2008,2048,2093,2031,2031,2728,3324,3345,3154,3293,3011,2977,3062,3083,3163,2900,3376,3371,3204,3275,2923,3276,3303,3025,0.009956204,1.479982025,1.473518192,0.349065840244,4500.0,0.340968966484,0.00980726908892,-0.00809688866138,36.4359970093,0.0,6000.0,-0.0016390044475,-0.00719811953604,0.0,0.0,0.349065840244,0.0240919683129,-0.000235691477428,0.325912684202,0.000778980669565,0.000778980669565,0.00483195856214,0.0342042185366,156.113555908,156.113555908,1.89563274384,107.196388245,2026,2027,2543,2037,2037,2934,3426,3427,3244,3364,3090,3060,3161,3154,3244,2863,3412,3418,3253,3371,3141,3356,3388,3193
1508410311474464283,149,1508410311474016242,plot_matl,0.25,-1000.0,0.197565048933,-0.0104357544333,-0.0524349547923,-54.8961486816,0.349065840244,-0.00809688866138,-0.00163616472855,0.197512254119,0.00566283240914,0.00566283240914,-0.00729039078578,0.0284256599844,-0.238350003958,-0.238350003958,0.0784699469805,90.9083557129,2017,2047,2093,2031,2031,2728,3324,3345,3154,3293,3011,2977,3062,3083,3166,2897,3377,3370,3207,3274,2924,3278,3303,3025,0.010021362,1.490003779,1.493182938,0.349065840244,4500.0,0.340968966484,0.00902727525681,-0.00809688866138,36.4359970093,0.0,6000.0,-0.00163222046103,0.00608688779175,0.0,0.0,0.349065840244,0.0240919683129,-0.000235691477428,0.325912684202,0.000778980669565,0.000778980669565,0.00483195856214,0.0342042185366,156.113555908,156.113555908,1.89563274384,107.196388245,2023,2020,2543,2037,2037,2934,3426,3427,3244,3364,3090,3060,3163,3156,3242,2862,3411,3420,3254,3369,3140,3354,3388,3193
1508410311484401850,150,1508410311484019959,plot_matl,0.25,-1000.0,0.197534292936,-0.00985874515027,-0.052465710789,-54.5153884888,0.349065840244,-0.00809688866138,-0.00163616472855,0.197512254119,0.00566283240914,0.00566283240914,-0.00729039078578,0.0284256599844,-0.238350003958,-0.238350003958,0.0784699469805,90.9083557129,2000,2023,2094,2032,2032,2726,3323,3345,3151,3292,3011,2977,3062,3083,3166,2897,3377,3370,3207,3274,2924,3278,3302,3024,0.010003682,1.500007811,1.5005523,0.349065840244,4500.0,0.340968966484,0.00786881893873,-0.00809688866138,36.4359970093,0.0,6000.0,-0.00161450076848,-0.00769525719807,0.0,0.0,0.349065840244,0.0240919683129,-0.000235691477428,0.325912684202,0.000778980669565,0.000778980669565,0.00483195856214,0.0342042185366,156.113555908,156.113555908,1.89563274384,107.196388245,2031,2028,2542,2039,2039,2932,3424,3425,3246,3363,3090,3060,3163,3156,3242,2862,3411,3420,3254,3369,3140,3354,3389,3193
1508410311494374682,151,1508410311493988176,plot_matl,0.25,-1000.0,0.197577908635,-0.0107604842633,-0.0524220988154,-54.9831047058,0.349065840244,-0.00809688866138,-0.00162411120255,0.197580710053,0.00396055355668,0.00396055355668,-0.00750609207898,0.0271465145051,-0.245327711105,-0.245327711105,-0.0879909321666,91.0497589111,2015,2055,2094,2029,2029,2728,3324,3342,3151,3292,3009,2978,3059,3082,3167,2899,3377,3373,3205,3274,2924,3278,3302,3021,0.009967846,1.509975883,1.505144746,0.349065840244,4500.0,0.340968966484,0.00793722644448,-0.00809688866138,36.4359970093,0.0,6000.0,-0.00163290661294,0.00611414713785,0.0,0.0,0.349065840244,0.0265011657029,-0.000179374357685,0.32593113184,0.0250770412385,0.0250770412385,0.00366386421956,0.0343084707856,155.999130249,155.999130249,1.72665667534,107.151824951,2018,2025,2542,2036,2036,2933,3427,3426,3246,3363,3091,3061,3164,3154,3243,2864,3413,3419,3254,3369,3138,3358,3390,3190
1508410311504171190,152,1508410311503978954,plot_matl,0.25,-1000.0,0.197549298406,-0.0102048907429,-0.0524507015944,-54.6909179688,0.349065840244,-0.00809688866138,-0.00162411120255,0.197580710053,0.00396055355668,0.00396055355668,-0.00750609207898,0.0271465145051,-0.245327711105,-0.245327711105,-0.0879909321666,91.0497589111,2015,2055,2094,2029,2029,2728,3324,3342,3151,3292,3009,2978,3059,3082,3167,2899,3377,3373,3205,3274,2924,3278,3302,3021,0.009989022,1.519965742,1.518331344,0.349065840244,4500.0,0.340968966484,0.0084797218442,-0.00809688866138,36.4359970093,0.0,6000.0,-0.00163655821234,-0.00722923548892,0.0,0.0,0.349065840244,0.0265011657029,-0.000179374357685,0.32593113184,0.0250770412385,0.0250770412385,0.00366386421956,0.0343084707856,155.999130249,155.999130249,1.72665667534,107.151824951,2018,2025,2542,2036,2036,2933,3427,3426,3246,3363,3091,3061,3164,3154,3243,2864,3413,3419,3254,3369,3138,3358,3390,3190
1508410311514135265,153,1508410311513969557,plot_matl,0.25,-1000.0,0.197549298406,-0.0102048907429,-0.0524507015944,-54.6909179688,0.349065840244,-0.00809688866138,-0.00162411120255,0.197580710053,0.00396055355668,0.00396055355668,-0.00750609207898,0.0271465145051,-0.245327711105,-0.245327711105,-0.0879909321666,91.0497589111,2014,2055,2094,2029,2029,2728,3324,3342,3150,3290,3010,2978,3058,3083,3165,2900,3378,3373,3205,3274,2924,3278,3302,3021,0.009989634,1.529956336,1.528414002,0.349065840244,4500.0,0.340968966484,0.0084797218442,-0.00809688866138,36.4359970093,0.0,6000.0,-0.00163655821234,-0.00722923548892,0.0,0.0,0.349065840244,0.0265011657029,-0.000179374357685,0.32593113184,0.0250770412385,0.0250770412385,0.00366386421956,0.0343084707856,155.999130249,155.999130249,1.72665667534,107.151824951,2017,2027,2542,2036,2036,2933,3427,3426,3245,3364,3090,3062,3163,3154,3242,2862,3412,3417,3254,3369,3138,3358,3390,3190
1508410311524310513,154,1508410311523999978,plot_matl,0.25,-1000.0,0.197473436594,-0.00859485194087,-0.0525265671313,-68.5899734497,0.349065840244,-0.00809688866138,-0.00162411120255,0.197580710053,0.00396055355668,0.00396055355668,-0.00750609207898,0.0271465145051,-0.245327711105,-0.245327711105,-0.0879909321666,91.0497589111,2021,2063,2093,2028,2028,2736,3324,3342,3150,3290,3010,2978,3058,3083,3165,2900,3378,3373,3205,3274,2922,3277,3302,3023,0.010031545,1.539987425,1.54485793,0.349065840244,4500.0,0.342318445444,0.0320663116872,-0.00674740690738,30.3633308411,0.0,6000.0,-0.00169329612982,-0.0068299411796,0.0,0.0,0.349065840244,0.0265011657029,-0.000179374357685,0.32593113184,0.0250770412385,0.0250770412385,0.00366386421956,0.0343084707856,155.999130249,155.999130249,1.72665667534,107.151824951,2031,2028,2543,2038,2038,2942,3427,3426,3245,3364,3090,3062,3163,3154,3242,2862,3412,3417,3255,3369,3140,3355,3389,3191
1508410311534363417,155,1508410311534016981,plot_matl,0.25,-1000.0,0.197536572814,-0.00975620839745,-0.0524634309113,-54.5605506897,0.349065840244,-0.00944636948407,-0.00167327781674,0.19753241539,-0.0110566010699,-0.0110566010699,0.00634425040334,0.0281343087554,-0.662481486797,-0.662481486797,0.116471290588,91.1691970825,2020,2046,2093,2028,2028,2736,3335,3355,3159,3299,3016,2982,3066,3086,3171,2904,3378,3373,3205,3274,2922,3277,3302,3023,0.01001629,1.550004104,1.55252495,0.349065840244,4500.0,0.340968966484,0.00523367198184,-0.00809688866138,36.4359970093,0.0,6000.0,-0.00166156620253,0.00612647365779,0.0,0.0,0.349065840244,0.0240919683129,-0.000168803453562,0.325851619244,0.00243934849277,0.00243934849277,-0.0111465901136,0.0360781177878,155.533004761,155.533004761,1.49222135544,106.984863281,2035,2028,2543,2038,2038,2942,3436,3436,3254,3370,3096,3068,3167,3159,3247,2866,3412,3417,3255,3369,3140,3355,3389,3191
1508410311544440225,156,1508410311543986795,plot_matl,0.25,-1000.0,0.197483614087,-0.0086873434484,-0.0525163859129,-54.6276435852,0.349065840244,-0.00944636948407,-0.00167327781674,0.19753241539,-0.0110566010699,-0.0110566010699,0.00634425040334,0.0281343087554,-0.662481486797,-0.662481486797,0.116471290588,91.1691970825,2017,2047,2094,2026,2026,2736,3335,3355,3159,3299,3016,2982,3066,3086,3171,2904,3383,3375,3210,3276,2926,3280,3308,3028,0.009971137,1.559974464,1.555497372,0.349065840244,4500.0,0.339619487524,-0.0190147049725,-0.00944636948407,42.5086631775,0.0,6000.0,-0.00165134470444,-0.00739425886422,0.0,0.0,0.349065840244,0.0240919683129,-0.000168803453562,0.325851619244,0.00243934849277,0.00243934849277,-0.0111465901136,0.0360781177878,155.533004761,155.533004761,1.49222135544,106.984863281,2035,2026,2541,2039,2039,2942,3436,3436,3254,3370,3096,3068,3167,3159,3247,2866,3416,3423,3257,3373,3143,3357,3391,3193
1508410311554346998,157,1508410311554014184,plot_matl,0.25,-1000.0,0.197504207492,-0.00911443680525,-0.0524957925081,-54.710193634,0.349065840244,-0.00944636948407,-0.00167327781674,0.19753241539,-0.0110566010699,-0.0110566010699,0.00634425040334,0.0281343087554,-0.662481486797,-0.662481486797,0.116471290588,91.1691970825,1996,2032,2094,2026,2026,2730,3324,3346,3154,3296,3013,2979,3062,3084,3171,2904,3383,3375,3210,3276,2926,3280,3308,3028,0.010026126,1.57000164,1.574101782,0.349065840244,4500.0,0.340968966484,0.00824614241719,-0.00809688866138,36.4359970093,0.0,6000.0,-0.00166519626509,0.00639477465302,0.0,0.0,0.349065840244,0.0240919683129,-0.000168803453562,0.325851619244,0.00243934849277,0.00243934849277,-0.0111465901136,0.0360781177878,155.533004761,155.533004761,1.49222135544,106.984863281,2020,2024,2541,2039,2039,2935,3427,3428,3247,3364,3092,3063,3165,3155,3247,2866,3416,3423,3257,3373,3143,3357,3391,3193
1508410311564099753,158,1508410311563968773,plot_matl,0.25,-1000.0,0.197493314743,0.0290063917637,-0.0525066815317,-45.4343223572,0.349065840244,-0.00944636948407,-0.00167327781674,0.19753241539,-0.0110566010699,-0.0110566010699,0.00634425040334,0.0281343087554,-0.662481486797,-0.662481486797,0.116471290588,91.1691970825,1994,2049,2094,2026,2026,2730,3324,3346,3154,3296,3013,2979,3062,3084,3168,2901,3380,3375,3207,3274,2923,3279,3305,3026,0.00995312,1.579955698,1.57259296,0.349065840244,4500.0,0.340968966484,0.00875767692924,-0.00809688866138,36.4359970093,0.0,6000.0,-0.00162744044792,0.00569114414975,0.0,0.0,0.349065840244,0.0240919683129,-0.000168803453562,0.325851619244,0.00243934849277,0.00243934849277,-0.0111465901136,0.0360781177878,155.533004761,155.533004761,1.49222135544,106.984863281,2028,2037,2541,2039,2039,2935,3427,3428,3247,3364,3092,3063,3165,3155,3246,2863,3413,3423,3255,3370,3139,3357,3389,3194
1508410311574392594,159,1508410311574005822,plot_matl,0.25,-1000.0,0.197450175881,-0.00802731327713,-0.0525498203933,-54.5345878601,0.349065840244,-0.00674740690738,-0.00163126527332,0.197443395853,0.0169934909791,0.0169934909791,0.00581423006952,-0.00787835102528,-0.660657525063,-0.660657525063,0.152481392026,90.9824829102,2021,2052,2094,2033,2033,2727,3325,3345,3150,3293,3011,2976,3062,3084,3168,2901,3380,3375,3207,3274,2923,3279,3305,3026,0.010038069,1.589993269,1.596052971,0.349065840244,4500.0,0.340968966484,0.00621895445511,-0.00809688866138,36.4359970093,0.0,6000.0,-0.00164518970996,0.00612377887592,0.0,0.0,0.349065840244,0.0240919683129,-0.000237395215663,0.325677454472,0.00219594314694,0.00219594314694,0.00516981771216,-0.0223479904234,155.773162842,155.773162842,1.3068972826,106.766311646,2022,2019,2542,2038,2038,2933,3428,3427,3242,3363,3091,3061,3165,3155,3246,2863,3413,3423,3255,3370,3139,3357,3389,3194
1508410311584582358,160,1508410311584022479,plot_matl,0.25,-1000.0,0.197378411889,-0.00657562632114,-0.0526215918362,-54.1980667114,0.349065840244,-0.00674740690738,-0.00163126527332,0.197443395853,0.0169934909791,0.0169934909791,0.00581423006952,-0.00787835102528,-0.660657525063,-0.660657525063,0.152481392026,90.9824829102,2006,2035,2094,2033,2033,2727,3325,3345,3150,3293,3011,2976,3061,3082,3165,2900,3379,3373,3204,3275,2924,3278,3305,3026,0.010017299,1.600010266,1.60276784,0.349065840244,4500.0,0.340968966484,0.00501498114318,-0.00809688866138,36.4359970093,0.0,6000.0,-0.00167332228739,-0.00669025024399,0.0,0.0,0.349065840244,0.0240919683129,-0.000237395215663,0.325677454472,0.00219594314694,0.00219594314694,0.00516981771216,-0.0223479904234,155.773162842,155.773162842,1.3068972826,106.766311646,2030,2026,2542,2038,2038,2933,3428,3427,3242,3363,3091,3061,3162,3155,3245,2863,3412,3420,3253,3372,3139,3357,3389,3194
1508410311594465853,161,1508410311593991573,plot_matl,0.25,-1000.0,0.197386950254,-0.00673762103543,-0.0526130497456,-54.2406921387,0.349065840244,-0.00674740690738,-0.00163126527332,0.197443395853,0.0169934909791,0.0169934909791,0.00581423006952,-0.00787835102528,-0.660657525063,-0.660657525063,0.152481392026,90.9824829102,2019,2037,2094,2029,2029,2728,3324,3345,3152,3294,3011,2976,3061,3082,3165,2900,3379,3373,3204,3275,2924,3278,3303,3024,0.009969205,1.609979645,1.605042005,0.349065840244,4500.0,0.340968966484,0.0040656789206,-0.00809688866138,36.4359970093,0.0,6000.0,-0.00168318045326,-0.00644079968333,0.0,0.0,0.349065840244,0.0240919683129,-0.000237395215663,0.325677454472,0.00219594314694,0.00219594314694,0.00516981771216,-0.0223479904234,155.773162842,155.773162842,1.3068972826,106.766311646,2026,2023,2542,2041,2041,2933,3426,3425,3245,3364,3091,3061,3162,3155,3245,2863,3412,3420,3253,3372,3139,3357,3388,3193
1508410311604410918,162,1508410311604028510,plot_matl,0.25,-1000.0,0.197399675846,0.0309251081198,-0.0526003241539,-45.41355896,0.349065840244,-0.00674740690738,-0.00163126527332,0.197443395853,0.0169934909791,0.0169934909791,0.00581423006952,-0.00787835102528,-0.660657525063,-0.660657525063,0.152481392026,90.9824829102,2031,2062,2094,2029,2029,2728,3324,3345,3152,3294,3008,2977,3061,3083,3167,2897,3376,3372,3202,3275,2924,3278,3303,3024,0.010036275,1.620016443,1.62587655,0.349065840244,4500.0,0.340968966484,0.00429394189268,-0.00809688866138,36.4359970093,0.0,6000.0,-0.00168224691879,-0.00643622130156,0.0,0.0,0.349065840244,0.0240919683129,-0.000237395215663,0.325677454472,0.00219594314694,0.00219594314694,0.00516981771216,-0.0223479904234,155.773162842,155.773162842,1.3068972826,106.766311646,2010,2013,2542,2041,2041,2933,3426,3425,3245,3364,3091,3063,3163,3154,3243,2862,3412,3418,3253,3370,3139,3357,3388,3193
1508410311614459446,163,1508410311614009025,plot_matl,0.25,-1000.0,0.197411745787,0.0307325720787,-0.0525882467628,-45.2437820435,0.349065840244,-0.00809688866138,-0.00166568649001,0.197360441089,0.00165591167752,0.00165591167752,0.0066795591265,-0.00618047406897,-0.613713443279,-0.613713443279,0.274446249008,90.7635803223,2009,2040,2094,2033,2033,2729,3322,3345,3152,3294,3008,2977,3061,3083,3167,2897,3376,3372,3202,3275,2925,3280,3305,3024,0.009979914,1.629997043,1.626725982,0.349065840244,4500.0,0.340968966484,0.0025523500517,-0.00809688866138,36.4359970093,0.0,6000.0,-0.00164020073134,0.00617404887453,0.0,0.0,0.349065840244,0.0240919683129,-0.000216723652557,0.325685352087,0.000864906993229,0.000864906993229,-0.0108114574105,-0.0225291643292,155.838592529,155.838592529,1.1824862957,107.042694092,2026,2024,2542,2037,2037,2933,3426,3426,3245,3364,3091,3063,3163,3154,3243,2862,3412,3418,3253,3370,3141,3357,3388,3191
1508410311624364353,164,1508410311624011735,plot_matl,0.25,-1000.0,0.197376281023,0.0314185842872,-0.0526237152517,-45.1584701538,0.349065840244,-0.00809688866138,-0.00166568649001,0.197360441089,0.00165591167752,0.00165591167752,0.0066795591265,-0.00618047406897,-0.613713443279,-0.613713443279,0.274446249008,90.7635803223,2009,2040,2094,2033,2033,2729,3322,3345,3152,3294,3008,2977,3061,3083,3167,2897,3376,3372,3202,3275,2925,3280,3305,3024,0.010001126,1.639999051,1.640184664,0.349065840244,4500.0,0.339619487524,-0.0248837321997,-0.00944636948407,42.5086631775,0.0,6000.0,-0.00159594544675,-0.00808154046535,0.0,0.0,0.349065840244,0.0240919683129,-0.000216723652557,0.325685352087,0.000864906993229,0.000864906993229,-0.0108114574105,-0.0225291643292,155.838592529,155.838592529,1.1824862957,107.042694092,2026,2024,2542,2037,2037,2933,3426,3426,3245,3364,3091,3063,3163,3154,3243,2862,3412,3418,3253,3370,3141,3357,3388,3191
1508410311634326292,165,1508410311633990957,plot_matl,0.25,-1000.0,0.197416946292,-0.00729750003666,-0.0525830462575,-54.4441452026,0.349065840244,-0.00809688866138,-0.00166568649001,0.197360441089,0.00165591167752,0.00165591167752,0.0066795591265,-0.00618047406897,-0.613713443279,-0.613713443279,0.274446249008,90.7635803223,2029,2065,2094,2033,2033,2729,3322,3345,3150,3291,3009,2977,3075,3095,3176,2909,3386,3381,3202,3275,2925,3280,3305,3024,0.009979507,1.649978559,1.646618655,0.349065840244,4500.0,0.340968966484,0.00147742172703,-0.00809688866138,36.4359970093,0.0,6000.0,-0.00158348621335,0.00510525936261,0.0,0.0,0.349065840244,0.0240919683129,-0.000216723652557,0.325685352087,0.000864906993229,0.000864906993229,-0.0108114574105,-0.0225291643292,155.838592529,155.838592529,1.1824862957,107.042694092,2029,2027,2542,2037,2037,2933,3426,3426,3244,3365,3092,3061,3176,3167,3257,2870,3421,3428,3253,3370,3141,3357,3388,3191
1508410311644074791,166,1508410311643967917,plot_matl,0.25,-1000.0,0.19734916091,-0.0059992140159,-0.0526508465409,-54.1272773743,0.349065840244,-0.00809688866138,-0.00166568649001,0.197360441089,0.00165591167752,0.00165591167752,0.0066795591265,-0.00618047406897,-0.613713443279,-0.613713443279,0.274446249008,90.7635803223,2034,2083,2093,2030,2030,2730,3322,3345,3150,3291,3009,2977,3075,3095,3176,2909,3386,3381,3211,3278,2929,3285,3308,3029,0.009974946,1.659954794,1.655841036,0.349065840244,4500.0,0.340968966484,0.00179969263263,-0.00809688866138,36.4359970093,0.0,6000.0,-0.00158702372573,0.00519638601691,0.0,0.0,0.349065840244,0.0240919683129,-0.000216723652557,0.325685352087,0.000864906993229,0.000864906993229,-0.0108114574105,-0.0225291643292,155.838592529,155.838592529,1.1824862957,107.042694092,2027,2030,2543,2037,2037,2936,3426,3426,3244,3365,3092,3061,3176,3167,3257,2870,3421,3428,3261,3377,3146,3362,3392,3198
1508410311654429905,167,1508410311653983457,plot_matl,0.25,-1000.0,0.197258472443,-0.00418575434014,-0.0527415275574,-53.7242126465,0.349065840244,-0.00809688866138,-0.00158702372573,0.19734916091,0.000899846316315,0.000899846316315,0.00519638601691,-0.0059992140159,-0.497139275074,-0.497139275074,-0.0184906888753,90.8935699463,2012,2064,2093,2030,2030,2730,3329,3346,3155,3296,3011,2981,3062,3086,3167,2902,3386,3381,3211,3278,2929,3285,3308,3029,0.010017458,1.669971305,1.672915486,0.349065840244,4500.0,0.340968966484,0.00199291645549,-0.00809688866138,36.4359970093,0.0,6000.0,-0.00159917748533,0.00546135241166,0.0,0.0,0.349065840244,0.0240919683129,-0.000165112272953,0.325950503349,0.00314857135527,0.00314857135527,0.00341799063608,0.0339400917292,155.419021606,155.419021606,1.53436684608,107.106948853,2022,2029,2543,2037,2037,2936,3431,3427,3246,3368,3092,3064,3164,3157,3246,2862,3421,3428,3261,3377,3146,3362,3392,3198
1508410311664428791,168,1508410311664022149,plot_matl,0.25,-1000.0,0.197258472443,-0.00418575434014,-0.0527415275574,-53.7242126465,0.349065840244,-0.00809688866138,-0.00158702372573,0.19734916091,0.000899846316315,0.000899846316315,0.00519638601691,-0.0059992140159,-0.497139275074,-0.497139275074,-0.0184906888753,90.8935699463,2037,2069,2094,2034,2034,2730,3329,3346,3155,3296,3011,2981,3062,3086,3167,2902,3379,3373,3208,3275,2924,3280,3304,3025,0.010037539,1.680009666,1.686306552,0.349065840244,4500.0,0.340968966484,0.00199291645549,-0.00809688866138,36.4359970093,0.0,6000.0,-0.00159917748533,0.00546135241166,0.0,0.0,0.349065840244,0.0240919683129,-0.000165112272953,0.325950503349,0.00314857135527,0.00314857135527,0.00341799063608,0.0339400917292,155.419021606,155.419021606,1.53436684608,107.106948853,2027,2020,2542,2037,2037,2936,3431,3427,3246,3368,3092,3064,3164,3157,3246,2862,3415,3421,3254,3371,3142,3357,3391,3193
1508410311674405893,169,1508410311673985861,plot_matl,0.25,-1000.0,0.197444528341,0.0312159750611,-0.0525554716587,-45.2151756287,0.349065840244,-0.00809688866138,-0.00158702372573,0.19734916091,0.000899846316315,0.000899846316315,0.00519638601691,-0.0059992140159,-0.497139275074,-0.497139275074,-0.0184906888753,90.8935699463,2033,2057,2094,2034,2034,2729,3324,3347,3164,3301,3018,2984,3068,3090,3167,2902,3379,3373,3208,3275,2924,3280,3304,3025,0.00996323,1.689973267,1.68378587,0.349065840244,4500.0,0.340968966484,0.00038577747182,-0.00809688866138,36.4359970093,0.0,6000.0,-0.00157829024829,-0.00789555255324,0.0,0.0,0.349065840244,0.0240919683129,-0.000165112272953,0.325950503349,0.00314857135527,0.00314857135527,0.00341799063608,0.0339400917292,155.419021606,155.419021606,1.53436684608,107.106948853,2025,2028,2542,2037,2037,2934,3426,3426,3257,3376,3100,3068,3169,3162,3246,2862,3415,3421,3254,3371,3142,3357,3391,3193
1508410311684485268,170,1508410311683998944,plot_matl,0.25,-1000.0,0.197406977415,-0.00618436047807,-0.0525930300355,-54.2939720154,0.349065840244,-0.00809688866138,-0.00158702372573,0.19734916091,0.000899846316315,0.000899846316315,0.00519638601691,-0.0059992140159,-0.497139275074,-0.497139275074,-0.0184906888753,90.8935699463,2014,2038,2094,2034,2034,2729,3324,3347,3164,3301,3018,2984,3068,3090,3172,2904,3381,3380,3208,3278,2928,3281,3305,3026,0.01001378,1.699986787,1.7023426,0.349065840244,4500.0,0.340968966484,0.000771358085331,-0.00809688866138,36.4359970093,0.0,6000.0,-0.00158288434613,-0.0078876754269,0.0,0.0,0.349065840244,0.0240919683129,-0.000165112272953,0.325950503349,0.00314857135527,0.00314857135527,0.00341799063608,0.0339400917292,155.419021606,155.419021606,1.53436684608,107.106948853,2028,2024,2542,2037,2037,2934,3426,3426,3257,3376,3100,3068,3169,3162,3249,2868,3420,3425,3259,3371,3143,3358,3389,3194
1508410311694359321,171,1508410311694010749,plot_matl,0.25,-1000.0,0.197552889585,0.0286216530949,-0.0524471104145,-45.6229667664,0.349065840244,-0.00809688866138,-0.00158351869322,0.197482451797,0.000612191972323,0.000612191972323,-0.00790158472955,0.0301335584372,-0.555082440376,-0.555082440376,-0.459320694208,90.8821105957,2015,2059,2094,2034,2034,2729,3328,3346,3153,3294,3012,2978,3068,3090,3172,2904,3381,3380,3208,3278,2928,3281,3305,3026,0.0100104,1.709998036,1.7117784,0.349065840244,4500.0,0.342318445444,0.0288393236697,-0.00674740690738,30.3633308411,0.0,6000.0,-0.00157176400535,0.0052438233979,0.0,0.0,0.349065840244,0.0240919683129,-0.000160218725796,0.326000005007,-0.00123679137323,-0.00123679137323,-0.012016966939,0.0330568514764,155.722946167,155.722946167,1.08304822445,107.176719666,2019,2025,2542,2040,2040,2935,3429,3427,3244,3366,3094,3064,3169,3162,3249,2868,3420,3425,3259,3371,3143,3358,3389,3194
1508410311704450661,172,1508410311703993815,plot_matl,0.25,-1000.0,0.1976313591,0.0267975945026,-0.0523686334491,-46.0986671448,0.349065840244,-0.00809688866138,-0.00158351869322,0.197482451797,0.000612191972323,0.000612191972323,-0.00790158472955,0.0301335584372,-0.555082440376,-0.555082440376,-0.459320694208,90.8821105957,2026,2051,2094,2034,2034,2729,3328,3346,3153,3294,3012,2978,3062,3084,3166,2900,3377,3373,3207,3276,2923,3278,3305,3026,0.009983703,1.719981733,1.717196916,0.349065840244,4500.0,0.340968966484,0.00225623464212,-0.00809688866138,36.4359970093,0.0,6000.0,-0.00158902851399,-0.00788509938866,0.0,0.0,0.349065840244,0.0240919683129,-0.000160218725796,0.326000005007,-0.00123679137323,-0.00123679137323,-0.012016966939,0.0330568514764,155.722946167,155.722946167,1.08304822445,107.176719666,2022,2024,2542,2040,2040,2935,3429,3427,3244,3366,3094,3064,3164,3156,3245,2863,3414,3420,3253,3371,3140,3356,3389,3194
1508410311714533162,173,1508410311714036166,plot_matl,0.25,-1000.0,0.197693988681,-0.0124535243958,-0.0523060187697,-55.280418396,0.349065840244,-0.00809688866138,-0.00158351869322,0.197482451797,0.000612191972323,0.000612191972323,-0.00790158472955,0.0301335584372,-0.555082440376,-0.555082440376,-0.459320694208,90.8821105957,2026,2051,2094,2034,2034,2729,3328,3346,3153,3294,3012,2978,3062,3084,3166,2900,3377,3373,3207,3276,2923,3278,3305,3026,0.010041348,1.730023707,1.737153204,0.349065840244,4500.0,0.340968966484,0.00282943760976,-0.00809688866138,36.4359970093,0.0,6000.0,-0.00161235802807,-0.00746501004323,0.0,0.0,0.349065840244,0.0240919683129,-0.000160218725796,0.326000005007,-0.00123679137323,-0.00123679137323,-0.012016966939,0.0330568514764,155.722946167,155.722946167,1.08304822445,107.176719666,2022,2024,2542,2040,2040,2935,3429,3427,3244,3366,3094,3064,3164,3156,3245,2863,3414,3420,3253,3371,3140,3356,3389,3194
1508410311724065435,174,1508410311723969603,plot_matl,0.25,-1000.0,0.19764123857,-0.0127832423896,-0.0523587688804,-55.2152061462,0.349065840244,-0.00809688866138,-0.00158351869322,0.197482451797,0.000612191972323,0.000612191972323,-0.00790158472955,0.0301335584372,-0.555082440376,-0.555082440376,-0.459320694208,90.8821105957,2005,2038,2094,2034,2034,2728,3327,3346,3152,3293,3012,2978,3062,3084,3166,2900,3377,3373,3207,3276,2923,3278,3305,3024,0.009931097,1.739956283,1.728010878,0.349065840244,4500.0,0.340968966484,0.00310211977921,-0.00809688866138,36.4359970093,0.0,6000.0,-0.00167375989258,-0.00621267221868,0.0,0.0,0.349065840244,0.0240919683129,-0.000160218725796,0.326000005007,-0.00123679137323,-0.00123679137323,-0.012016966939,0.0330568514764,155.722946167,155.722946167,1.08304822445,107.176719666,2023,2022,2542,2038,2038,2933,3427,3428,3245,3365,3094,3064,3164,3156,3245,2863,3414,3420,3253,3371,3140,3356,3390,3191
1508410311734132655,175,1508410311733965119,plot_matl,0.25,-1000.0,0.19763661921,-0.0125398756936,-0.052363384515,-55.2886810303,0.349065840244,-0.00809688866138,-0.00168010930065,0.19764880836,0.00154720596038,0.00154720596038,-0.00611902913079,0.0251228548586,-0.911230325699,-0.911230325699,-0.705613732338,91.1455230713,2013,2061,2094,2034,2034,2728,3327,3346,3152,3293,3024,2989,3070,3091,3175,2905,3386,3377,3210,3278,2923,3278,3305,3024,0.009995729,1.749951993,1.749252575,0.349065840244,4500.0,0.340968966484,0.00303107546642,-0.00809688866138,36.4359970093,0.0,6000.0,-0.00168652157299,-0.00599378440529,0.0,0.0,0.349065840244,0.0240919683129,-0.000180949093192,0.325973957777,-0.000681206118315,-0.000681206118315,0.00371627463028,-0.0301523171365,155.638290405,155.638290405,0.587621331215,107.286659241,2029,2030,2542,2038,2038,2933,3427,3428,3245,3365,3103,3074,3172,3164,3252,2869,3419,3425,3260,3375,3140,3356,3390,3191
1508410311744093166,176,1508410311743966925,plot_matl,0.25,-1000.0,0.197566643357,0.0269070994109,-0.052433360368,-46.0975074768,0.349065840244,-0.00809688866138,-0.00168010930065,0.19764880836,0.00154720596038,0.00154720596038,-0.00611902913079,0.0251228548586,-0.911230325699,-0.911230325699,-0.705613732338,91.1455230713,2010,2061,2093,2031,2031,2732,3328,3347,3152,3293,3024,2989,3070,3091,3175,2905,3386,3377,3210,3278,2927,3282,3308,3028,0.010001534,1.759953666,1.760269984,0.349065840244,4500.0,0.339619487524,-0.0223225634545,-0.00944636948407,42.5086631775,0.0,6000.0,-0.00169587752316,-0.00585026619956,0.0,0.0,0.349065840244,0.0240919683129,-0.000180949093192,0.325973957777,-0.000681206118315,-0.000681206118315,0.00371627463028,-0.0301523171365,155.638290405,155.638290405,0.587621331215,107.286659241,2026,2021,2543,2039,2039,2936,3429,3430,3245,3365,3103,3074,3172,3164,3252,2869,3419,3425,3260,3375,3143,3359,3393,3195
1508410311754260555,177,1508410311753980480,plot_matl,0.25,-1000.0,0.197676762938,-0.0132020479068,-0.0523232296109,-55.5876350403,0.349065840244,-0.00809688866138,-0.00168010930065,0.19764880836,0.00154720596038,0.00154720596038,-0.00611902913079,0.0251228548586,-0.911230325699,-0.911230325699,-0.705613732338,91.1455230713,2016,2058,2093,2031,2031,2732,3328,3347,3153,3295,3012,2980,3063,3083,3167,2900,3378,3372,3210,3278,2927,3282,3308,3028,0.010014284,1.76996763,1.772528268,0.349065840244,4500.0,0.340968966484,0.0044246581383,-0.00809688866138,36.4359970093,0.0,6000.0,-0.00164217117708,0.00646265922114,0.0,0.0,0.349065840244,0.0240919683129,-0.000180949093192,0.325973957777,-0.000681206118315,-0.000681206118315,0.00371627463028,-0.0301523171365,155.638290405,155.638290405,0.587621331215,107.286659241,2031,2028,2543,2039,2039,2936,3429,3430,3247,3365,3093,3062,3163,3156,3244,2864,3413,3420,3260,3375,3143,3359,3393,3195
1508410311764333268,178,1508410311763978183,plot_matl,0.25,-1000.0,0.197631329298,0.0256407540292,-0.0523686632514,-46.7528381348,0.349065840244,-0.00809688866138,-0.00168010930065,0.19764880836,0.00154720596038,0.00154720596038,-0.00611902913079,0.0251228548586,-0.911230325699,-0.911230325699,-0.705613732338,91.1455230713,2032,2068,2093,2035,2035,2729,3328,3347,3153,3295,3012,2980,3063,3083,3167,2900,3378,3372,3208,3274,2924,3280,3304,3024,0.00999819,1.779965986,1.77967782,0.349065840244,4500.0,0.339619487524,-0.0216517224908,-0.00944636948407,42.5086631775,0.0,6000.0,-0.00166826753411,-0.00642011966556,0.0,0.0,0.349065840244,0.0240919683129,-0.000180949093192,0.325973957777,-0.000681206118315,-0.000681206118315,0.00371627463028,-0.0301523171365,155.638290405,155.638290405,0.587621331215,107.286659241,2024,2017,2542,2040,2040,2935,3429,3430,3247,3365,3093,3062,3163,3156,3244,2864,3413,3420,3255,3371,3141,3358,3389,3192
1508410311774298138,179,1508410311773982292,plot_matl,0.25,-1000.0,0.19762429595,-0.0120218833908,-0.0523757003248,-55.1858825684,0.349065840244,-0.00809688866138,-0.00165986362845,0.197636008263,0.00258990749717,0.00258990749717,-0.00661047315225,-0.012268409133,-0.642866969109,-0.642866969109,-0.311916291714,91.3500976562,2045,2089,2093,2035,2035,2729,3325,3345,3151,3292,3011,2978,3059,3084,3166,2897,3378,3372,3208,3274,2924,3280,3304,3024,0.010002821,1.789969332,1.790504959,0.349065840244,4500.0,0.340968966484,0.00507572991773,-0.00809688866138,36.4359970093,0.0,6000.0,-0.00166656577494,-0.00647764001042,0.0,0.0,0.349065840244,0.0240919683129,-0.00021011478384,0.32612106204,-0.00143368751742,-0.00143368751742,-0.0110530536622,0.0297721922398,155.82661438,155.82661438,0.742527782917,106.984069824,2020,2020,2542,2040,2040,2935,3426,3426,3244,3366,3091,3061,3164,3154,3244,2863,3413,3420,3255,3371,3141,3358,3389,3192
