%time,field.header.seq,field.header.stamp,field.header.frame_id,field.FFJ4_set_point,field.FFJ4_position_gain,field.FFJ4_process_value,field.FFJ4_process_value_dot,field.FFJ4_error,field.FFJ4_command,field.FFJ1,field.FFJ2,field.FFJ3,field.FFJ4,field.FFJ1_dot,field.FFJ2_dot,field.FFJ3_dot,field.FFJ4_dot,field.FFJ1_tao,field.FFJ2_tao,field.FFJ3_tao,field.FFJ4_tao,field.pac0,field.pac1,field.pdc0,field.tac0,field.tdc0,field.el0,field.el1,field.el2,field.el3,field.el4,field.el5,field.el6,field.el7,field.el8,field.el9,field.el10,field.el11,field.el12,field.el13,field.el14,field.el15,field.el16,field.el17,field.el18,field.dt,field.time,field.test_time2,field.FFJ0_set_point,field.FFJ0_position_gain,field.FFJ0_process_value,field.FFJ0_process_value_dot,field.FFJ0_error,field.FFJ0_command,field.FFJ3_set_point,field.FFJ3_position_gain,field.FFJ3_process_value,field.FFJ3_process_value_dot,field.FFJ3_error,field.FFJ3_command,field.MFJ1,field.MFJ2,field.MFJ3,field.MFJ4,field.MFJ1_dot,field.MFJ2_dot,field.MFJ3_dot,field.MFJ4_dot,field.MFJ1_tao,field.MFJ2_tao,field.MFJ3_tao,field.MFJ4_tao,field.Mpac0,field.Mpac1,field.Mpdc0,field.Mtac0,field.Mtdc0,field.Mel0,field.Mel1,field.Mel2,field.Mel3,field.Mel4,field.Mel5,field.Mel6,field.Mel7,field.Mel8,field.Mel9,field.Mel10,field.Mel11,field.Mel12,field.Mel13,field.Mel14,field.Mel15,field.Mel16,field.Mel17,field.Mel18
1508410430289738193,113,1508410430289088234,plot_matl,-0.300000011921,-500.0,-0.196298703551,-0.00252643274143,0.103701300919,51.2204170227,0.349065840244,0.00134948140476,-0.00264167762361,-0.196265295148,-0.0116325644776,-0.0116325644776,-0.000322347739711,0.00276519940235,-0.246816724539,-0.246816724539,0.337608903646,-81.4988632202,2002,2040,2094,2020,2020,2741,3327,3344,3153,3292,3012,2973,3059,3077,3162,2885,3374,3369,3198,3269,2915,3277,3304,3021,0.01002276,1.1299427,1.13257188,0.349065840244,4500.0,0.351764827967,0.00319475401193,0.0,0.0,0.0,6000.0,-0.00264070974663,-0.000353235693183,0.0,0.0,0.349065840244,0.0265011657029,-0.00365890772082,0.32094424963,0.00318567245267,0.00318567245267,-0.002809146652,0.0113726286218,154.155929565,154.155929565,-0.0604806616902,108.681411743,2024,2020,2542,2043,2043,2928,3422,3422,3238,3359,3082,3058,3159,3151,3239,2860,3409,3416,3250,3366,3136,3353,3383,3186
1508410430299650387,114,1508410430299080576,plot_matl,-0.300000011921,-500.0,-0.196303874254,0.0035666632466,0.103696122766,52.7421951294,0.349065840244,0.00269896280952,-0.00264034885913,-0.196296066046,0.00163098867051,0.00163098867051,-0.000360668404028,-0.00257959333248,0.0575569756329,0.0575569756329,0.10502359271,-81.4146728516,2010,2040,2094,2018,2018,2741,3326,3346,3155,3293,3012,2975,3059,3077,3162,2885,3374,3369,3198,3269,2915,3277,3304,3021,0.009992517,1.139934801,1.139146938,0.349065840244,4500.0,0.351764827967,0.00462695676833,0.0,0.0,0.0,6000.0,-0.00264382758178,-0.000289025774691,0.0,0.0,0.349065840244,0.0265011657029,-0.00364216603339,0.32132589817,0.00543019501492,0.00543019501492,-0.00317403045483,0.00373468315229,153.839370728,153.839370728,0.262599885464,108.58795166,2022,2018,2544,2045,2045,2928,3422,3421,3239,3360,3082,3057,3159,3151,3239,2860,3409,3416,3250,3366,3136,3353,3383,3186
1508410430309706764,115,1508410430309102620,plot_matl,-0.300000011921,-500.0,-0.196308046579,0.00365108810365,0.103691957891,52.8042869568,0.349065840244,0.00269896280952,-0.00264034885913,-0.196296066046,0.00163098867051,0.00163098867051,-0.000360668404028,-0.00257959333248,0.0575569756329,0.0575569756329,0.10502359271,-81.4146728516,2007,2042,2094,2018,2018,2741,3326,3346,3155,3293,3012,2975,3059,3079,3163,2887,3373,3366,3198,3269,2917,3274,3304,3021,0.010021829,1.14995693,1.152510335,0.349065840244,4500.0,0.351764827967,0.0037868055515,0.0,0.0,0.0,6000.0,-0.00264637591317,-0.000236545209191,0.0,0.0,0.349065840244,0.0265011657029,-0.00364216603339,0.32132589817,0.00543019501492,0.00543019501492,-0.00317403045483,0.00373468315229,153.839370728,153.839370728,0.262599885464,108.58795166,2026,2018,2544,2045,2045,2928,3422,3421,3239,3360,3082,3057,3158,3152,3239,2861,3409,3415,3251,3365,3137,3351,3383,3186
1508410430319480255,116,1508410430319067604,plot_matl,-0.300000011921,-500.0,-0.196303606033,-0.0024316017516,0.103696390986,51.2657432556,0.349065840244,0.00269896280952,-0.00264034885913,-0.196296066046,0.00163098867051,0.00163098867051,-0.000360668404028,-0.00257959333248,0.0575569756329,0.0575569756329,0.10502359271,-81.4146728516,2015,2056,2094,2024,2024,2741,3327,3343,3157,3294,3012,2975,3059,3079,3163,2887,3373,3366,3198,3269,2917,3274,3301,3022,0.009963942,1.159922395,1.155817272,0.349065840244,4500.0,0.350415319204,-0.0226707663387,0.0,0.0,0.0,6000.0,-0.00265994598158,3.17008634738e-05,0.0,0.0,0.349065840244,0.0265011657029,-0.00364216603339,0.32132589817,0.00543019501492,0.00543019501492,-0.00317403045483,0.00373468315229,153.839370728,153.839370728,0.262599885464,108.58795166,2023,2021,2542,2048,2048,2927,3421,3422,3238,3358,3082,3057,3158,3152,3239,2861,3409,3415,3251,3365,3137,3351,3386,3187
1508410430329465931,117,1508410430329084271,plot_matl,-0.300000011921,-500.0,-0.196303442121,-0.00243156403303,0.103696554899,51.3054847717,0.349065840244,0.00269896280952,-0.00264034885913,-0.196296066046,0.00163098867051,0.00163098867051,-0.000360668404028,-0.00257959333248,0.0575569756329,0.0575569756329,0.10502359271,-81.4146728516,2036,2065,2094,2024,2024,2741,3327,3343,3157,3294,3012,2975,3061,3078,3165,2885,3374,3369,3196,3270,2917,3274,3301,3022,0.010015304,1.169938215,1.171790568,0.349065840244,4500.0,0.350415319204,-0.0210936069489,0.0,0.0,0.0,6000.0,-0.00264641502872,-0.000237518223003,0.0,0.0,0.349065840244,0.0265011657029,-0.00364216603339,0.32132589817,0.00543019501492,0.00543019501492,-0.00317403045483,0.00373468315229,153.839370728,153.839370728,0.262599885464,108.58795166,2028,2020,2542,2048,2048,2927,3421,3422,3238,3358,3084,3058,3158,3152,3241,2860,3409,3415,3253,3367,3137,3351,3386,3187
1508410430339652748,118,1508410430339096788,plot_matl,-0.300000011921,-500.0,-0.196308150887,-0.00231951009482,0.103691853583,51.3397254944,0.349065840244,0.00269896280952,-0.00264619942755,-0.196301177144,0.00287603959441,0.00287603959441,-0.00024199274776,0.00349455373362,0.0822043716908,0.0822043716908,0.16947004199,-81.7862167358,2028,2053,2095,2026,2026,2741,3326,3345,3157,3294,3012,2975,3061,3078,3165,2885,3374,3369,3196,3270,2917,3275,3303,3022,0.010014011,1.179951223,1.181653298,0.349065840244,4500.0,0.351764827967,0.0054793949239,0.0,0.0,0.0,6000.0,-0.00263613602147,-0.000449086393928,0.0,0.0,0.349065840244,0.0265011657029,-0.00371215469204,0.32137581706,0.00534531380981,0.00534531380981,-0.00175748160109,0.0645566508174,153.943725586,153.943725586,-0.0808644816279,108.49659729,2033,2032,2544,2045,2045,2928,3422,3422,3238,3358,3084,3058,3158,3152,3241,2860,3409,3415,3253,3367,3138,3352,3382,3188
1508410430349436693,119,1508410430349068202,plot_matl,-0.300000011921,-500.0,-0.196312814951,-0.0022279873956,0.103687189519,51.3383712769,0.349065840244,0.00269896280952,-0.00264619942755,-0.196301177144,0.00287603959441,0.00287603959441,-0.00024199274776,0.00349455373362,0.0822043716908,0.0822043716908,0.16947004199,-81.7862167358,2032,2061,2095,2026,2026,2741,3326,3345,3156,3292,3012,2976,3058,3078,3162,2884,3375,3365,3196,3270,2917,3275,3303,3022,0.00996984,1.189922547,1.18641096,0.349065840244,4500.0,0.350415319204,-0.0217725373805,0.0,0.0,0.0,6000.0,-0.00264007528313,-0.000367658125469,0.0,0.0,0.349065840244,0.0265011657029,-0.00371215469204,0.32137581706,0.00534531380981,0.00534531380981,-0.00175748160109,0.0645566508174,153.943725586,153.943725586,-0.0808644816279,108.49659729,2035,2029,2544,2045,2045,2928,3422,3422,3239,3359,3084,3059,3159,3154,3240,2859,3409,3416,3253,3367,3138,3352,3382,3188
1508410430359391790,120,1508410430359054946,plot_matl,-0.300000011921,-500.0,-0.196317255497,-0.00213563488796,0.103682741523,51.3377342224,0.349065840244,0.00269896280952,-0.00264619942755,-0.196301177144,0.00287603959441,0.00287603959441,-0.00024199274776,0.00349455373362,0.0822043716908,0.0822043716908,0.16947004199,-81.7862167358,2031,2074,2094,2023,2023,2741,3326,3345,3156,3292,3012,2976,3058,3078,3162,2884,3375,3365,3196,3269,2916,3273,3304,3024,0.00998536,1.199908665,1.1982432,0.349065840244,4500.0,0.351764827967,0.00546039035544,0.0,0.0,0.0,6000.0,-0.002631213516,-0.000532187696081,0.0,0.0,0.349065840244,0.0265011657029,-0.00371215469204,0.32137581706,0.00534531380981,0.00534531380981,-0.00175748160109,0.0645566508174,153.943725586,153.943725586,-0.0808644816279,108.49659729,2029,2035,2542,2047,2047,2926,3422,3422,3239,3359,3084,3059,3159,3154,3240,2859,3409,3416,3252,3365,3136,3354,3385,3189
1508410430369487566,121,1508410430369060362,plot_matl,-0.300000011921,-500.0,-0.196310654283,-0.00226887851022,0.103689342737,51.2888183594,0.349065840244,0.00269896280952,-0.00264619942755,-0.196301177144,0.00287603959441,0.00287603959441,-0.00024199274776,0.00349455373362,0.0822043716908,0.0822043716908,0.16947004199,-81.7862167358,2028,2069,2094,2023,2023,2741,3328,3346,3153,3293,3010,2974,3058,3077,3163,2887,3375,3365,3196,3269,2916,3273,3304,3024,0.010005502,1.209914421,1.210665742,0.349065840244,4500.0,0.350415319204,-0.0187753457576,0.0,0.0,0.0,6000.0,-0.00263606896624,-0.000435222231317,0.0,0.0,0.349065840244,0.0265011657029,-0.00371215469204,0.32137581706,0.00534531380981,0.00534531380981,-0.00175748160109,0.0645566508174,153.943725586,153.943725586,-0.0808644816279,108.49659729,2021,2026,2542,2047,2047,2926,3424,3421,3240,3362,3083,3058,3159,3152,3239,2860,3409,3416,3252,3365,3136,3354,3385,3189
1508410430379580500,122,1508410430379067422,plot_matl,-0.300000011921,-500.0,-0.196326315403,-0.00195616832934,0.103673681617,51.3779907227,0.349065840244,0.00134948140476,-0.00263562169857,-0.196308344603,-0.00958036258817,-0.00958036258817,-0.000444155535661,-0.00231544906273,0.0518609210849,0.0518609210849,-0.0629525110126,-81.6594085693,2027,2061,2094,2025,2025,2741,3328,3346,3153,3293,3010,2974,3058,3077,3163,2887,3374,3368,3197,3268,2917,3275,3303,3022,0.010008093,1.219922093,1.220987346,0.349065840244,4500.0,0.350415319204,-0.019696418196,0.0,0.0,0.0,6000.0,-0.00262696528807,-0.00059848226374,0.0,0.0,0.349065840244,0.0265011657029,-0.00370454904623,0.321276724339,0.00186534889508,0.00186534889508,-0.00191574136261,-0.0571797378361,153.91468811,153.91468811,0.650663733482,108.821365356,2021,2023,2543,2047,2047,2926,3424,3421,3240,3362,3083,3058,3159,3152,3239,2860,3408,3417,3253,3366,3136,3353,3385,3189
1508410430389251363,123,1508410430389056178,plot_matl,-0.300000011921,-500.0,-0.196322247386,0.0039422204718,0.103677757084,52.7299041748,0.349065840244,0.00134948140476,-0.00263562169857,-0.196308344603,-0.00958036258817,-0.00958036258817,-0.000444155535661,-0.00231544906273,0.0518609210849,0.0518609210849,-0.0629525110126,-81.6594085693,2021,2058,2094,2025,2025,2742,3329,3346,3153,3291,3010,2973,3058,3080,3163,2887,3374,3368,3197,3268,2917,3275,3303,3022,0.009986501,1.229910027,1.228339623,0.349065840244,4500.0,0.351764827967,0.00719768367708,0.0,0.0,0.0,6000.0,-0.00262008421123,-0.000750543782488,0.0,0.0,0.349065840244,0.0265011657029,-0.00370454904623,0.321276724339,0.00186534889508,0.00186534889508,-0.00191574136261,-0.0571797378361,153.91468811,153.91468811,0.650663733482,108.821365356,2019,2018,2543,2047,2047,2927,3424,3422,3239,3359,3084,3058,3159,3153,3239,2860,3408,3417,3253,3366,3136,3353,3385,3189
1508410430399452080,124,1508410430399083396,plot_matl,-0.300000011921,-500.0,-0.196318179369,0.00386194675229,0.103681825101,52.7833518982,0.349065840244,0.00134948140476,-0.00263562169857,-0.196308344603,-0.00958036258817,-0.00958036258817,-0.000444155535661,-0.00231544906273,0.0518609210849,0.0518609210849,-0.0629525110126,-81.6594085693,2015,2069,2094,2025,2025,2742,3329,3346,3153,3291,3010,2973,3058,3080,3163,2886,3370,3367,3196,3268,2917,3274,3301,3021,0.010027198,1.23993737,1.243372552,0.349065840244,4500.0,0.351764827967,0.00735537847504,0.0,0.0,0.0,6000.0,-0.0026389034465,-0.000387454347219,0.0,0.0,0.349065840244,0.0265011657029,-0.00370454904623,0.321276724339,0.00186534889508,0.00186534889508,-0.00191574136261,-0.0571797378361,153.91468811,153.91468811,0.650663733482,108.821365356,2016,2025,2543,2047,2047,2927,3424,3422,3239,3359,3084,3058,3159,3153,3241,2859,3411,3415,3251,3364,3138,3352,3383,3190
1508410430409302622,125,1508410430409117868,plot_matl,-0.300000011921,-500.0,-0.196315333247,-0.0021698770579,0.103684663773,51.3189849854,0.349065840244,0.00134948140476,-0.00263562169857,-0.196308344603,-0.00958036258817,-0.00958036258817,-0.000444155535661,-0.00231544906273,0.0518609210849,0.0518609210849,-0.0629525110126,-81.6594085693,2013,2065,2094,2024,2024,2740,3327,3345,3156,3291,3010,2973,3058,3080,3163,2886,3370,3367,3196,3268,2917,3274,3301,3021,0.010034557,1.249971943,1.254319625,0.349065840244,4500.0,0.351764827967,0.00501835020259,0.0,0.0,0.0,6000.0,-0.0026294447016,-0.000575861951802,0.0,0.0,0.349065840244,0.0265011657029,-0.00370454904623,0.321276724339,0.00186534889508,0.00186534889508,-0.00191574136261,-0.0571797378361,153.91468811,153.91468811,0.650663733482,108.821365356,2025,2025,2544,2046,2046,2928,3421,3424,3239,3360,3083,3057,3159,3153,3241,2859,3411,3415,3251,3364,3138,3352,3383,3190
1508410430419223238,126,1508410430419065959,plot_matl,-0.300000011921,-500.0,-0.19631934166,0.003878289368,0.10368065536,52.7330627441,0.349065840244,0.00269896280952,-0.00262887193821,-0.196313157678,0.00255976244807,0.00255976244807,-0.000587471877225,0.00376218813471,0.103025019169,0.103025019169,0.0332121215761,-82.0141067505,2014,2059,2094,2024,2024,2740,3327,3345,3156,3291,3010,2973,3060,3079,3164,2886,3374,3369,3199,3268,2915,3275,3301,3021,0.00994771,1.259920294,1.25341146,0.349065840244,4500.0,0.351764827967,0.0056345211342,0.0,0.0,0.0,6000.0,-0.00262132450007,-0.00073424418224,0.0,0.0,0.349065840244,0.0265011657029,-0.00368039868772,0.32102483511,0.00208200863563,0.00208200863563,0.0129555305466,0.00978243350983,153.804153442,153.804153442,0.741679131985,108.97668457,2024,2028,2544,2046,2046,2928,3421,3424,3239,3360,3083,3057,3157,3152,3239,2859,3409,3417,3250,3367,3138,3352,3383,3190
1508410430429287468,127,1508410430429042809,plot_matl,-0.300000011921,-500.0,-0.196316942573,0.0038244202733,0.103683054447,52.8342819214,0.349065840244,0.00269896280952,-0.00262887193821,-0.196313157678,0.00255976244807,0.00255976244807,-0.000587471877225,0.00376218813471,0.103025019169,0.103025019169,0.0332121215761,-82.0141067505,2019,2046,2094,2025,2025,2740,3329,3349,3155,3294,3010,2973,3060,3079,3164,2886,3374,3369,3199,3268,2915,3275,3302,3025,0.009975857,1.26989636,1.266933839,0.349065840244,4500.0,0.351764827967,0.00613056821749,0.0,0.0,0.0,6000.0,-0.00261593447067,-0.000856178288814,0.0,0.0,0.349065840244,0.0265011657029,-0.00368039868772,0.32102483511,0.00208200863563,0.00208200863563,0.0129555305466,0.00978243350983,153.804153442,153.804153442,0.741679131985,108.97668457,2032,2020,2544,2045,2045,2928,3421,3422,3238,3359,3083,3057,3157,3152,3239,2859,3409,3417,3250,3367,3138,3352,3385,3189
1508410430439285845,128,1508410430439144854,plot_matl,-0.300000011921,-500.0,-0.196319520473,-0.00209811911918,0.103680476546,51.3264846802,0.349065840244,0.00269896280952,-0.00262887193821,-0.196313157678,0.00255976244807,0.00255976244807,-0.000587471877225,0.00376218813471,0.103025019169,0.103025019169,0.0332121215761,-82.0141067505,2013,2053,2094,2025,2025,2740,3329,3349,3155,3294,3011,2975,3059,3077,3164,2885,3372,3368,3199,3267,2915,3275,3302,3025,0.010100586,1.279997998,1.292875008,0.349065840244,4500.0,0.351764827967,0.00550213968381,0.0,0.0,0.0,6000.0,-0.00262349541299,-0.000701778917573,0.0,0.0,0.349065840244,0.0265011657029,-0.00368039868772,0.32102483511,0.00208200863563,0.00208200863563,0.0129555305466,0.00978243350983,153.804153442,153.804153442,0.741679131985,108.97668457,2025,2026,2544,2045,2045,2928,3421,3422,3238,3359,3085,3059,3158,3152,3241,2861,3411,3416,3251,3367,3138,3352,3385,3189
1508410430449224084,129,1508410430449042428,plot_matl,-0.300000011921,-500.0,-0.196317180991,-0.00214171037078,0.103682823479,51.3364105225,0.349065840244,0.00269896280952,-0.00262887193821,-0.196313157678,0.00255976244807,0.00255976244807,-0.000587471877225,0.00376218813471,0.103025019169,0.103025019169,0.0332121215761,-82.0141067505,2002,2046,2095,2024,2024,2741,3327,3344,3155,3294,3011,2975,3059,3077,3164,2885,3372,3368,3199,3267,2916,3275,3302,3021,0.009897828,1.289895778,1.276819812,0.349065840244,4500.0,0.350415319204,-0.0217448808253,0.0,0.0,0.0,6000.0,-0.0026186958421,-0.000812650192529,0.0,0.0,0.349065840244,0.0265011657029,-0.00368039868772,0.32102483511,0.00208200863563,0.00208200863563,0.0129555305466,0.00978243350983,153.804153442,153.804153442,0.741679131985,108.97668457,2025,2026,2543,2045,2045,2928,3423,3420,3238,3359,3085,3059,3158,3152,3241,2861,3411,3416,3251,3367,3137,3353,3385,3187
1508410430459593974,130,1508410430459131273,plot_matl,-0.300000011921,-500.0,-0.196304887533,-0.00240462110378,0.103695109487,51.2139091492,0.349065840244,0.00269896280952,-0.00261792074889,-0.196315079927,0.0025402973406,0.0025402973406,-0.000828733609524,-0.00218409765512,-0.0623633898795,-0.0623633898795,-0.0642533823848,-81.9323959351,2008,2051,2095,2024,2024,2741,3327,3344,3154,3292,3011,2974,3061,3077,3164,2886,3373,3367,3199,3267,2916,3275,3302,3021,0.010089895,1.299984797,1.31168635,0.349065840244,4500.0,0.350415319204,-0.0212373193353,0.0,0.0,0.0,6000.0,-0.00261455215514,-0.000907178444322,0.0,0.0,0.349065840244,0.0265011657029,-0.00371159682982,0.321209520102,0.00178134266753,0.00178134266753,-0.00176186859608,0.00612889323384,153.584274292,153.584274292,0.515503108501,108.722396851,2028,2029,2543,2045,2045,2928,3423,3420,3238,3360,3084,3058,3159,3151,3241,2861,3409,3417,3251,3367,3137,3353,3385,3187
1508410430469174145,131,1508410430469036072,plot_matl,-0.300000011921,-500.0,-0.196304887533,-0.00240462110378,0.103695109487,51.2139091492,0.349065840244,0.00269896280952,-0.00261792074889,-0.196315079927,0.0025402973406,0.0025402973406,-0.000828733609524,-0.00218409765512,-0.0623633898795,-0.0623633898795,-0.0642533823848,-81.9323959351,2032,2055,2094,2024,2024,2741,3327,3344,3154,3292,3011,2974,3061,3077,3164,2886,3373,3367,3199,3270,2916,3276,3302,3020,0.009902811,1.309888983,1.297268241,0.349065840244,4500.0,0.350415319204,-0.0212373193353,0.0,0.0,0.0,6000.0,-0.0026334032882,-0.000515129708219,0.0,0.0,0.349065840244,0.0265011657029,-0.00371159682982,0.321209520102,0.00178134266753,0.00178134266753,-0.00176186859608,0.00612889323384,153.584274292,153.584274292,0.515503108501,108.722396851,2028,2016,2544,2042,2042,2928,3423,3420,3238,3360,3084,3058,3159,3151,3241,2861,3409,3417,3253,3365,3138,3352,3384,3189
1508410430479370202,132,1508410430479108990,plot_matl,-0.300000011921,-500.0,-0.196300506592,0.00347865442745,0.103699490428,52.7021598816,0.349065840244,0.00269896280952,-0.00261792074889,-0.196315079927,0.0025402973406,0.0025402973406,-0.000828733609524,-0.00218409765512,-0.0623633898795,-0.0623633898795,-0.0642533823848,-81.9323959351,2030,2051,2094,2024,2024,2741,3326,3344,3154,3294,3013,2974,3060,3077,3162,2886,3373,3367,3199,3270,2916,3276,3302,3020,0.01007407,1.319962689,1.32977724,0.349065840244,4500.0,0.350415319204,-0.0205551050603,0.0,0.0,0.0,6000.0,-0.0026486760471,-0.000198925306904,0.0,0.0,0.349065840244,0.0265011657029,-0.00371159682982,0.321209520102,0.00178134266753,0.00178134266753,-0.00176186859608,0.00612889323384,153.584274292,153.584274292,0.515503108501,108.722396851,2021,2015,2544,2042,2042,2928,3423,3422,3241,3359,3083,3057,3161,3152,3240,2861,3409,3417,3253,3365,3138,3352,3384,3189
1508410430489533238,133,1508410430489081071,plot_matl,-0.300000011921,-500.0,-0.196294829249,0.00337746297009,0.10370516777,52.6465568542,0.349065840244,0.00269896280952,-0.00261792074889,-0.196315079927,0.0025402973406,0.0025402973406,-0.000828733609524,-0.00218409765512,-0.0623633898795,-0.0623633898795,-0.0642533823848,-81.9323959351,2032,2070,2094,2024,2024,2741,3326,3344,3154,3294,3013,2974,3060,3077,3162,2886,3371,3367,3198,3268,2917,3273,3301,3022,0.00998356,1.329935606,1.32781348,0.349065840244,4500.0,0.350415319204,-0.0192643608898,0.0,0.0,0.0,6000.0,-0.00265034241602,-0.00016284067533,0.0,0.0,0.349065840244,0.0265011657029,-0.00371159682982,0.321209520102,0.00178134266753,0.00178134266753,-0.00176186859608,0.00612889323384,153.584274292,153.584274292,0.515503108501,108.722396851,2020,2023,2542,2043,2043,2928,3423,3422,3241,3359,3083,3057,3161,3152,3240,2861,3410,3417,3251,3369,3137,3352,3385,3187
1508410430499478395,134,1508410430499065589,plot_matl,-0.300000011921,-500.0,-0.196291387081,0.00331710930914,0.103708617389,52.6552085876,0.349065840244,0.00269896280952,-0.00265019340441,-0.196298137307,0.00380510347895,0.00380510347895,-0.000166063502547,0.0034443072509,-0.0720640867949,-0.0720640867949,-0.0112026482821,-82.0771408081,2026,2067,2094,2024,2024,2741,3328,3345,3155,3293,3012,2973,3059,3079,3162,2886,3371,3367,3198,3268,2917,3273,3301,3022,0.00997323,1.339919298,1.33641282,0.349065840244,4500.0,0.350415319204,-0.0201779771596,0.0,0.0,0.0,6000.0,-0.00263836607337,-0.000383120292099,0.0,0.0,0.349065840244,0.0265011657029,-0.00368878711015,0.321469664574,0.00443669967353,0.00443669967353,0.0131287612021,0.0627633333206,153.531097412,153.531097412,0.547222912312,108.875801086,2014,2018,2542,2043,2043,2928,3423,3421,3239,3360,3084,3057,3158,3152,3240,2861,3410,3417,3251,3369,3137,3352,3385,3187
1508410430509631757,135,1508410430509141400,plot_matl,-0.300000011921,-500.0,-0.196288600564,-0.00271899183281,0.103711403906,51.2236099243,0.349065840244,0.00269896280952,-0.00265019340441,-0.196298137307,0.00380510347895,0.00380510347895,-0.000166063502547,0.0034443072509,-0.0720640867949,-0.0720640867949,-0.0112026482821,-82.0771408081,2025,2050,2094,2024,2024,2741,3328,3345,3155,3293,3012,2973,3059,3079,3162,2887,3374,3369,3197,3271,2917,3275,3303,3023,0.01007727,1.349995756,1.36043145,0.349065840244,4500.0,0.351764827967,0.00580178899691,0.0,0.0,0.0,6000.0,-0.00265217479318,-9.91569759208e-05,0.0,0.0,0.349065840244,0.0265011657029,-0.00368878711015,0.321469664574,0.00443669967353,0.00443669967353,0.0131287612021,0.0627633333206,153.531097412,153.531097412,0.547222912312,108.875801086,2023,2016,2542,2043,2043,2928,3423,3421,3239,3360,3084,3057,3158,3152,3241,2859,3410,3417,3253,3367,3136,3352,3383,3189
1508410430519752951,136,1508410430519142482,plot_matl,-0.300000011921,-500.0,-0.196291431785,0.00331677705981,0.103708572686,52.7018966675,0.349065840244,0.00269896280952,-0.00265019340441,-0.196298137307,0.00380510347895,0.00380510347895,-0.000166063502547,0.0034443072509,-0.0720640867949,-0.0720640867949,-0.0112026482821,-82.0771408081,2027,2058,2093,2023,2023,2741,3326,3347,3155,3295,3012,2973,3059,3079,3162,2887,3374,3369,3197,3271,2917,3275,3303,3023,0.010000615,1.359996717,1.36008364,0.349065840244,4500.0,0.350415319204,-0.0214190892875,0.0,0.0,0.0,6000.0,-0.0026391830761,0.0130674466491,0.0,0.0,0.349065840244,0.0265011657029,-0.00368878711015,0.321469664574,0.00443669967353,0.00443669967353,0.0131287612021,0.0627633333206,153.531097412,153.531097412,0.547222912312,108.875801086,2026,2022,2542,2043,2043,2928,3422,3421,3239,3359,3084,3058,3158,3152,3241,2859,3410,3417,3253,3367,3136,3352,3383,3189
1508410430529511888,137,1508410430529088839,plot_matl,-0.300000011921,-500.0,-0.196294486523,0.00336958421394,0.103705510497,52.6599006653,0.349065840244,0.00269896280952,-0.00265019340441,-0.196298137307,0.00380510347895,0.00380510347895,-0.000166063502547,0.0034443072509,-0.0720640867949,-0.0720640867949,-0.0112026482821,-82.0771408081,2024,2056,2093,2023,2023,2741,3326,3347,3155,3295,3012,2973,3060,3080,3161,2886,3371,3368,3197,3269,2916,3276,3303,3023,0.009944904,1.369942954,1.362451848,0.349065840244,4500.0,0.351764827967,0.00581727363169,0.0,0.0,0.0,6000.0,-0.00262943701819,0.012875309214,0.0,0.0,0.349065840244,0.0265011657029,-0.00368878711015,0.321469664574,0.00443669967353,0.00443669967353,0.0131287612021,0.0627633333206,153.531097412,153.531097412,0.547222912312,108.875801086,2031,2023,2542,2043,2043,2928,3422,3421,3239,3359,3084,3058,3157,3152,3241,2860,3408,3415,3252,3366,3136,3352,3383,3189
1508410430539550013,138,1508410430539086031,plot_matl,-0.300000011921,-500.0,-0.196285456419,-0.00278299651109,0.103714548051,51.1717758179,0.349065840244,0.00134948140476,-0.00265311123803,-0.19629496336,-0.0109405256808,-0.0109405256808,-8.28275005915e-05,-0.00259163253941,-0.0336134806275,-0.0336134806275,0.316108345985,-81.9437637329,2026,2058,2094,2021,2021,2740,3328,3346,3155,3292,3012,2973,3060,3080,3161,2886,3371,3368,3197,3269,2916,3276,3303,3021,0.009998155,1.379940567,1.37974539,0.349065840244,4500.0,0.351764827967,0.00627990858629,0.0,0.0,0.0,6000.0,-0.00262290169485,-0.000679140910506,0.0,0.0,0.349065840244,0.0289103612304,-0.00367259630002,0.321399390697,0.0261232182384,0.0261232182384,-0.00253001227975,0.0022813747637,153.54675293,153.54675293,0.413967013359,108.807006836,2032,2029,2543,2047,2047,2927,3423,3421,3238,3359,3084,3058,3157,3152,3241,2860,3408,3415,3252,3366,3136,3352,3385,3186
1508410430549505967,139,1508410430549069322,plot_matl,-0.300000011921,-500.0,-0.196288555861,-0.00272425124422,0.103711441159,51.2068939209,0.349065840244,0.00134948140476,-0.00265311123803,-0.19629496336,-0.0109405256808,-0.0109405256808,-8.28275005915e-05,-0.00259163253941,-0.0336134806275,-0.0336134806275,0.316108345985,-81.9437637329,2016,2059,2094,2021,2021,2740,3328,3346,3155,3292,3013,2974,3058,3078,3162,2887,3373,3369,3196,3269,2916,3276,3303,3021,0.009981166,1.389923347,1.387382074,0.349065840244,4500.0,0.350415319204,-0.0225699488074,0.0,0.0,0.0,6000.0,-0.00261797406711,-0.00078198936535,0.0,0.0,0.349065840244,0.0289103612304,-0.00367259630002,0.321399390697,0.0261232182384,0.0261232182384,-0.00253001227975,0.0022813747637,153.54675293,153.54675293,0.413967013359,108.807006836,2031,2031,2543,2047,2047,2927,3423,3421,3238,3359,3082,3057,3158,3151,3242,2860,3411,3416,3252,3366,3136,3352,3385,3186
1508410430559469203,140,1508410430559073370,plot_matl,-0.300000011921,-500.0,-0.196275815368,0.00298784975894,0.103724181652,52.5962028503,0.349065840244,0.00134948140476,-0.00265311123803,-0.19629496336,-0.0109405256808,-0.0109405256808,-8.28275005915e-05,-0.00259163253941,-0.0336134806275,-0.0336134806275,0.316108345985,-81.9437637329,2027,2056,2094,2023,2023,2740,3327,3346,3155,3292,3013,2974,3058,3078,3162,2887,3373,3369,3196,3269,2917,3274,3302,3022,0.010004946,1.399928016,1.40069244,0.349065840244,4500.0,0.350415319204,-0.0219418872148,0.0,0.0,0.0,6000.0,-0.00262570823543,-0.000620475562755,0.0,0.0,0.349065840244,0.0289103612304,-0.00367259630002,0.321399390697,0.0261232182384,0.0261232182384,-0.00253001227975,0.0022813747637,153.54675293,153.54675293,0.413967013359,108.807006836,2031,2032,2544,2048,2048,2927,3424,3421,3238,3359,3082,3057,3158,3151,3242,2860,3411,3416,3252,3366,3137,3353,3385,3187
1508410430569448269,141,1508410430569098241,plot_matl,-0.300000011921,-500.0,-0.196275815368,0.00298784975894,0.103724181652,52.5962028503,0.349065840244,0.00134948140476,-0.00265311123803,-0.19629496336,-0.0109405256808,-0.0109405256808,-8.28275005915e-05,-0.00259163253941,-0.0336134806275,-0.0336134806275,0.316108345985,-81.9437637329,2016,2050,2094,2023,2023,2740,3327,3346,3155,3293,3009,2974,3060,3078,3165,2885,3373,3367,3196,3269,2917,3274,3302,3022,0.010023632,1.409952536,1.413332112,0.349065840244,4500.0,0.350415319204,-0.0219418872148,0.0,0.0,0.0,6000.0,-0.00262570823543,-0.000620475562755,0.0,0.0,0.349065840244,0.0289103612304,-0.00367259630002,0.321399390697,0.0261232182384,0.0261232182384,-0.00253001227975,0.0022813747637,153.54675293,153.54675293,0.413967013359,108.807006836,2028,2026,2544,2048,2048,2927,3424,3421,3237,3360,3083,3060,3158,3153,3243,2861,3409,3415,3252,3366,3137,3353,3385,3187
1508410430579445381,142,1508410430579061697,plot_matl,-0.300000011921,-500.0,-0.196279868484,-0.00288499495946,0.103720128536,51.1594352722,0.349065840244,0.00134948140476,-0.00264226016589,-0.196297854185,-0.0106631172821,-0.0106631172821,-0.000287937902613,-0.00253829360008,-0.0439810790122,-0.0439810790122,0.172079145908,-81.8424377441,2020,2051,2094,2023,2023,2740,3327,3346,3155,3293,3009,2974,3060,3078,3165,2885,3373,3367,3199,3271,2916,3275,3300,3023,0.009962329,1.419915501,1.414650718,0.349065840244,4500.0,0.351764827967,0.00648745428771,0.0,0.0,0.0,6000.0,-0.00263630948029,-0.000415899528889,0.0,0.0,0.349065840244,0.0265011657029,-0.00368187064305,0.321419209242,0.00111425388604,0.00111425388604,-0.00234650354832,0.00186533096712,153.697616577,153.697616577,0.356308043003,108.831214905,2020,2022,2543,2045,2045,2928,3424,3421,3237,3360,3083,3060,3158,3153,3243,2861,3409,3415,3253,3364,3138,3353,3387,3189
1508410430589547968,143,1508410430589098354,plot_matl,-0.300000011921,-500.0,-0.196285188198,-0.00278926128522,0.103714808822,51.185459137,0.349065840244,0.00134948140476,-0.00264226016589,-0.196297854185,-0.0106631172821,-0.0106631172821,-0.000287937902613,-0.00253829360008,-0.0439810790122,-0.0439810790122,0.172079145908,-81.8424377441,2033,2061,2094,2023,2023,2740,3328,3345,3155,3294,3011,2975,3061,3076,3163,2884,3373,3367,3199,3271,2916,3275,3300,3023,0.010037679,1.429952824,1.435388097,0.349065840244,4500.0,0.351764827967,0.00777857704088,0.0,0.0,0.0,6000.0,-0.00264018937014,-0.000341028149705,0.0,0.0,0.349065840244,0.0265011657029,-0.00368187064305,0.321419209242,0.00111425388604,0.00111425388604,-0.00234650354832,0.00186533096712,153.697616577,153.697616577,0.356308043003,108.831214905,2021,2013,2543,2045,2045,2928,3422,3419,3240,3359,3084,3057,3159,3152,3240,2861,3409,3415,3253,3364,3138,3353,3387,3189
1508410430599697105,144,1508410430599137972,plot_matl,-0.300000011921,-500.0,-0.196283429861,-0.00281699025072,0.103716574609,51.1655044556,0.349065840244,0.00134948140476,-0.00264226016589,-0.196297854185,-0.0106631172821,-0.0106631172821,-0.000287937902613,-0.00253829360008,-0.0439810790122,-0.0439810790122,0.172079145908,-81.8424377441,2025,2064,2094,2022,2022,2740,3328,3345,3155,3294,3011,2975,3061,3076,3163,2884,3371,3368,3198,3272,2914,3275,3301,3023,0.010040005,1.439992448,1.44576072,0.349065840244,4500.0,0.351764827967,0.00688634347171,0.0,0.0,0.0,6000.0,-0.00264341267757,-0.000278825784335,0.0,0.0,0.349065840244,0.0265011657029,-0.00368187064305,0.321419209242,0.00111425388604,0.00111425388604,-0.00234650354832,0.00186533096712,153.697616577,153.697616577,0.356308043003,108.831214905,2019,2019,2543,2049,2049,2928,3422,3419,3240,3359,3084,3057,3159,3152,3240,2861,3408,3417,3252,3366,3136,3353,3386,3186
1508410430609686710,145,1508410430609134614,plot_matl,-0.300000011921,-500.0,-0.196283429861,-0.00281699025072,0.103716574609,51.1655044556,0.349065840244,0.00134948140476,-0.00264226016589,-0.196297854185,-0.0106631172821,-0.0106631172821,-0.000287937902613,-0.00253829360008,-0.0439810790122,-0.0439810790122,0.172079145908,-81.8424377441,2015,2049,2094,2022,2022,2741,3330,3346,3155,3293,3012,2974,3062,3079,3163,2884,3371,3368,3198,3272,2914,3275,3301,3023,0.0099961,1.449988793,1.4494345,0.349065840244,4500.0,0.351764827967,0.00688634347171,0.0,0.0,0.0,6000.0,-0.00264341267757,-0.000278825784335,0.0,0.0,0.349065840244,0.0265011657029,-0.00368187064305,0.321419209242,0.00111425388604,0.00111425388604,-0.00234650354832,0.00186533096712,153.697616577,153.697616577,0.356308043003,108.831214905,2020,2016,2543,2049,2049,2926,3423,3423,3238,3359,3082,3058,3159,3151,3240,2861,3408,3417,3252,3366,3136,3353,3386,3186
1508410430619524161,146,1508410430619078616,plot_matl,-0.300000011921,-500.0,-0.196251451969,0.00250932946801,0.103748552501,52.5398597717,0.349065840244,0.00134948140476,-0.00263098324649,-0.19627828896,-0.0101478453726,-0.0101478453726,-0.000518679444212,-0.00292347697541,0.0241922959685,0.0241922959685,-0.217887416482,-81.9418334961,2028,2079,2094,2022,2022,2741,3330,3346,3155,3293,3012,2974,3062,3079,3164,2884,3375,3380,3209,3279,2924,3284,3310,3032,0.009942408,1.4599327,1.451591568,0.349065840244,4500.0,0.353114306927,0.0296944528818,0.0,0.0,0.0,6000.0,-0.00264717871323,-0.000206154363696,0.0,0.0,0.349065840244,0.0289103612304,-0.00369527377188,0.32140982151,0.0239529255778,0.0239529255778,-0.00207657390274,0.00208717258647,154.118911743,154.118911743,0.588005840778,108.623474121,2025,2037,2543,2049,2049,2926,3423,3423,3238,3359,3082,3058,3159,3151,3241,2860,3409,3429,3263,3376,3146,3360,3391,3194
1508410430629550915,147,1508410430629083040,plot_matl,-0.300000011921,-500.0,-0.196245253086,-0.00359509908594,0.103754743934,51.0313720703,0.349065840244,0.00134948140476,-0.00263098324649,-0.19627828896,-0.0101478453726,-0.0101478453726,-0.000518679444212,-0.00292347697541,0.0241922959685,0.0241922959685,-0.217887416482,-81.9418334961,2031,2074,2094,2021,2021,2745,3333,3351,3158,3297,3012,2978,3062,3079,3164,2884,3375,3380,3209,3279,2924,3284,3310,3032,0.010004123,1.469937274,1.470606081,0.349065840244,4500.0,0.351764827967,0.00295277033001,0.0,0.0,0.0,6000.0,-0.00263923290186,-0.000379240169423,0.0,0.0,0.349065840244,0.0289103612304,-0.00369527377188,0.32140982151,0.0239529255778,0.0239529255778,-0.00207657390274,0.00208717258647,154.118911743,154.118911743,0.588005840778,108.623474121,2025,2025,2543,2049,2049,2931,3425,3426,3241,3363,3085,3061,3159,3151,3241,2860,3409,3429,3263,3376,3146,3360,3391,3194
1508410430639504684,148,1508410430639078433,plot_matl,-0.300000011921,-500.0,-0.196251511574,-0.00347340828739,0.103748485446,50.9790000916,0.349065840244,0.00134948140476,-0.00263098324649,-0.19627828896,-0.0101478453726,-0.0101478453726,-0.000518679444212,-0.00292347697541,0.0241922959685,0.0241922959685,-0.217887416482,-81.9418334961,2025,2049,2094,2021,2021,2745,3333,3351,3158,3297,3012,2978,3063,3079,3164,2885,3375,3369,3200,3271,2916,3275,3310,3032,0.009995073,1.479932388,1.479270804,0.349065840244,4500.0,0.351764827967,0.00391057645902,0.0,0.0,0.0,6000.0,-0.00264262664132,-0.000310149393044,0.0,0.0,0.349065840244,0.0289103612304,-0.00369527377188,0.32140982151,0.0239529255778,0.0239529255778,-0.00207657390274,0.00208717258647,154.118911743,154.118911743,0.588005840778,108.623474121,2029,2024,2543,2049,2049,2931,3425,3426,3241,3363,3085,3061,3162,3156,3242,2862,3411,3420,3253,3368,3139,3354,3391,3194
1508410430649483756,149,1508410430649086054,plot_matl,-0.300000011921,-500.0,-0.196245387197,-0.0036056607496,0.103754609823,50.9614257812,0.349065840244,0.00134948140476,-0.00263098324649,-0.19627828896,-0.0101478453726,-0.0101478453726,-0.000518679444212,-0.00292347697541,0.0241922959685,0.0241922959685,-0.217887416482,-81.9418334961,2039,2071,2094,2022,2022,2741,3327,3346,3156,3293,3012,2978,3063,3079,3164,2885,3375,3369,3200,3271,2916,3275,3305,3025,0.010006824,1.489940294,1.491016776,0.349065840244,4500.0,0.351764827967,0.00374446343631,0.0,0.0,0.0,6000.0,-0.00264539429918,-0.000253806647379,0.0,0.0,0.349065840244,0.0289103612304,-0.00369527377188,0.32140982151,0.0239529255778,0.0239529255778,-0.00207657390274,0.00208717258647,154.118911743,154.118911743,0.588005840778,108.623474121,2022,2019,2543,2045,2045,2929,3424,3422,3239,3361,3085,3061,3162,3156,3242,2862,3411,3420,3253,3368,3139,3354,3385,3189
1508410430659609971,150,1508410430659103778,plot_matl,-0.300000011921,-500.0,-0.196250036359,0.00246230210178,0.103749960661,52.5235214233,0.349065840244,0.00269896280952,-0.00264671980403,-0.196256771684,0.00127556023654,0.00127556023654,-0.000215010542888,0.00261712749489,0.0796587094665,0.0796587094665,-0.353203505278,-81.0456161499,2026,2064,2094,2022,2022,2741,3327,3346,3156,3293,3012,2975,3058,3079,3163,2883,3373,3367,3196,3269,2916,3275,3305,3025,0.010019728,1.49995878,1.5029592,0.349065840244,4500.0,0.351764827967,0.00259011262096,0.0,0.0,0.0,6000.0,-0.00263559329323,-0.000452176405815,0.0,0.0,0.349065840244,0.0240919683129,-0.00373606220819,0.321331948042,-0.0194832794368,-0.0194832794368,-0.00125471840147,0.00364994932897,154.152420044,154.152420044,0.394133329391,108.7838974,2017,2019,2543,2045,2045,2929,3424,3422,3239,3361,3084,3059,3160,3153,3239,2861,3411,3416,3251,3368,3139,3354,3385,3189
1508410430669749676,151,1508410430669133424,plot_matl,-0.300000011921,-500.0,-0.196270242333,-0.00309471553192,0.103729754686,51.1106452942,0.349065840244,0.00269896280952,-0.00264671980403,-0.196256771684,0.00127556023654,0.00127556023654,-0.000215010542888,0.00261712749489,0.0796587094665,0.0796587094665,-0.353203505278,-81.0456161499,2004,2044,2094,2021,2021,2742,3327,3346,3156,3293,3012,2975,3058,3079,3163,2883,3373,3367,3196,3269,2916,3279,3301,3022,0.010028409,1.509987634,1.514289759,0.349065840244,4500.0,0.351764827967,0.00261699524708,0.0,0.0,0.0,6000.0,-0.00263961800374,-0.00037044918281,0.0,0.0,0.349065840244,0.0240919683129,-0.00373606220819,0.321331948042,-0.0194832794368,-0.0194832794368,-0.00125471840147,0.00364994932897,154.152420044,154.152420044,0.394133329391,108.7838974,2029,2030,2543,2045,2045,2927,3424,3424,3239,3361,3084,3059,3160,3153,3239,2861,3411,3416,3251,3368,3136,3352,3384,3188
1508410430679396500,152,1508410430679065810,plot_matl,-0.300000011921,-500.0,-0.19627687335,-0.00297040492296,0.10372313112,51.151424408,0.349065840244,0.00269896280952,-0.00264671980403,-0.196256771684,0.00127556023654,0.00127556023654,-0.000215010542888,0.00261712749489,0.0796587094665,0.0796587094665,-0.353203505278,-81.0456161499,2010,2037,2094,2021,2021,2742,3327,3346,3155,3293,3013,2974,3058,3078,3165,2883,3373,3367,3196,3269,2916,3279,3301,3022,0.009930847,1.519919849,1.509488744,0.349065840244,4500.0,0.350415319204,-0.0246669687331,0.0,0.0,0.0,6000.0,-0.00265539367683,-5.64467882214e-05,0.0,0.0,0.349065840244,0.0240919683129,-0.00373606220819,0.321331948042,-0.0194832794368,-0.0194832794368,-0.00125471840147,0.00364994932897,154.152420044,154.152420044,0.394133329391,108.7838974,2035,2031,2543,2045,2045,2927,3424,3424,3238,3361,3082,3058,3159,3154,3240,2859,3411,3417,3251,3368,3136,3352,3384,3188
1508410430689473289,153,1508410430689093251,plot_matl,-0.300000011921,-500.0,-0.196270599961,-0.00309190899134,0.103729397058,51.1960678101,0.349065840244,0.00269896280952,-0.00264671980403,-0.196256771684,0.00127556023654,0.00127556023654,-0.000215010542888,0.00261712749489,0.0796587094665,0.0796587094665,-0.353203505278,-81.0456161499,2016,2038,2094,2023,2023,2741,3327,3346,3155,3293,3013,2974,3058,3078,3165,2883,3373,3367,3197,3268,2915,3276,3305,3020,0.010027552,1.529947627,1.534215456,0.349065840244,4500.0,0.351764827967,0.000208873592783,0.0,0.0,0.0,6000.0,-0.00265583838336,-4.62766984128e-05,0.0,0.0,0.349065840244,0.0240919683129,-0.00373606220819,0.321331948042,-0.0194832794368,-0.0194832794368,-0.00125471840147,0.00364994932897,154.152420044,154.152420044,0.394133329391,108.7838974,2030,2028,2542,2044,2044,2928,3424,3424,3238,3361,3082,3058,3159,3154,3240,2859,3411,3417,3252,3368,3138,3352,3386,3189
1508410430699689627,154,1508410430699136553,plot_matl,-0.300000011921,-500.0,-0.196271821856,0.00290361000225,0.103728182614,52.5184898376,0.349065840244,0.00404844433069,-0.00264633703046,-0.196247458458,0.0150895705447,0.0150895705447,-0.000234616381931,-0.00356465880759,-0.25333493948,-0.25333493948,-0.235624223948,-80.910118103,1999,2025,2094,2023,2023,2741,3329,3347,3156,3293,3011,2974,3059,3078,3161,2884,3373,3367,3197,3268,2915,3276,3305,3020,0.010044054,1.539990863,1.546784316,0.349065840244,4500.0,0.351764827967,-0.000289830408292,0.0,0.0,0.0,6000.0,-0.00265620602295,-3.78668482881e-05,0.0,0.0,0.349065840244,0.0265011657029,-0.00371224037372,0.321397989988,0.00189441686962,0.00189441686962,-0.00171387556475,-0.0595771186054,154.002090454,154.002090454,0.593194425106,108.778022766,2037,2034,2542,2044,2044,2928,3425,3424,3238,3360,3082,3059,3159,3152,3240,2861,3411,3417,3252,3368,3138,3352,3386,3189
1508410430709619544,155,1508410430709145680,plot_matl,-0.300000011921,-500.0,-0.19628277421,-0.00283915642649,0.10371722281,51.1308631897,0.349065840244,0.00404844433069,-0.00264633703046,-0.196247458458,0.0150895705447,0.0150895705447,-0.000234616381931,-0.00356465880759,-0.25333493948,-0.25333493948,-0.235624223948,-80.910118103,2000,2045,2094,2023,2023,2741,3329,3347,3156,3293,3011,2974,3059,3078,3161,2884,3372,3367,3195,3269,2915,3274,3302,3024,0.010008323,1.550000062,1.551290065,0.349065840244,4500.0,0.351764827967,-0.00019575090846,0.0,0.0,0.0,6000.0,-0.00265650870278,-3.09445676976e-05,0.0,0.0,0.349065840244,0.0265011657029,-0.00371224037372,0.321397989988,0.00189441686962,0.00189441686962,-0.00171387556475,-0.0595771186054,154.002090454,154.002090454,0.593194425106,108.778022766,2029,2037,2544,2042,2042,2928,3425,3424,3238,3360,3082,3059,3159,3152,3240,2861,3411,3416,3253,3367,3137,3351,3383,3186
1508410430719508534,156,1508410430719090040,plot_matl,-0.300000011921,-500.0,-0.196264609694,0.00277695292607,0.103735387325,52.488735199,0.349065840244,0.00404844433069,-0.00264633703046,-0.196247458458,0.0150895705447,0.0150895705447,-0.000234616381931,-0.00356465880759,-0.25333493948,-0.25333493948,-0.235624223948,-80.910118103,2023,2055,2094,2023,2023,2743,3327,3346,3153,3295,3010,2975,3059,3077,3161,2884,3372,3367,3195,3269,2915,3274,3302,3024,0.009943448,1.559944381,1.551177888,0.349065840244,4500.0,0.353114306927,0.0262226872146,0.0,0.0,0.0,6000.0,-0.00265675201081,-2.53788039117e-05,0.0,0.0,0.349065840244,0.0265011657029,-0.00371224037372,0.321397989988,0.00189441686962,0.00189441686962,-0.00171387556475,-0.0595771186054,154.002090454,154.002090454,0.593194425106,108.778022766,2027,2029,2544,2042,2042,2927,3423,3422,3239,3360,3084,3058,3159,3151,3240,2861,3411,3416,3253,3367,3137,3351,3383,3186
1508410430729562843,157,1508410430729054860,plot_matl,-0.300000011921,-500.0,-0.196265116334,0.00279386155307,0.103734888136,52.5002059937,0.349065840244,0.00404844433069,-0.00264633703046,-0.196247458458,0.0150895705447,0.0150895705447,-0.000234616381931,-0.00356465880759,-0.25333493948,-0.25333493948,-0.235624223948,-80.910118103,2028,2058,2094,2023,2023,2743,3327,3346,3153,3295,3010,2975,3059,3077,3162,2884,3371,3368,3195,3269,2915,3277,3301,3022,0.0099633,1.569908558,1.5642381,0.349065840244,4500.0,0.353114306927,0.0263623762876,0.0,0.0,0.0,6000.0,-0.00265695387498,-2.07626635529e-05,0.0,0.0,0.349065840244,0.0265011657029,-0.00371224037372,0.321397989988,0.00189441686962,0.00189441686962,-0.00171387556475,-0.0595771186054,154.002090454,154.002090454,0.593194425106,108.778022766,2022,2022,2544,2042,2042,2927,3423,3422,3239,3360,3084,3058,3159,3151,3240,2860,3410,3416,3253,3367,3138,3352,3384,3186
1508410430739487084,158,1508410430739073686,plot_matl,-0.300000011921,-500.0,-0.19624529779,0.00238997093402,0.103754706681,52.4579811096,0.349065840244,0.00269896280952,-0.00264386669733,-0.196260437369,-0.000672415189911,-0.000672415189911,0.0131381237879,0.00269770831801,0.0397074967623,0.0397074967623,-0.0582889653742,-80.8958816528,2004,2057,2095,2023,2023,2743,3325,3345,3154,3294,3013,2973,3059,3077,3162,2884,3371,3368,3195,3269,2915,3277,3301,3022,0.010018887,1.57992764,1.582984146,0.349065840244,4500.0,0.351764827967,-0.00167043390684,0.0,0.0,0.0,6000.0,-0.00264546321705,-0.000252111727605,0.0,0.0,0.349065840244,0.0265011657029,-0.00365539779887,0.321297973394,0.00364089594223,0.00364089594223,0.0124951330945,0.00404437398538,153.167922974,153.167922974,0.543694853783,108.388137817,2013,2024,2543,2042,2042,2926,3424,3422,3238,3359,3084,3059,3159,3151,3240,2860,3410,3416,3253,3367,3138,3352,3384,3186
1508410430749686589,159,1508410430749134643,plot_matl,-0.300000011921,-500.0,-0.196246117353,0.00239872862585,0.103753879666,52.4784088135,0.349065840244,0.00269896280952,-0.00264386669733,-0.196260437369,-0.000672415189911,-0.000672415189911,0.0131381237879,0.00269770831801,0.0397074967623,0.0397074967623,-0.0582889653742,-80.8958816528,2018,2061,2095,2023,2023,2743,3325,3345,3154,3294,3013,2973,3059,3078,3163,2886,3373,3367,3199,3268,2916,3276,3301,3022,0.010062135,1.589988954,1.599879465,0.349065840244,4500.0,0.351764827967,-0.00130442436785,0.0,0.0,0.0,6000.0,-0.00266040302813,4.18005802203e-05,0.0,0.0,0.349065840244,0.0265011657029,-0.00365539779887,0.321297973394,0.00364089594223,0.00364089594223,0.0124951330945,0.00404437398538,153.167922974,153.167922974,0.543694853783,108.388137817,2019,2026,2543,2042,2042,2926,3424,3422,3238,3359,3084,3059,3158,3152,3241,2862,3409,3415,3250,3367,3138,3353,3384,3186
1508410430759565719,160,1508410430759067660,plot_matl,-0.300000011921,-500.0,-0.196245998144,-0.00357864168473,0.103753998876,51.0391082764,0.349065840244,0.00269896280952,-0.00264386669733,-0.196260437369,-0.000672415189911,-0.000672415189911,0.0131381237879,0.00269770831801,0.0397074967623,0.0397074967623,-0.0582889653742,-80.8958816528,2038,2073,2094,2021,2021,2742,3327,3347,3154,3291,3013,2973,3059,3078,3163,2886,3373,3367,3199,3268,2916,3276,3301,3020,0.009930882,1.599921292,1.58894112,0.349065840244,4500.0,0.351764827967,0.000346865999745,0.0,0.0,0.0,6000.0,-0.00265994132496,3.42028724845e-05,0.0,0.0,0.349065840244,0.0265011657029,-0.00365539779887,0.321297973394,0.00364089594223,0.00364089594223,0.0124951330945,0.00404437398538,153.167922974,153.167922974,0.543694853783,108.388137817,2014,2016,2544,2045,2045,2928,3423,3422,3239,3360,3084,3059,3158,3152,3241,2862,3409,3415,3250,3367,3138,3353,3385,3187
1508410430769655142,161,1508410430769145551,plot_matl,-0.300000011921,-500.0,-0.19626185298,-0.00325579429045,0.103738151491,51.1099319458,0.349065840244,0.00269896280952,-0.00264386669733,-0.196260437369,-0.000672415189911,-0.000672415189911,0.0131381237879,0.00269770831801,0.0397074967623,0.0397074967623,-0.0582889653742,-80.8958816528,2017,2047,2094,2021,2021,2742,3327,3347,3154,3291,3012,2974,3058,3079,3162,2886,3370,3368,3196,3268,2916,3276,3301,3020,0.010078489,1.609999544,1.622636729,0.349065840244,4500.0,0.353114306927,0.0265770293772,0.0,0.0,0.0,6000.0,-0.0026595662348,2.8034344723e-05,0.0,0.0,0.349065840244,0.0265011657029,-0.00365539779887,0.321297973394,0.00364089594223,0.00364089594223,0.0124951330945,0.00404437398538,153.167922974,153.167922974,0.543694853783,108.388137817,2028,2024,2544,2045,2045,2928,3423,3422,3239,3360,3083,3059,3160,3151,3240,2861,3410,3415,3251,3366,3138,3353,3385,3187
1508410430779479061,162,1508410430779062942,plot_matl,-0.300000011921,-500.0,-0.196270048618,-0.00309452880174,0.103729955852,51.1217765808,0.349065840244,0.00269896280952,-0.00265943421982,-0.196268856525,-0.000315183715429,-0.000315183715429,2.58649251919e-05,-0.00311533664353,0.0937824398279,0.0937824398279,-0.148991972208,-80.7108612061,2015,2051,2095,2021,2021,2742,3328,3344,3154,3291,3012,2974,3058,3079,3162,2886,3370,3368,3196,3268,2915,3275,3301,3021,0.00991681,1.619917192,1.60652322,0.349065840244,4500.0,0.351764827967,-0.000559431966394,0.0,0.0,0.0,6000.0,-0.00265925726853,2.29543366004e-05,0.0,0.0,0.349065840244,0.0265011657029,-0.00367842265405,0.32120642066,0.00401737261564,0.00401737261564,-0.00238397601061,0.00587088475004,153.042556763,153.042556763,0.811957240105,108.205665588,2027,2025,2544,2043,2043,2928,3422,3422,3239,3360,3083,3059,3160,3151,3240,2861,3410,3415,3251,3366,3136,3353,3385,3187
1508410430789583988,163,1508410430789079709,plot_matl,-0.300000011921,-500.0,-0.196292504668,-0.00263931974769,0.103707499802,51.2185516357,0.349065840244,0.00269896280952,-0.00265943421982,-0.196268856525,-0.000315183715429,-0.000315183715429,2.58649251919e-05,-0.00311533664353,0.0937824398279,0.0937824398279,-0.148991972208,-80.7108612061,2022,2061,2095,2021,2021,2742,3328,3344,3155,3294,3012,2974,3057,3077,3164,2884,3372,3367,3196,3268,2915,3275,3301,3021,0.010018751,1.629934586,1.633056413,0.349065840244,4500.0,0.351764827967,0.00105549546424,0.0,0.0,0.0,6000.0,-0.00264668371528,-0.000218781584408,0.0,0.0,0.349065840244,0.0265011657029,-0.00367842265405,0.32120642066,0.00401737261564,0.00401737261564,-0.00238397601061,0.00587088475004,153.042556763,153.042556763,0.811957240105,108.205665588,2027,2032,2544,2043,2043,2928,3422,3422,3240,3362,3083,3059,3157,3153,3239,2861,3410,3415,3251,3366,3136,3353,3385,3187
1508410430799676977,164,1508410430799116206,plot_matl,-0.300000011921,-500.0,-0.196283400059,0.0031581975054,0.103716604412,52.6110420227,0.349065840244,0.00269896280952,-0.00265943421982,-0.196268856525,-0.000315183715429,-0.000315183715429,2.58649251919e-05,-0.00311533664353,0.0937824398279,0.0937824398279,-0.148991972208,-80.7108612061,2003,2036,2094,2023,2023,2743,3328,3344,3155,3294,3012,2974,3057,3077,3164,2884,3372,3367,3199,3268,2917,3275,3300,3023,0.010035149,1.639970721,1.645764436,0.349065840244,4500.0,0.351764827967,0.00181027466897,0.0,0.0,0.0,6000.0,-0.00264870608225,-0.00017919842503,0.0,0.0,0.349065840244,0.0265011657029,-0.00367842265405,0.32120642066,0.00401737261564,0.00401737261564,-0.00238397601061,0.00587088475004,153.042556763,153.042556763,0.811957240105,108.205665588,2024,2030,2544,2044,2044,2928,3422,3422,3240,3362,3083,3059,3157,3153,3239,2861,3410,3415,3251,3367,3138,3354,3384,3188
1508410430809688683,165,1508410430809117653,plot_matl,-0.300000011921,-500.0,-0.196288526058,-0.00271653523669,0.103711463511,51.204120636,0.349065840244,0.00269896280952,-0.00265943421982,-0.196268856525,-0.000315183715429,-0.000315183715429,2.58649251919e-05,-0.00311533664353,0.0937824398279,0.0937824398279,-0.148991972208,-80.7108612061,2016,2040,2094,2023,2023,2743,3326,3345,3156,3294,3012,2974,3058,3079,3163,2886,3372,3367,3199,3268,2917,3275,3300,3023,0.010000846,1.649972008,1.65013959,0.349065840244,4500.0,0.351764827967,0.0020106988959,0.0,0.0,0.0,6000.0,-0.0026264959015,-0.000637783145066,0.0,0.0,0.349065840244,0.0265011657029,-0.00367842265405,0.32120642066,0.00401737261564,0.00401737261564,-0.00238397601061,0.00587088475004,153.042556763,153.042556763,0.811957240105,108.205665588,2042,2037,2544,2044,2044,2928,3422,3421,3238,3360,3083,3059,3158,3150,3240,2860,3410,3415,3251,3367,3138,3354,3384,3188
1508410430819402838,166,1508410430819067584,plot_matl,-0.300000011921,-500.0,-0.19629585743,0.00340416305698,0.103704147041,52.6222610474,0.349065840244,0.00269896280952,-0.00262891198508,-0.196298927069,0.000658377422951,0.000658377422951,-0.000588653201703,-0.00250727403909,0.267674297094,0.267674297094,0.0475429110229,-80.8678741455,2023,2050,2094,2022,2022,2743,3326,3345,3156,3294,3012,2974,3058,3079,3163,2886,3372,3366,3194,3271,2918,3275,3301,3023,0.009947706,1.659921343,1.651319196,0.349065840244,4500.0,0.351764827967,0.00169992737938,0.0,0.0,0.0,6000.0,-0.00261844159104,-0.00078406726243,0.0,0.0,0.349065840244,0.0265011657029,-0.00371289602481,0.321035802364,0.00349721987732,0.00349721987732,-0.00170009117573,0.00934064295143,153.396759033,153.396759033,1.03281545639,108.247383118,2021,2027,2543,2044,2044,2928,3422,3421,3238,3360,3083,3059,3158,3150,3240,2860,3411,3415,3253,3367,3137,3353,3385,3188
1508410430829624049,167,1508410430829109152,plot_matl,-0.300000011921,-500.0,-0.196307227015,0.00363421812654,0.103692770004,52.7300491333,0.349065840244,0.00269896280952,-0.00262891198508,-0.196298927069,0.000658377422951,0.000658377422951,-0.000588653201703,-0.00250727403909,0.267674297094,0.267674297094,0.0475429110229,-80.8678741455,2019,2057,2094,2022,2022,2742,3327,3345,3154,3293,3011,2973,3057,3078,3163,2886,3372,3366,3194,3271,2918,3275,3301,3023,0.010042731,1.669963412,1.677136077,0.349065840244,4500.0,0.351764827967,0.00343432486989,0.0,0.0,0.0,6000.0,-0.00262562022544,-0.000641285383608,0.0,0.0,0.349065840244,0.0265011657029,-0.00371289602481,0.321035802364,0.00349721987732,0.00349721987732,-0.00170009117573,0.00934064295143,153.396759033,153.396759033,1.03281545639,108.247383118,2027,2032,2543,2044,2044,2928,3423,3421,3239,3358,3084,3057,3160,3152,3240,2860,3411,3415,3253,3367,3137,3353,3385,3188
1508410430839555548,168,1508410430839082701,plot_matl,-0.300000011921,-500.0,-0.196305736899,0.00361040141433,0.103694267571,52.8064994812,0.349065840244,0.00269896280952,-0.00262891198508,-0.196298927069,0.000658377422951,0.000658377422951,-0.000588653201703,-0.00250727403909,0.267674297094,0.267674297094,0.0475429110229,-80.8678741455,2025,2058,2094,2022,2022,2742,3327,3345,3154,3293,3011,2973,3057,3078,3163,2883,3372,3369,3199,3269,2916,3276,3301,3021,0.00997422,1.679937357,1.67566896,0.349065840244,4500.0,0.351764827967,0.00372223486193,0.0,0.0,0.0,6000.0,-0.00261924881488,-0.000777678564191,0.0,0.0,0.349065840244,0.0265011657029,-0.00371289602481,0.321035802364,0.00349721987732,0.00349721987732,-0.00170009117573,0.00934064295143,153.396759033,153.396759033,1.03281545639,108.247383118,2027,2027,2543,2044,2044,2928,3423,3421,3239,3358,3084,3057,3160,3152,3240,2861,3410,3417,3253,3366,3138,3352,3384,3189
1508410430849518517,169,1508410430849060364,plot_matl,-0.300000011921,-500.0,-0.196299999952,-0.00247268914245,0.103700004518,51.2590751648,0.349065840244,0.00269896280952,-0.00262891198508,-0.196298927069,0.000658377422951,0.000658377422951,-0.000588653201703,-0.00250727403909,0.267674297094,0.267674297094,0.0475429110229,-80.8678741455,2028,2057,2094,2025,2025,2741,3328,3348,3155,3293,3010,2973,3057,3078,3163,2883,3372,3369,3199,3269,2916,3276,3301,3021,0.009974942,1.689914328,1.685765198,0.349065840244,4500.0,0.351764827967,0.00355049222708,0.0,0.0,0.0,6000.0,-0.0026262095198,-0.000637487159111,0.0,0.0,0.349065840244,0.0265011657029,-0.00371289602481,0.321035802364,0.00349721987732,0.00349721987732,-0.00170009117573,0.00934064295143,153.396759033,153.396759033,1.03281545639,108.247383118,2020,2021,2544,2048,2048,2926,3423,3422,3239,3360,3083,3059,3160,3152,3240,2861,3410,3417,3253,3366,3138,3352,3384,3189
1508410430859514577,170,1508410430859066467,plot_matl,-0.300000011921,-500.0,-0.196296274662,-0.00255092140287,0.103703729808,51.1608657837,0.349065840244,0.00269896280952,-0.00262810452841,-0.196310445666,0.00183221115731,0.00183221115731,-0.00059187435545,-0.00227817008272,0.211115151644,0.211115151644,0.165991917253,-81.0272979736,2024,2048,2094,2025,2025,2741,3328,3348,3155,3293,3010,2973,3059,3078,3164,2884,3373,3368,3195,3270,2916,3277,3301,3021,0.010007276,1.699920997,1.70123692,0.349065840244,4500.0,0.351764827967,0.00390700343996,0.0,0.0,0.0,6000.0,-0.00263198441826,-0.000521179405041,0.0,0.0,0.349065840244,0.0289103612304,-0.00369165185839,0.321207106113,0.025387743488,0.025387743488,-0.00214997166768,0.00595432799309,153.531311035,153.531311035,0.849003434181,108.336166382,2021,2017,2544,2048,2048,2926,3423,3422,3239,3360,3083,3059,3159,3152,3240,2861,3411,3417,3252,3366,3138,3353,3384,3189
1508410430869462899,171,1508410430869083975,plot_matl,-0.300000011921,-500.0,-0.19630356133,-0.00241313525476,0.10369643569,51.283870697,0.349065840244,0.00269896280952,-0.00262810452841,-0.196310445666,0.00183221115731,0.00183221115731,-0.00059187435545,-0.00227817008272,0.211115151644,0.211115151644,0.165991917253,-81.0272979736,2016,2060,2094,2023,2023,2743,3326,3345,3152,3293,3010,2973,3059,3078,3164,2884,3373,3368,3195,3270,2916,3277,3300,3022,0.010015659,1.709938105,1.712677689,0.349065840244,4500.0,0.351764827967,0.00322887091897,0.0,0.0,0.0,6000.0,-0.00263662543148,-0.000427705876064,0.0,0.0,0.349065840244,0.0289103612304,-0.00369165185839,0.321207106113,0.025387743488,0.025387743488,-0.00214997166768,0.00595432799309,153.531311035,153.531311035,0.849003434181,108.336166382,2028,2026,2544,2042,2042,2928,3422,3423,3239,3360,3083,3059,3159,3152,3240,2861,3411,3417,3252,3366,3138,3353,3386,3188
1508410430879481089,172,1508410430879061899,plot_matl,-0.300000011921,-500.0,-0.196314126253,-0.00220049102791,0.103685870767,51.3271522522,0.349065840244,0.00269896280952,-0.00262810452841,-0.196310445666,0.00183221115731,0.00183221115731,-0.00059187435545,-0.00227817008272,0.211115151644,0.211115151644,0.165991917253,-81.0272979736,2022,2070,2094,2023,2023,2743,3326,3345,3152,3293,3011,2975,3060,3077,3164,2886,3371,3367,3197,3268,2916,3277,3300,3022,0.009978345,1.719916219,1.71627534,0.349065840244,4500.0,0.351764827967,0.00310439825989,0.0,0.0,0.0,6000.0,-0.00264048436657,-0.000349985726643,0.0,0.0,0.349065840244,0.0289103612304,-0.00369165185839,0.321207106113,0.025387743488,0.025387743488,-0.00214997166768,0.00595432799309,153.531311035,153.531311035,0.849003434181,108.336166382,2031,2036,2544,2042,2042,2928,3422,3423,3239,3360,3082,3057,3159,3153,3241,2861,3408,3417,3250,3367,3138,3353,3386,3188
1508410430889598875,173,1508410430889074632,plot_matl,-0.300000011921,-500.0,-0.19631280005,0.00373946200125,0.10368719697,52.6687355042,0.349065840244,0.00269896280952,-0.00262810452841,-0.196310445666,0.00183221115731,0.00183221115731,-0.00059187435545,-0.00227817008272,0.211115151644,0.211115151644,0.165991917253,-81.0272979736,2031,2060,2094,2023,2023,2743,3326,3345,3152,3293,3011,2975,3060,3077,3164,2886,3371,3367,3197,3268,2916,3277,3303,3020,0.010013094,1.729928952,1.732265262,0.349065840244,4500.0,0.350415319204,-0.023696590215,0.0,0.0,0.0,6000.0,-0.00263122585602,-0.000522515620105,0.0,0.0,0.349065840244,0.0289103612304,-0.00369165185839,0.321207106113,0.025387743488,0.025387743488,-0.00214997166768,0.00595432799309,153.531311035,153.531311035,0.849003434181,108.336166382,2029,2032,2544,2046,2046,2928,3424,3422,3239,3360,3082,3057,3159,3153,3241,2861,3408,3417,3250,3367,3136,3353,3385,3189
1508410430899562792,174,1508410430899098760,plot_matl,-0.300000011921,-500.0,-0.196295872331,-0.00257374369539,0.10370413214,51.1863479614,0.349065840244,0.00269896280952,-0.00263395300135,-0.196294754744,0.00153367326129,0.00153367326129,-0.000481532013509,-0.0025876366999,0.0927328914404,0.0927328914404,-0.0417862124741,-81.1620788574,2027,2048,2094,2023,2023,2743,3326,3345,3154,3293,3010,2974,3060,3079,3165,2885,3373,3369,3197,3268,2916,3277,3303,3020,0.010022199,1.739952845,1.743862626,0.349065840244,4500.0,0.353114306927,0.0301091279835,0.0,0.0,0.0,6000.0,-0.00261299870908,-0.000925141677726,0.0,0.0,0.349065840244,0.0289103612304,-0.00366970337927,0.320996403694,0.0234981980175,0.0234981980175,-0.00257725873962,-0.051833383739,153.748077393,153.748077393,0.560587346554,108.514228821,2036,2030,2544,2046,2046,2928,3424,3422,3238,3361,3083,3059,3160,3152,3240,2861,3409,3415,3250,3367,3136,3353,3385,3189
1508410430909605999,175,1508410430909070751,plot_matl,-0.300000011921,-500.0,-0.196297585964,-0.00253807613626,0.103702418506,51.2104721069,0.349065840244,0.00269896280952,-0.00263395300135,-0.196294754744,0.00153367326129,0.00153367326129,-0.000481532013509,-0.0025876366999,0.0927328914404,0.0927328914404,-0.0417862124741,-81.1620788574,2010,2049,2094,2021,2021,2743,3326,3345,3154,3293,3010,2974,3060,3079,3165,2885,3373,3369,3198,3269,2914,3277,3301,3021,0.009973193,1.749925106,1.745308775,0.349065840244,4500.0,0.351764827967,0.00332237081602,0.0,0.0,0.0,6000.0,-0.0026211310178,-0.000757442088798,0.0,0.0,0.349065840244,0.0289103612304,-0.00366970337927,0.320996403694,0.0234981980175,0.0234981980175,-0.00257725873962,-0.051833383739,153.748077393,153.748077393,0.560587346554,108.514228821,2027,2027,2542,2047,2047,2928,3424,3422,3238,3361,3083,3059,3160,3152,3240,2861,3409,3415,3254,3367,3138,3353,3387,3189
