%time,field.header.seq,field.header.stamp,field.header.frame_id,field.FFJ4_set_point,field.FFJ4_position_gain,field.FFJ4_process_value,field.FFJ4_process_value_dot,field.FFJ4_error,field.FFJ4_command,field.FFJ1,field.FFJ2,field.FFJ3,field.FFJ4,field.FFJ1_dot,field.FFJ2_dot,field.FFJ3_dot,field.FFJ4_dot,field.FFJ1_tao,field.FFJ2_tao,field.FFJ3_tao,field.FFJ4_tao,field.pac0,field.pac1,field.pdc0,field.tac0,field.tdc0,field.el0,field.el1,field.el2,field.el3,field.el4,field.el5,field.el6,field.el7,field.el8,field.el9,field.el10,field.el11,field.el12,field.el13,field.el14,field.el15,field.el16,field.el17,field.el18,field.dt,field.time,field.test_time2,field.FFJ0_set_point,field.FFJ0_position_gain,field.FFJ0_process_value,field.FFJ0_process_value_dot,field.FFJ0_error,field.FFJ0_command,field.FFJ3_set_point,field.FFJ3_position_gain,field.FFJ3_process_value,field.FFJ3_process_value_dot,field.FFJ3_error,field.FFJ3_command,field.MFJ1,field.MFJ2,field.MFJ3,field.MFJ4,field.MFJ1_dot,field.MFJ2_dot,field.MFJ3_dot,field.MFJ4_dot,field.MFJ1_tao,field.MFJ2_tao,field.MFJ3_tao,field.MFJ4_tao,field.Mpac0,field.Mpac1,field.Mpdc0,field.Mtac0,field.Mtdc0,field.Mel0,field.Mel1,field.Mel2,field.Mel3,field.Mel4,field.Mel5,field.Mel6,field.Mel7,field.Mel8,field.Mel9,field.Mel10,field.Mel11,field.Mel12,field.Mel13,field.Mel14,field.Mel15,field.Mel16,field.Mel17,field.Mel18
1508410670255502645,160,1508410670254901993,plot_matl,0.25,-3000.0,0.215771123767,0.00107940065209,-0.0342288799584,-102.452140808,0.349065840244,-0.00674740690738,-0.000719999428838,0.215894475579,0.00300710601732,0.00300710601732,0.00107415264938,-0.00140638661105,-0.31846126914,-0.31846126914,-0.263322234154,89.9747772217,2022,2045,2091,2025,2025,2745,3333,3354,3166,3303,3022,2985,3069,3091,3175,2899,3383,3379,3210,3283,2932,3288,3314,3034,0.009940008,1.600008221,1.59040128,0.349065840244,4500.0,0.342318445444,0.00447451137006,-0.00674740690738,30.3633308411,0.0,6000.0,-0.000743221258745,0.00156640086789,0.0,0.0,0.349065840244,0.0216827709228,-0.000278768973658,0.326026916504,-0.0147508243099,-0.0147508243099,0.00503085693344,-0.0291941799223,159.068267822,159.068267822,0.645520865917,107.817848206,2032,2029,2539,2024,2024,2940,3435,3437,3254,3374,3104,3065,3168,3159,3250,2864,3419,3425,3261,3379,3149,3364,3398,3202
1508410670265300465,161,1508410670264890872,plot_matl,0.25,-3000.0,0.215780049562,0.000883456319571,-0.0342199541628,-102.464172363,0.349065840244,-0.00674740690738,-0.000719999428838,0.215894475579,0.00300710601732,0.00300710601732,0.00107415264938,-0.00140638661105,-0.31846126914,-0.31846126914,-0.263322234154,89.9747772217,2014,2059,2091,2024,2024,2745,3333,3354,3166,3303,3022,2985,3069,3091,3175,2899,3382,3378,3208,3281,2932,3285,3313,3035,0.009988052,1.60999686,1.608076372,0.349065840244,4500.0,0.343667924404,0.0309391766787,-0.00539792561904,24.2906646729,0.0,6000.0,-0.000728924642317,0.00128205120564,0.0,0.0,0.349065840244,0.0216827709228,-0.000278768973658,0.326026916504,-0.0147508243099,-0.0147508243099,0.00503085693344,-0.0291941799223,159.068267822,159.068267822,0.645520865917,107.817848206,2029,2037,2539,2025,2025,2940,3435,3437,3254,3374,3104,3065,3168,3159,3250,2864,3417,3424,3257,3375,3148,3364,3397,3200
1508410670275525524,162,1508410670274892239,plot_matl,0.25,-3000.0,0.215820163488,3.06430047203e-05,-0.0341798327863,-102.538970947,0.349065840244,-0.00674740690738,-0.000719999428838,0.215894475579,0.00300710601732,0.00300710601732,0.00107415264938,-0.00140638661105,-0.31846126914,-0.31846126914,-0.263322234154,89.9747772217,2016,2049,2091,2024,2024,2745,3335,3355,3162,3303,3023,2984,3069,3090,3175,2899,3382,3378,3208,3281,2932,3285,3313,3035,0.010001176,1.619998427,1.620190512,0.349065840244,4500.0,0.342318445444,0.00502910511568,-0.00674740690738,30.3633308411,0.0,6000.0,-0.000753042870201,0.00178000878077,0.0,0.0,0.349065840244,0.0216827709228,-0.000278768973658,0.326026916504,-0.0147508243099,-0.0147508243099,0.00503085693344,-0.0291941799223,159.068267822,159.068267822,0.645520865917,107.817848206,2027,2031,2539,2025,2025,2942,3433,3434,3253,3373,3104,3066,3167,3160,3250,2864,3417,3424,3257,3375,3148,3364,3397,3200
1508410670285302179,163,1508410670284879619,plot_matl,0.25,-3000.0,0.215852558613,-0.000609054870438,-0.0341474451125,-102.599273682,0.349065840244,-0.00809688866138,-0.000744778895751,0.215820163488,-0.0115183601156,-0.0115183601156,0.00161260727327,3.2512441976e-05,-0.357677131891,-0.357677131891,0.060857731849,90.153717041,2026,2050,2091,2024,2024,2745,3335,3355,3162,3303,3023,2984,3069,3090,3173,2898,3384,3377,3207,3282,2931,3285,3312,3034,0.009986077,1.629985061,1.627730551,0.349065840244,4500.0,0.342318445444,0.00507810013369,-0.00674740690738,30.3633308411,0.0,6000.0,-0.000785723561421,0.00244773598388,0.0,0.0,0.349065840244,0.0216827709228,-0.000293966906611,0.326110780239,-0.013895817101,-0.013895817101,-0.00965452287346,-0.0309037305415,159.399108887,159.399108887,0.403071165085,107.850517273,2026,2022,2539,2025,2025,2942,3433,3434,3253,3373,3104,3066,3167,3160,3251,2864,3418,3423,3257,3374,3146,3361,3396,3202
1508410670295269436,164,1508410670294915730,plot_matl,0.25,-3000.0,0.215919017792,-0.00187610811554,-0.0340809747577,-102.701332092,0.349065840244,-0.00809688866138,-0.000744778895751,0.215820163488,-0.0115183601156,-0.0115183601156,0.00161260727327,3.2512441976e-05,-0.357677131891,-0.357677131891,0.060857731849,90.153717041,2027,2044,2092,2025,2025,2743,3333,3353,3165,3303,3023,2987,3069,3090,3173,2898,3384,3377,3207,3282,2931,3285,3312,3034,0.010038061,1.640022051,1.646242004,0.349065840244,4500.0,0.340968966484,-0.0210513323545,-0.00809688866138,36.4359970093,0.0,6000.0,-0.000775335007347,0.00224761827849,0.0,0.0,0.349065840244,0.0216827709228,-0.000293966906611,0.326110780239,-0.013895817101,-0.013895817101,-0.00965452287346,-0.0309037305415,159.399108887,159.399108887,0.403071165085,107.850517273,2025,2022,2540,2023,2023,2941,3435,3434,3253,3373,3102,3067,3167,3160,3251,2864,3418,3423,3257,3374,3146,3361,3396,3202
1508410670305287968,165,1508410670304900594,plot_matl,0.25,-3000.0,0.215901166201,-0.00153670168947,-0.0340988375247,-102.687477112,0.349065840244,-0.00809688866138,-0.000744778895751,0.215820163488,-0.0115183601156,-0.0115183601156,0.00161260727327,3.2512441976e-05,-0.357677131891,-0.357677131891,0.060857731849,90.153717041,2027,2044,2092,2025,2025,2743,3333,3353,3165,3303,3023,2987,3069,3090,3173,2898,3384,3377,3207,3282,2931,3285,3312,3034,0.00998353,1.650006778,1.64728245,0.349065840244,4500.0,0.340968966484,-0.0212200637907,-0.00809688866138,36.4359970093,0.0,6000.0,-0.000768396712374,-0.0113166803494,0.0,0.0,0.349065840244,0.0216827709228,-0.000293966906611,0.326110780239,-0.013895817101,-0.013895817101,-0.00965452287346,-0.0309037305415,159.399108887,159.399108887,0.403071165085,107.850517273,2025,2022,2540,2023,2023,2941,3435,3434,3253,3373,3102,3067,3167,3160,3251,2864,3418,3423,3257,3374,3146,3361,3396,3202
1508410670315247840,166,1508410670314900267,plot_matl,0.25,-3000.0,0.215886488557,-0.00125791726168,-0.0341135114431,-102.662185669,0.349065840244,-0.00809688866138,-0.000744778895751,0.215820163488,-0.0115183601156,-0.0115183601156,0.00161260727327,3.2512441976e-05,-0.357677131891,-0.357677131891,0.060857731849,90.153717041,2025,2048,2091,2023,2023,2743,3334,3354,3163,3303,3023,2987,3069,3090,3173,2898,3379,3378,3207,3282,2931,3288,3314,3037,0.009999023,1.660006611,1.659837818,0.349065840244,4500.0,0.342318445444,0.00594687229022,-0.00674740690738,30.3633308411,0.0,6000.0,-0.000749541795813,0.00172571022995,0.0,0.0,0.349065840244,0.0216827709228,-0.000293966906611,0.326110780239,-0.013895817101,-0.013895817101,-0.00965452287346,-0.0309037305415,159.399108887,159.399108887,0.403071165085,107.850517273,2029,2030,2539,2025,2025,2941,3434,3434,3254,3371,3102,3067,3168,3161,3249,2863,3415,3422,3259,3378,3147,3363,3396,3200
1508410670325418672,167,1508410670324923905,plot_matl,0.25,-3000.0,0.215841397643,-0.000362022605259,-0.0341586060822,-102.580230713,0.349065840244,-0.00674740690738,-0.000754793582018,0.215890571475,0.00288258073851,0.00288258073851,0.00183223944623,-0.00133556930814,-0.174951046705,-0.174951046705,-0.0206964667886,90.2476654053,2030,2061,2091,2023,2023,2743,3334,3354,3163,3303,3024,2984,3069,3089,3175,2898,3381,3377,3207,3280,2931,3288,3314,3037,0.01002318,1.670029933,1.67387106,0.349065840244,4500.0,0.342318445444,0.00582696869969,-0.00674740690738,30.3633308411,0.0,6000.0,-0.000746194680687,0.00165876105893,0.0,0.0,0.349065840244,0.0216827709228,-0.000315486773616,0.325777351856,-0.0138288578019,-0.0138288578019,0.00630878796801,-0.0240901801735,159.615005493,159.615005493,-0.125199064612,107.718780518,2017,2015,2539,2025,2025,2941,3434,3434,3254,3371,3102,3065,3168,3160,3249,2863,3414,3422,3256,3375,3147,3363,3396,3200
1508410670335291232,168,1508410670334880792,plot_matl,0.25,-3000.0,0.215937331319,0.0355924703181,-0.0340626686811,-93.6572799683,0.349065840244,-0.00674740690738,-0.000754793582018,0.215890571475,0.00288258073851,0.00288258073851,0.00183223944623,-0.00133556930814,-0.174951046705,-0.174951046705,-0.0206964667886,90.2476654053,2012,2039,2091,2025,2025,2744,3333,3354,3163,3303,3024,2984,3069,3089,3175,2898,3381,3377,3207,3280,2928,3286,3314,3033,0.009955384,1.679986119,1.672504512,0.349065840244,4500.0,0.342318445444,0.00577218085527,-0.00674740690738,30.3633308411,0.0,6000.0,-0.000731405219994,0.00135859719012,0.0,0.0,0.349065840244,0.0216827709228,-0.000315486773616,0.325777351856,-0.0138288578019,-0.0138288578019,0.00630878796801,-0.0240901801735,159.615005493,159.615005493,-0.125199064612,107.718780518,2030,2025,2539,2024,2024,2942,3436,3432,3254,3371,3102,3065,3168,3160,3249,2863,3414,3422,3256,3375,3144,3361,3394,3202
1508410670345281388,169,1508410670344924785,plot_matl,0.25,-3000.0,0.215882435441,-0.00121796061285,-0.034117564559,-102.653709412,0.349065840244,-0.00674740690738,-0.000754793582018,0.215890571475,0.00288258073851,0.00288258073851,0.00183223944623,-0.00133556930814,-0.174951046705,-0.174951046705,-0.0206964667886,90.2476654053,2021,2054,2091,2025,2025,2744,3333,3354,3165,3305,3024,2986,3068,3090,3175,2900,3382,3377,3207,3280,2928,3286,3314,3033,0.010044549,1.690030642,1.697528781,0.349065840244,4500.0,0.342318445444,0.00615379447117,-0.00674740690738,30.3633308411,0.0,6000.0,-0.000731493812054,0.00135786260944,0.0,0.0,0.349065840244,0.0216827709228,-0.000315486773616,0.325777351856,-0.0138288578019,-0.0138288578019,0.00630878796801,-0.0240901801735,159.615005493,159.615005493,-0.125199064612,107.718780518,2023,2024,2539,2024,2024,2942,3436,3432,3254,3373,3103,3066,3167,3160,3250,2862,3417,3424,3256,3375,3144,3361,3394,3202
1508410670355222800,170,1508410670354881120,plot_matl,0.25,-3000.0,0.215871170163,-0.000997239141725,-0.0341288298368,-102.631759644,0.349065840244,-0.00674740690738,-0.000754793582018,0.215890571475,0.00288258073851,0.00288258073851,0.00183223944623,-0.00133556930814,-0.174951046705,-0.174951046705,-0.0206964667886,90.2476654053,2010,2033,2092,2027,2027,2743,3333,3354,3165,3305,3024,2986,3068,3090,3175,2900,3382,3377,3208,3280,2929,3286,3313,3035,0.009955759,1.699986837,1.69247903,0.349065840244,4500.0,0.340968966484,-0.0212178919464,-0.00809688866138,36.4359970093,0.0,6000.0,-0.000743874232285,0.00160641595721,0.0,0.0,0.349065840244,0.0216827709228,-0.000315486773616,0.325777351856,-0.0138288578019,-0.0138288578019,0.00630878796801,-0.0240901801735,159.615005493,159.615005493,-0.125199064612,107.718780518,2035,2032,2539,2025,2025,2941,3436,3432,3254,3373,3103,3066,3167,3160,3250,2862,3417,3424,3258,3375,3147,3362,3396,3201
1508410670365504417,171,1508410670364953387,plot_matl,0.25,-3000.0,0.215827718377,-0.000110882647277,-0.0341722890735,-102.55393219,0.349065840244,-0.00809688866138,-0.000748725957237,0.215874284506,-0.0104352328926,-0.0104352328926,0.00170456478372,-0.00105816847645,-0.164680466056,-0.164680466056,-0.477849930525,90.052444458,2033,2071,2092,2027,2027,2743,3334,3355,3164,3303,3024,2984,3067,3090,3176,2899,3382,3377,3208,3280,2929,3286,3313,3035,0.010074016,1.710059896,1.722656736,0.349065840244,4500.0,0.342318445444,0.0067948801443,-0.00674740690738,30.3633308411,0.0,6000.0,-0.00076654239092,-0.0113605847582,0.0,0.0,0.349065840244,0.0216827709228,-0.000346026092302,0.32595962286,-0.0163412466645,-0.0163412466645,-0.00838345196098,0.0339132286608,159.505279541,159.505279541,-0.000873620097991,107.420173645,2025,2022,2539,2025,2025,2941,3432,3433,3254,3375,3102,3067,3168,3158,3249,2864,3417,3424,3258,3375,3147,3362,3396,3201
1508410670375075407,172,1508410670374874825,plot_matl,0.25,-3000.0,0.21582634747,-0.000106607774796,-0.034173656255,-102.552330017,0.349065840244,-0.00809688866138,-0.000748725957237,0.215874284506,-0.0104352328926,-0.0104352328926,0.00170456478372,-0.00105816847645,-0.164680466056,-0.164680466056,-0.477849930525,90.052444458,2024,2048,2091,2027,2027,2743,3334,3355,3164,3303,3024,2984,3067,3090,3176,2899,3382,3377,3208,3281,2929,3286,3312,3034,0.009917391,1.719979702,1.705791252,0.349065840244,4500.0,0.342318445444,0.00758363492787,-0.00674740690738,30.3633308411,0.0,6000.0,-0.000760148977861,0.00192827568389,0.0,0.0,0.349065840244,0.0216827709228,-0.000346026092302,0.32595962286,-0.0163412466645,-0.0163412466645,-0.00838345196098,0.0339132286608,159.505279541,159.505279541,-0.000873620097991,107.420173645,2040,2035,2539,2025,2025,2941,3432,3433,3254,3375,3102,3067,3168,3158,3249,2864,3417,3422,3258,3375,3144,3362,3398,3200
1508410670385178711,173,1508410670384884679,plot_matl,0.25,-3000.0,0.215893268585,-0.00148843927309,-0.0341067276895,-102.688346863,0.349065840244,-0.00809688866138,-0.000748725957237,0.215874284506,-0.0104352328926,-0.0104352328926,0.00170456478372,-0.00105816847645,-0.164680466056,-0.164680466056,-0.477849930525,90.052444458,2019,2049,2091,2027,2027,2744,3332,3354,3165,3301,3025,2984,3070,3088,3176,2899,3382,3377,3208,3281,2929,3286,3312,3034,0.010012032,1.729990793,1.732081536,0.349065840244,4500.0,0.342318445444,0.00765319028869,-0.00674740690738,30.3633308411,0.0,6000.0,-0.00074283889262,0.0015794315841,0.0,0.0,0.349065840244,0.0216827709228,-0.000346026092302,0.32595962286,-0.0163412466645,-0.0163412466645,-0.00838345196098,0.0339132286608,159.505279541,159.505279541,-0.000873620097991,107.420173645,2027,2027,2539,2025,2025,2940,3433,3435,3253,3373,3102,3067,3168,3159,3249,2864,3417,3422,3258,3375,3144,3362,3398,3200
1508410670395148674,174,1508410670394895839,plot_matl,0.25,-3000.0,0.215920224786,0.0358806587756,-0.0340797714889,-93.5738143921,0.349065840244,-0.00809688866138,-0.000748725957237,0.215874284506,-0.0104352328926,-0.0104352328926,0.00170456478372,-0.00105816847645,-0.164680466056,-0.164680466056,-0.477849930525,90.052444458,2025,2055,2091,2027,2027,2744,3332,3354,3165,3301,3025,2984,3070,3088,3173,2899,3380,3377,3210,3281,2929,3287,3310,3034,0.010010593,1.740002067,1.741843182,0.349065840244,4500.0,0.342318445444,0.00716854212806,-0.00674740690738,30.3633308411,0.0,6000.0,-0.000741818570532,0.00155767519027,0.0,0.0,0.349065840244,0.0216827709228,-0.000346026092302,0.32595962286,-0.0163412466645,-0.0163412466645,-0.00838345196098,0.0339132286608,159.505279541,159.505279541,-0.000873620097991,107.420173645,2024,2025,2539,2025,2025,2940,3433,3435,3253,3373,3102,3067,3168,3159,3250,2862,3417,3423,3257,3375,3147,3361,3396,3201
1508410670405363879,175,1508410670404931137,plot_matl,0.25,-3000.0,0.215899482369,-0.0394814237952,-0.0341005176306,-111.144706726,0.349065840244,-0.00674740690738,-0.000732670945581,0.215847283602,0.00380789022893,0.00380789022893,0.00137452082708,-0.000566250470001,0.0476701594889,0.0476701594889,-0.590010523796,90.1750946045,2030,2062,2091,2027,2027,2743,3335,3354,3165,3303,3025,2985,3070,3088,3173,2899,3380,3377,3210,3281,2929,3287,3310,3034,0.010034406,1.750036997,1.75602105,0.349065840244,4500.0,0.342318445444,0.00677503738552,-0.00674740690738,30.3633308411,0.0,6000.0,-0.000750572187826,0.00174913567025,0.0,0.0,0.349065840244,0.0216827709228,-0.000297306251014,0.325814187527,-0.0140898376703,-0.0140898376703,0.00598679715768,0.0366369895637,159.56439209,159.56439209,-0.433406591415,107.388961792,2015,2013,2539,2025,2025,2941,3435,3432,3254,3373,3104,3065,3168,3159,3250,2862,3417,3423,3257,3375,3147,3361,3396,3201
1508410670415266387,176,1508410670414922451,plot_matl,0.25,-3000.0,0.215899482369,-0.0394814237952,-0.0341005176306,-111.144706726,0.349065840244,-0.00674740690738,-0.000732670945581,0.215847283602,0.00380789022893,0.00380789022893,0.00137452082708,-0.000566250470001,0.0476701594889,0.0476701594889,-0.590010523796,90.1750946045,2030,2062,2091,2027,2027,2743,3335,3354,3165,3303,3025,2985,3070,3088,3173,2899,3380,3377,3210,3281,2929,3287,3310,3034,0.009990891,1.760028098,1.758396816,0.349065840244,4500.0,0.340968966484,-0.0202011689544,-0.00809688866138,36.4359970093,0.0,6000.0,-0.000760479830205,-0.0114779928699,0.0,0.0,0.349065840244,0.0216827709228,-0.000297306251014,0.325814187527,-0.0140898376703,-0.0140898376703,0.00598679715768,0.0366369895637,159.56439209,159.56439209,-0.433406591415,107.388961792,2015,2013,2539,2025,2025,2941,3435,3432,3254,3373,3104,3065,3168,3159,3250,2862,3417,3423,3257,3375,3147,3361,3396,3201
1508410670425212187,177,1508410670424918452,plot_matl,0.25,-3000.0,0.215919166803,-0.00197495752946,-0.0340808331966,-102.734466553,0.349065840244,-0.00674740690738,-0.000732670945581,0.215847283602,0.00380789022893,0.00380789022893,0.00137452082708,-0.000566250470001,0.0476701594889,0.0476701594889,-0.590010523796,90.1750946045,2027,2055,2091,2025,2025,2743,3335,3356,3162,3303,3025,2985,3070,3092,3174,2899,3382,3377,3209,3280,2929,3285,3314,3034,0.009995955,1.770024209,1.769284035,0.349065840244,4500.0,0.340968966484,-0.0202011689544,-0.00809688866138,36.4359970093,0.0,6000.0,-0.000760479830205,-0.0114779928699,0.0,0.0,0.349065840244,0.0216827709228,-0.000297306251014,0.325814187527,-0.0140898376703,-0.0140898376703,0.00598679715768,0.0366369895637,159.56439209,159.56439209,-0.433406591415,107.388961792,2024,2019,2540,2028,2028,2940,3435,3436,3254,3374,3104,3065,3167,3160,3250,2865,3415,3424,3257,3374,3147,3362,3397,3199
1508410670435118125,178,1508410670434878109,plot_matl,0.25,-3000.0,0.215841725469,-0.00042976057739,-0.0341582745314,-102.57699585,0.349065840244,-0.00674740690738,-0.000732670945581,0.215847283602,0.00380789022893,0.00380789022893,0.00137452082708,-0.000566250470001,0.0476701594889,0.0476701594889,-0.590010523796,90.1750946045,2028,2055,2091,2025,2025,2743,3335,3356,3162,3303,3024,2983,3069,3088,3173,2900,3379,3375,3207,3279,2929,3285,3314,3034,0.009959617,1.779984277,1.772811826,0.349065840244,4500.0,0.343667924404,0.0332423858345,-0.00539792561904,24.2906646729,0.0,6000.0,-0.000748994876631,0.00171009567566,0.0,0.0,0.349065840244,0.0216827709228,-0.000297306251014,0.325814187527,-0.0140898376703,-0.0140898376703,0.00598679715768,0.0366369895637,159.56439209,159.56439209,-0.433406591415,107.388961792,2032,2030,2540,2028,2028,2940,3435,3436,3254,3374,3103,3065,3169,3159,3249,2864,3414,3422,3258,3376,3147,3362,3397,3199
1508410670445202854,179,1508410670444908101,plot_matl,0.25,-3000.0,0.215906411409,0.0361814685166,-0.0340935848653,-93.6168670654,0.349065840244,-0.00674740690738,-0.000750859850086,0.215872362256,0.00360658974387,0.00360658974387,0.00174732017331,-0.00104098103475,-0.0488055236638,-0.0488055236638,-0.312897950411,90.1316146851,2008,2049,2091,2023,2023,2743,3333,3353,3162,3303,3024,2983,3069,3088,3173,2900,3379,3375,3207,3279,2930,3284,3313,3034,0.010038886,1.790023931,1.796960594,0.349065840244,4500.0,0.342318445444,0.00679324334487,-0.00674740690738,30.3633308411,0.0,6000.0,-0.000745830184314,0.0016455949517,0.0,0.0,0.349065840244,0.0216827709228,-0.000207871053135,0.325750529766,-0.0138411996886,-0.0138411996886,-0.01117390953,-0.0238162521273,159.670150757,159.670150757,-0.616752028465,107.81452179,2030,2037,2539,2029,2029,2940,3432,3433,3254,3374,3103,3065,3169,3159,3249,2864,3414,3422,3258,3376,3148,3362,3397,3201
1508410670455240448,180,1508410670454919115,plot_matl,0.25,-3000.0,0.215894788504,-0.0014689686941,-0.0341052152216,-102.67578125,0.349065840244,-0.00674740690738,-0.000750859850086,0.215872362256,0.00360658974387,0.00360658974387,0.00174732017331,-0.00104098103475,-0.0488055236638,-0.0488055236638,-0.312897950411,90.1316146851,2006,2047,2091,2023,2023,2743,3333,3353,3166,3303,3023,2983,3069,3090,3172,2899,3380,3376,3207,3279,2930,3284,3313,3034,0.01001101,1.800025043,1.8019818,0.349065840244,4500.0,0.343667924404,0.0337140224874,-0.00539792561904,24.2906646729,0.0,6000.0,-0.000755034852773,0.00183204864152,0.0,0.0,0.349065840244,0.0216827709228,-0.000207871053135,0.325750529766,-0.0138411996886,-0.0138411996886,-0.01117390953,-0.0238162521273,159.670150757,159.670150757,-0.616752028465,107.81452179,2030,2030,2539,2029,2029,2940,3432,3433,3252,3375,3102,3066,3168,3158,3250,2864,3415,3424,3258,3376,3148,3362,3397,3201
1508410670465540577,181,1508410670464954549,plot_matl,0.25,-3000.0,0.215879142284,-0.00112729542889,-0.0341208539903,-102.629516602,0.349065840244,-0.00674740690738,-0.000750859850086,0.215872362256,0.00360658974387,0.00360658974387,0.00174732017331,-0.00104098103475,-0.0488055236638,-0.0488055236638,-0.312897950411,90.1316146851,2033,2052,2091,2024,2024,2743,3333,3353,3166,3303,3023,2983,3069,3090,3172,2899,3380,3376,3208,3281,2929,3284,3311,3036,0.010026731,1.810060913,1.814838311,0.349065840244,4500.0,0.342318445444,0.00729938736185,-0.00674740690738,30.3633308411,0.0,6000.0,-0.000749712286051,0.00173005601391,0.0,0.0,0.349065840244,0.0216827709228,-0.000207871053135,0.325750529766,-0.0138411996886,-0.0138411996886,-0.01117390953,-0.0238162521273,159.670150757,159.670150757,-0.616752028465,107.81452179,2042,2028,2539,2024,2024,2941,3432,3433,3252,3375,3102,3066,3168,3158,3250,2864,3415,3424,3256,3375,3145,3361,3397,3201
1508410670475306060,182,1508410670474890843,plot_matl,0.25,-3000.0,0.21590270102,-0.00160220591351,-0.0340972952545,-102.699928284,0.349065840244,-0.00674740690738,-0.000750859850086,0.215872362256,0.00360658974387,0.00360658974387,0.00174732017331,-0.00104098103475,-0.0488055236638,-0.0488055236638,-0.312897950411,90.1316146851,2025,2061,2091,2024,2024,2743,3334,3354,3164,3303,3022,2984,3069,3087,3172,2900,3380,3376,3208,3281,2929,3284,3311,3036,0.009935563,1.819997383,1.808272466,0.349065840244,4500.0,0.343667924404,0.032717846334,-0.00539792561904,24.2906646729,0.0,6000.0,-0.00078185251914,0.00237023341469,0.0,0.0,0.349065840244,0.0216827709228,-0.000207871053135,0.325750529766,-0.0138411996886,-0.0138411996886,-0.01117390953,-0.0238162521273,159.670150757,159.670150757,-0.616752028465,107.81452179,2029,2029,2539,2024,2024,2941,3432,3435,3253,3374,3103,3065,3168,3159,3250,2863,3415,3424,3256,3375,3145,3361,3397,3201
1508410670485261182,183,1508410670484883942,plot_matl,0.25,-3000.0,0.215889066458,-0.00135435815901,-0.0341109335423,-102.674049377,0.349065840244,-0.00674740690738,-0.000779020774644,0.215854585171,0.00263040093705,0.00263040093705,0.0023161706049,-0.000646924600005,0.150261297822,0.150261297822,-0.00626137899235,89.8535079956,2015,2048,2091,2023,2023,2743,3334,3354,3164,3303,3022,2984,3069,3087,3172,2900,3381,3376,3209,3280,2930,3286,3313,3034,0.009990849,1.829989649,1.828325367,0.349065840244,4500.0,0.342318445444,0.00549537083134,-0.00674740690738,30.3633308411,0.0,6000.0,-0.000772472587414,0.00218377378769,0.0,0.0,0.349065840244,0.0216827709228,-0.000269458279945,0.325807750225,-0.0159275941551,-0.0159275941551,-0.00988868344575,-0.0249320343137,159.703353882,159.703353882,-0.257998108864,107.906341553,2041,2037,2540,2024,2024,2941,3432,3435,3253,3374,3103,3065,3168,3159,3250,2863,3416,3422,3259,3375,3146,3361,3397,3202
1508410670495555949,184,1508410670494967966,plot_matl,0.25,-3000.0,0.215877458453,-0.00117698393296,-0.0341225378215,-102.63306427,0.349065840244,-0.00674740690738,-0.000783533032518,0.215846285224,0.00342034152709,0.00342034152709,0.00241133570671,-0.00050902494695,0.19945538044,0.19945538044,-0.027567807585,89.7213973999,2041,2081,2091,2023,2023,2743,3334,3355,3161,3305,3025,2985,3069,3090,3172,2900,3381,3376,3209,3280,2930,3286,3313,3034,0.010085678,1.840074099,1.855764752,0.349065840244,4500.0,0.340968966484,-0.0202758312225,-0.00809688866138,36.4359970093,0.0,6000.0,-0.000789966608863,0.0025333231315,0.0,0.0,0.349065840244,0.0216827709228,-0.000263758993242,0.325862139463,-0.0152042619884,-0.0152042619884,0.00533431768417,0.035771548748,159.648727417,159.648727417,-0.346024274826,108.003334045,2019,2022,2540,2024,2024,2940,3432,3433,3253,3374,3103,3066,3168,3161,3250,2863,3416,3422,3259,3375,3146,3361,3397,3202
1508410670505421734,185,1508410670504918769,plot_matl,0.25,-3000.0,0.215938940644,-0.00239880895242,-0.0340610556304,-102.768959045,0.349065840244,-0.00674740690738,-0.000783533032518,0.215846285224,0.00342034152709,0.00342034152709,0.00241133570671,-0.00050902494695,0.19945538044,0.19945538044,-0.027567807585,89.7213973999,2041,2081,2091,2023,2023,2743,3334,3355,3161,3305,3025,2985,3069,3090,3172,2900,3381,3376,3209,3280,2930,3286,3313,3034,0.009949088,1.850024576,1.84058128,0.349065840244,4500.0,0.340968966484,-0.0210361015052,-0.00809688866138,36.4359970093,0.0,6000.0,-0.000767132849433,0.00207240949385,0.0,0.0,0.349065840244,0.0216827709228,-0.000263758993242,0.325862139463,-0.0152042619884,-0.0152042619884,0.00533431768417,0.035771548748,159.648727417,159.648727417,-0.346024274826,108.003334045,2019,2022,2540,2024,2024,2940,3432,3433,3253,3374,3103,3066,3168,3161,3250,2863,3416,3422,3259,3375,3146,3361,3397,3202
1508410670515493791,186,1508410670514925352,plot_matl,0.25,-3000.0,0.215938940644,-0.00239880895242,-0.0340610556304,-102.768959045,0.349065840244,-0.00674740690738,-0.000783533032518,0.215846285224,0.00342034152709,0.00342034152709,0.00241133570671,-0.00050902494695,0.19945538044,0.19945538044,-0.027567807585,89.7213973999,2028,2056,2091,2023,2023,2743,3334,3355,3161,3305,3025,2985,3069,3090,3176,2899,3381,3377,3207,3280,2929,3286,3313,3035,0.010007375,1.860031706,1.86137175,0.349065840244,4500.0,0.340968966484,-0.0210361015052,-0.00809688866138,36.4359970093,0.0,6000.0,-0.000767132849433,0.00207240949385,0.0,0.0,0.349065840244,0.0216827709228,-0.000263758993242,0.325862139463,-0.0152042619884,-0.0152042619884,0.00533431768417,0.035771548748,159.648727417,159.648727417,-0.346024274826,108.003334045,2026,2019,2540,2024,2024,2940,3432,3433,3253,3374,3103,3066,3168,3161,3247,2863,3415,3425,3259,3376,3147,3362,3396,3202
1508410670525226073,187,1508410670524907731,plot_matl,0.25,-3000.0,0.215967565775,-0.00298417941667,-0.0340324416757,-102.79119873,0.349065840244,-0.00674740690738,-0.000783533032518,0.215846285224,0.00342034152709,0.00342034152709,0.00241133570671,-0.00050902494695,0.19945538044,0.19945538044,-0.027567807585,89.7213973999,2025,2052,2091,2025,2025,2754,3343,3366,3170,3311,3031,2992,3069,3090,3176,2899,3381,3377,3207,3280,2929,3286,3313,3035,0.009980304,1.870013554,1.866316848,0.349065840244,4500.0,0.342318445444,0.00652802735567,-0.00674740690738,30.3633308411,0.0,6000.0,-0.000749546976294,0.00171804160345,0.0,0.0,0.349065840244,0.0216827709228,-0.000263758993242,0.325862139463,-0.0152042619884,-0.0152042619884,0.00533431768417,0.035771548748,159.648727417,159.648727417,-0.346024274826,108.003334045,2039,2026,2540,2019,2019,2951,3445,3442,3263,3380,3111,3073,3168,3161,3247,2863,3415,3425,3259,3376,3147,3362,3396,3202
1508410670535312693,188,1508410670534912662,plot_matl,0.25,-3000.0,0.21593773365,-0.0402721203864,-0.0340622700751,-111.582023621,0.349065840244,-0.00674740690738,-0.000749546976294,0.215967565775,0.00326401367784,0.00326401367784,0.00171804160345,-0.00298417941667,0.255655437708,0.255655437708,0.230728119612,89.4292602539,2036,2068,2091,2025,2025,2754,3343,3366,3170,3311,3031,2992,3074,3094,3179,2902,3387,3381,3213,3284,2930,3288,3313,3035,0.010004513,1.880018489,1.880848444,0.349065840244,4500.0,0.342318445444,0.00587259000167,-0.00674740690738,30.3633308411,0.0,6000.0,-0.000734126952011,0.00140666740481,0.0,0.0,0.349065840244,0.0216827709228,-0.000235574567341,0.326134055853,-0.0128398053348,-0.0128398053348,0.00469638966024,-0.0315710939467,159.42918396,159.42918396,-0.611419796944,107.922920227,2023,2026,2540,2019,2019,2951,3445,3442,3263,3380,3111,3073,3174,3164,3254,2867,3417,3426,3261,3381,3148,3363,3396,3202
1508410670545568722,189,1508410670544960413,plot_matl,0.25,-3000.0,0.215951502323,-0.00263983337209,-0.0340484939516,-102.795127869,0.349065840244,-0.00674740690738,-0.000749546976294,0.215967565775,0.00326401367784,0.00326401367784,0.00171804160345,-0.00298417941667,0.255655437708,0.255655437708,0.230728119612,89.4292602539,2015,2034,2092,2024,2024,2745,3338,3357,3164,3305,3031,2992,3074,3094,3179,2902,3387,3381,3213,3284,2930,3288,3315,3035,0.010049276,1.890066542,1.899313164,0.349065840244,4500.0,0.340968966484,-0.0203553717583,-0.00809688866138,36.4359970093,0.0,6000.0,-0.000721468764823,0.00115106173325,0.0,0.0,0.349065840244,0.0216827709228,-0.000235574567341,0.326134055853,-0.0128398053348,-0.0128398053348,0.00469638966024,-0.0315710939467,159.42918396,159.42918396,-0.611419796944,107.922920227,2034,2032,2539,2023,2023,2941,3436,3435,3256,3373,3111,3073,3174,3164,3254,2867,3417,3426,3261,3381,3148,3363,3398,3204
1508410670555338850,190,1508410670554911301,plot_matl,0.25,-3000.0,0.215925052762,-0.00211444427259,-0.0340749546885,-102.733848572,0.349065840244,-0.00674740690738,-0.000749546976294,0.215967565775,0.00326401367784,0.00326401367784,0.00171804160345,-0.00298417941667,0.255655437708,0.255655437708,0.230728119612,89.4292602539,2009,2049,2092,2024,2024,2745,3338,3357,3164,3305,3023,2986,3072,3090,3175,2900,3383,3379,3206,3282,2930,3288,3315,3035,0.009948743,1.900017114,1.89026117,0.349065840244,4500.0,0.342318445444,0.00710015138611,-0.00674740690738,30.3633308411,0.0,6000.0,-0.000711127358954,0.000942239072174,0.0,0.0,0.349065840244,0.0216827709228,-0.000235574567341,0.326134055853,-0.0128398053348,-0.0128398053348,0.00469638966024,-0.0315710939467,159.42918396,159.42918396,-0.611419796944,107.922920227,2023,2025,2539,2023,2023,2941,3436,3435,3256,3373,3104,3068,3169,3161,3250,2865,3417,3426,3258,3378,3148,3363,3398,3204
1508410670565200801,191,1508410670564912147,plot_matl,0.25,-3000.0,0.215942263603,-0.00245185242966,-0.0340577326715,-102.762290955,0.349065840244,-0.00674740690738,-0.000711127358954,0.215925052762,0.00355007569306,0.00355007569306,0.000942239072174,-0.00211444427259,0.767057955265,0.767057955265,-0.0415810979903,89.6699676514,2032,2056,2091,2024,2024,2744,3336,3355,3164,3305,3023,2986,3072,3090,3175,2900,3383,3379,3206,3282,2929,3287,3311,3034,0.010000435,1.910018009,1.910083085,0.349065840244,4500.0,0.342318445444,0.00673560146242,-0.00674740690738,30.3633308411,0.0,6000.0,-0.000702701101545,0.000772087951191,0.0,0.0,0.349065840244,0.0240919683129,-0.000241830974119,0.325923889875,0.00765728531405,0.00765728531405,0.00485753687099,0.0344885438681,159.516067505,159.516067505,-0.77503657341,107.796607971,2018,2012,2539,2023,2023,2942,3435,3433,3256,3373,3104,3068,3169,3161,3250,2865,3417,3426,3258,3378,3146,3364,3398,3203
1508410670575496751,192,1508410670574963562,plot_matl,0.25,-3000.0,0.215919956565,-0.00200351537205,-0.0340800397098,-102.767379761,0.349065840244,-0.00674740690738,-0.000711127358954,0.215925052762,0.00355007569306,0.00355007569306,0.000942239072174,-0.00211444427259,0.767057955265,0.767057955265,-0.0415810979903,89.6699676514,2023,2048,2091,2024,2024,2744,3336,3355,3163,3302,3023,2987,3071,3089,3177,2899,3382,3378,3206,3282,2929,3287,3311,3034,0.010052994,1.920069916,1.930174848,0.349065840244,4500.0,0.342318445444,0.00646954309195,-0.00674740690738,30.3633308411,0.0,6000.0,-0.000708064297214,0.000880183128174,0.0,0.0,0.349065840244,0.0240919683129,-0.000241830974119,0.325923889875,0.00765728531405,0.00765728531405,0.00485753687099,0.0344885438681,159.516067505,159.516067505,-0.77503657341,107.796607971,2027,2022,2539,2023,2023,2942,3435,3433,3254,3372,3102,3066,3169,3159,3250,2864,3417,3423,3258,3378,3146,3364,3398,3203
1508410670585455151,193,1508410670584938409,plot_matl,0.25,-3000.0,0.215902000666,-0.00164244533516,-0.0340980030596,-102.702560425,0.349065840244,-0.00674740690738,-0.000711127358954,0.215925052762,0.00355007569306,0.00355007569306,0.000942239072174,-0.00211444427259,0.767057955265,0.767057955265,-0.0415810979903,89.6699676514,2014,2037,2091,2028,2028,2743,3336,3355,3163,3302,3023,2987,3071,3089,3177,2899,3382,3378,3208,3280,2929,3284,3311,3035,0.009973965,1.930044447,1.924975245,0.349065840244,4500.0,0.342318445444,0.00720327114686,-0.00674740690738,30.3633308411,0.0,6000.0,-0.000700206961483,0.000721558055375,0.0,0.0,0.349065840244,0.0240919683129,-0.000241830974119,0.325923889875,0.00765728531405,0.00765728531405,0.00485753687099,0.0344885438681,159.516067505,159.516067505,-0.77503657341,107.796607971,2032,2027,2540,2025,2025,2942,3435,3433,3254,3372,3102,3066,3169,3159,3250,2864,3417,3423,3258,3374,3147,3362,3396,3201
1508410670595271178,194,1508410670594912855,plot_matl,0.25,-3000.0,0.215902000666,-0.00164244533516,-0.0340980030596,-102.702560425,0.349065840244,-0.00674740690738,-0.000711127358954,0.215925052762,0.00355007569306,0.00355007569306,0.000942239072174,-0.00211444427259,0.767057955265,0.767057955265,-0.0415810979903,89.6699676514,2027,2066,2091,2028,2028,2743,3334,3355,3164,3302,3024,2985,3069,3091,3174,2900,3382,3378,3208,3280,2929,3284,3311,3035,0.009972401,1.940018597,1.934645794,0.349065840244,4500.0,0.342318445444,0.007871969603,-0.00674740690738,30.3633308411,0.0,6000.0,-0.000719966308679,-0.0123048061505,0.0,0.0,0.349065840244,0.0240919683129,-0.000241830974119,0.325923889875,0.00765728531405,0.00765728531405,0.00485753687099,0.0344885438681,159.516067505,159.516067505,-0.77503657341,107.796607971,2010,2012,2540,2025,2025,2942,3433,3433,3255,3372,3104,3065,3168,3158,3249,2863,3417,3423,3258,3374,3147,3362,3396,3201
1508410670605389690,195,1508410670604897980,plot_matl,0.25,-3000.0,0.215912029147,0.0360891520977,-0.0340879634023,-92.8220825195,0.349065840244,-0.00674740690738,-0.000702701101545,0.215942263603,0.00336780073121,0.00336780073121,0.000772087951191,-0.00245185242966,0.68218588829,0.68218588829,-0.127711877227,89.6233139038,2011,2054,2091,2026,2026,2743,3334,3355,3164,3302,3024,2985,3069,3091,3174,2900,3381,3376,3209,3280,2929,3287,3313,3035,0.009985977,1.950004424,1.947265515,0.349065840244,4500.0,0.342318445444,0.00695497402921,-0.00674740690738,30.3633308411,0.0,6000.0,-0.000721542572137,0.00117198820226,0.0,0.0,0.349065840244,0.0240919683129,-0.000239680346567,0.325890213251,0.00707086920738,0.00707086920738,-0.0105374390259,-0.0267386585474,159.550186157,159.550186157,-0.91902410984,107.914619446,2028,2024,2540,2023,2023,2942,3433,3433,3255,3372,3104,3065,3168,3158,3249,2863,3415,3422,3257,3374,3147,3363,3397,3201
1508410670615294904,196,1508410670614884453,plot_matl,0.25,-3000.0,0.215889170766,-0.00143024080899,-0.0341108292341,-102.648605347,0.349065840244,-0.00674740690738,-0.000702701101545,0.215942263603,0.00336780073121,0.00336780073121,0.000772087951191,-0.00245185242966,0.68218588829,0.68218588829,-0.127711877227,89.6233139038,2013,2039,2091,2026,2026,2744,3333,3353,3165,3303,3022,2985,3068,3090,3174,2900,3381,3376,3209,3280,2929,3287,3313,3035,0.009984824,1.95999009,1.957025504,0.349065840244,4500.0,0.343667924404,0.0330032669008,-0.00539792561904,24.2906646729,0.0,6000.0,-0.000736094021704,-0.0119485091418,0.0,0.0,0.349065840244,0.0240919683129,-0.000239680346567,0.325890213251,0.00707086920738,0.00707086920738,-0.0105374390259,-0.0267386585474,159.550186157,159.550186157,-0.91902410984,107.914619446,2033,2019,2540,2023,2023,2941,3433,3435,3254,3373,3105,3065,3167,3159,3249,2863,3415,3422,3257,3374,3147,3363,3397,3201
1508410670625379790,197,1508410670624910386,plot_matl,0.25,-3000.0,0.215844377875,-0.000494959997013,-0.0341556183994,-102.583312988,0.349065840244,-0.00674740690738,-0.000702701101545,0.215942263603,0.00336780073121,0.00336780073121,0.000772087951191,-0.00245185242966,0.68218588829,0.68218588829,-0.127711877227,89.6233139038,2018,2042,2091,2026,2026,2744,3333,3353,3165,3303,3022,2985,3068,3090,3175,2898,3382,3376,3207,3280,2929,3285,3313,3035,0.010027771,1.97001689,1.975470887,0.349065840244,4500.0,0.340968966484,-0.0200782287866,-0.00809688866138,36.4359970093,0.0,6000.0,-0.000723108882084,0.00121046358254,0.0,0.0,0.349065840244,0.0240919683129,-0.000239680346567,0.325890213251,0.00707086920738,0.00707086920738,-0.0105374390259,-0.0267386585474,159.550186157,159.550186157,-0.91902410984,107.914619446,2037,2028,2540,2023,2023,2941,3433,3435,3254,3373,3105,3065,3167,3159,3250,2863,3415,3424,3256,3377,3146,3363,3396,3201
1508410670635221589,198,1508410670634913317,plot_matl,0.25,-3000.0,0.215874969959,-0.00109549018089,-0.0341250225902,-102.634086609,0.349065840244,-0.00674740690738,-0.000702701101545,0.215942263603,0.00336780073121,0.00336780073121,0.000772087951191,-0.00245185242966,0.68218588829,0.68218588829,-0.127711877227,89.6233139038,2009,2043,2091,2028,2028,2744,3332,3353,3165,3305,3023,2986,3068,3090,3175,2898,3382,3376,3207,3280,2929,3285,3313,3035,0.009999886,1.9800188,1.979977428,0.349065840244,4500.0,0.340968966484,-0.0198566969484,-0.00809688866138,36.4359970093,0.0,6000.0,-0.000736084999517,0.00146790186409,0.0,0.0,0.349065840244,0.0240919683129,-0.000239680346567,0.325890213251,0.00707086920738,0.00707086920738,-0.0105374390259,-0.0267386585474,159.550186157,159.550186157,-0.91902410984,107.914619446,2027,2026,2539,2020,2020,2942,3434,3434,3253,3373,3105,3065,3167,3159,3250,2863,3415,3424,3256,3377,3146,3363,3396,3201
1508410670645196354,199,1508410670644887417,plot_matl,0.25,-3000.0,0.215867847204,-0.000971626781393,-0.0341321527958,-102.622154236,0.349065840244,-0.00674740690738,-0.000721542572137,0.215912029147,0.00347748701461,0.00347748701461,0.00117198820226,0.0360891520977,0.915159583092,0.915159583092,-0.348650813103,89.5300750732,2014,2051,2091,2028,2028,2744,3332,3353,3165,3305,3023,2986,3067,3090,3174,2900,3381,3376,3207,3282,2928,3286,3313,3035,0.009974438,1.989993081,1.984913162,0.349065840244,4500.0,0.342318445444,0.00708078313619,-0.00674740690738,30.3633308411,0.0,6000.0,-0.000747173209675,0.00169062893838,0.0,0.0,0.349065840244,0.0216827709228,-0.000230381410802,0.325777858496,-0.0153494160622,-0.0153494160622,-0.0107554038987,0.0374371632934,159.527114868,159.527114868,-0.495952576399,107.825195312,2030,2030,2539,2020,2020,2942,3434,3434,3253,3373,3105,3065,3169,3161,3248,2863,3415,3426,3257,3374,3146,3363,3396,3201
1508410670655070913,200,1508410670654865605,plot_matl,0.25,-3000.0,0.215859025717,0.0371113456786,-0.0341409705579,-93.5039978027,0.349065840244,-0.00674740690738,-0.000721542572137,0.215912029147,0.00347748701461,0.00347748701461,0.00117198820226,0.0360891520977,0.915159583092,0.915159583092,-0.348650813103,89.5300750732,2014,2052,2092,2023,2023,2743,3335,3355,3164,3304,3023,2986,3067,3090,3174,2900,3381,3376,3207,3282,2928,3286,3313,3034,0.009976518,1.99997051,1.9953036,0.349065840244,4500.0,0.340968966484,-0.0194377284497,-0.00809688866138,36.4359970093,0.0,6000.0,-0.000768552359659,-0.0113078206778,0.0,0.0,0.349065840244,0.0216827709228,-0.000230381410802,0.325777858496,-0.0153494160622,-0.0153494160622,-0.0107554038987,0.0374371632934,159.527114868,159.527114868,-0.495952576399,107.825195312,2024,2025,2539,2019,2019,2941,3432,3431,3255,3374,3105,3065,3169,3161,3248,2863,3415,3426,3257,3374,3146,3363,3395,3201
1508410670665014081,201,1508410670664869221,plot_matl,0.25,-3000.0,0.215852871537,-0.00068298279075,-0.0341471321881,-102.599708557,0.349065840244,-0.00674740690738,-0.000721542572137,0.215912029147,0.00347748701461,0.00347748701461,0.00117198820226,0.0360891520977,0.915159583092,0.915159583092,-0.348650813103,89.5300750732,2036,2049,2092,2023,2023,2743,3335,3355,3164,3304,3024,2985,3071,3090,3175,2900,3383,3376,3208,3283,2928,3286,3313,3034,0.010003722,2.009974439,2.010748122,0.349065840244,4500.0,0.342318445444,0.00937119405717,-0.00674740690738,30.3633308411,0.0,6000.0,-0.000775519467425,-0.011164070107,0.0,0.0,0.349065840244,0.0216827709228,-0.000230381410802,0.325777858496,-0.0153494160622,-0.0153494160622,-0.0107554038987,0.0374371632934,159.527114868,159.527114868,-0.495952576399,107.825195312,2035,2025,2539,2019,2019,2941,3432,3431,3255,3374,3103,3066,3167,3159,3248,2863,3417,3424,3257,3376,3146,3363,3395,3201
1508410670675078583,202,1508410670674871756,plot_matl,0.25,-3000.0,0.215841293335,-0.0383916981518,-0.0341587029397,-112.199333191,0.349065840244,-0.00674740690738,-0.000721542572137,0.215912029147,0.00347748701461,0.00347748701461,0.00117198820226,0.0360891520977,0.915159583092,0.915159583092,-0.348650813103,89.5300750732,2030,2064,2091,2027,2027,2743,3333,3353,3164,3304,3024,2985,3071,3090,3175,2900,3383,3376,3208,3283,2931,3284,3312,3035,0.010002045,2.019976693,2.02041309,0.349065840244,4500.0,0.340968966484,-0.017101759091,-0.00809688866138,36.4359970093,0.0,6000.0,-0.000777398818173,0.00232084630989,0.0,0.0,0.349065840244,0.0216827709228,-0.000230381410802,0.325777858496,-0.0153494160622,-0.0153494160622,-0.0107554038987,0.0374371632934,159.527114868,159.527114868,-0.495952576399,107.825195312,2018,2018,2539,2025,2025,2940,3433,3434,3255,3374,3103,3066,3167,3159,3248,2863,3417,3424,3257,3376,3146,3362,3397,3201
1508410670685068304,203,1508410670684874507,plot_matl,0.25,-3000.0,0.215803816915,0.000240140623646,-0.0341961868107,-102.505882263,0.349065840244,-0.00674740690738,-0.000747173209675,0.215867847204,0.00354039156809,0.00354039156809,0.00169062893838,-0.000971626781393,1.19098365307,1.19098365307,-0.0500206165016,89.7452468872,2019,2052,2091,2027,2027,2743,3333,3353,3165,3302,3021,2986,3070,3090,3174,2900,3383,3377,3208,3283,2931,3284,3312,3035,0.010003462,2.029979741,2.030702786,0.349065840244,4500.0,0.340968966484,-0.0165461190045,-0.00809688866138,36.4359970093,0.0,6000.0,-0.000757055473514,0.00190277805086,0.0,0.0,0.349065840244,0.0216827709228,-0.000227137177717,0.325710177422,-0.0141576975584,-0.0141576975584,-0.0107744866982,-0.0230386089534,159.691757202,159.691757202,0.170493304729,107.781295776,2023,2019,2539,2025,2025,2940,3433,3434,3255,3374,3102,3065,3168,3161,3248,2863,3416,3425,3257,3376,3146,3362,3397,3201
1508410670695014881,204,1508410670694865250,plot_matl,0.25,-3000.0,0.21584109962,-0.000479614274809,-0.0341588966548,-102.577941895,0.349065840244,-0.00674740690738,-0.000747173209675,0.215867847204,0.00354039156809,0.00354039156809,0.00169062893838,-0.000971626781393,1.19098365307,1.19098365307,-0.0500206165016,89.7452468872,1998,2053,2092,2028,2028,2743,3333,3353,3165,3302,3021,2986,3070,3090,3174,2900,3383,3377,3210,3283,2930,3285,3314,3036,0.009990387,2.039970502,2.038038948,0.349065840244,4500.0,0.342318445444,0.00977409817278,-0.00674740690738,30.3633308411,0.0,6000.0,-0.000740320188925,0.00155885890126,0.0,0.0,0.349065840244,0.0216827709228,-0.000227137177717,0.325710177422,-0.0141576975584,-0.0141576975584,-0.0107744866982,-0.0230386089534,159.691757202,159.691757202,0.170493304729,107.781295776,2024,2029,2540,2027,2027,2942,3433,3434,3255,3374,3102,3065,3168,3161,3248,2863,3416,3425,3258,3377,3147,3362,3396,3201
1508410670705251320,205,1508410670704891940,plot_matl,0.25,-3000.0,0.215905621648,0.0361720658839,-0.0340943746269,-93.5986862183,0.349065840244,-0.00674740690738,-0.000747173209675,0.215867847204,0.00354039156809,0.00354039156809,0.00169062893838,-0.000971626781393,1.19098365307,1.19098365307,-0.0500206165016,89.7452468872,2029,2065,2092,2028,2028,2743,3333,3356,3163,3301,3024,2984,3071,3091,3172,2898,3383,3377,3210,3283,2930,3285,3314,3036,0.010028333,2.049998059,2.055808265,0.349065840244,4500.0,0.343667924404,0.0372138880193,-0.00539792561904,24.2906646729,0.0,6000.0,-0.000737555441447,0.00150917982683,0.0,0.0,0.349065840244,0.0216827709228,-0.000227137177717,0.325710177422,-0.0141576975584,-0.0141576975584,-0.0107744866982,-0.0230386089534,159.691757202,159.691757202,0.170493304729,107.781295776,2023,2017,2540,2027,2027,2942,3434,3434,3253,3374,3103,3067,3168,3159,3250,2864,3416,3425,3258,3377,3147,3362,3396,3201
1508410670715044666,206,1508410670714876423,plot_matl,0.25,-3000.0,0.215960308909,0.035107858479,-0.0340396910906,-93.9369049072,0.349065840244,-0.00674740690738,-0.000747173209675,0.215867847204,0.00354039156809,0.00354039156809,0.00169062893838,-0.000971626781393,1.19098365307,1.19098365307,-0.0500206165016,89.7452468872,2018,2046,2092,2029,2029,2743,3333,3356,3163,3301,3024,2984,3071,3091,3172,2898,3383,3379,3208,3281,2929,3283,3313,3034,0.009981908,2.059981455,2.056273048,0.349065840244,4500.0,0.342318445444,0.0101352995262,-0.00674740690738,30.3633308411,0.0,6000.0,-0.000737223366741,0.0014875511406,0.0,0.0,0.349065840244,0.0216827709228,-0.000227137177717,0.325710177422,-0.0141576975584,-0.0141576975584,-0.0107744866982,-0.0230386089534,159.691757202,159.691757202,0.170493304729,107.781295776,2031,2021,2539,2024,2024,2942,3434,3434,3253,3374,3103,3067,3168,3159,3250,2864,3414,3424,3256,3375,3147,3362,3395,3203
1508410670725050460,207,1508410670724866489,plot_matl,0.25,-3000.0,0.215972289443,0.0348616838455,-0.0340277068317,-93.6715393066,0.349065840244,-0.00809688866138,-0.000757055473514,0.215803816915,-0.00827305950224,-0.00827305950224,0.00190277805086,0.000240140623646,1.01938092709,1.01938092709,0.0853755176067,89.6122589111,2017,2039,2092,2029,2029,2743,3335,3354,3164,3306,3023,2986,3071,3087,3172,2898,3383,3379,3208,3281,2929,3283,3313,3034,0.009990585,2.069971694,2.068051095,0.349065840244,4500.0,0.340968966484,-0.0169867537916,-0.00809688866138,36.4359970093,0.0,6000.0,-0.000724027515389,0.0012177588651,0.0,0.0,0.349065840244,0.0240919683129,-0.000252123718383,0.325724333525,0.00931148324162,0.00931148324162,0.00505522545427,0.0385283567011,159.718048096,159.718048096,-0.0091547165066,107.816215515,2034,2028,2539,2024,2024,2940,3434,3435,3254,3373,3103,3067,3168,3159,3250,2864,3414,3424,3256,3375,3147,3362,3395,3203
1508410670735264953,208,1508410670734908480,plot_matl,0.25,-3000.0,0.215949773788,-0.00263516115956,-0.0340502336621,-102.776618958,0.349065840244,-0.00809688866138,-0.000757055473514,0.215803816915,-0.00827305950224,-0.00827305950224,0.00190277805086,0.000240140623646,1.01938092709,1.01938092709,0.0853755176067,89.6122589111,2025,2055,2092,2029,2029,2743,3335,3354,3164,3306,3023,2986,3071,3087,3174,2900,3384,3376,3209,3280,2928,3286,3313,3036,0.01004309,2.080014503,2.08896272,0.349065840244,4500.0,0.343667924404,0.036609493196,-0.00539792561904,24.2906646729,0.0,6000.0,-0.000713211193215,0.000996617600322,0.0,0.0,0.349065840244,0.0240919683129,-0.000252123718383,0.325724333525,0.00931148324162,0.00931148324162,0.00505522545427,0.0385283567011,159.718048096,159.718048096,-0.0091547165066,107.816215515,2023,2021,2539,2024,2024,2940,3434,3435,3254,3373,3103,3067,3168,3159,3249,2864,3417,3421,3256,3376,3147,3360,3397,3202
1508410670745308165,209,1508410670744907381,plot_matl,0.25,-3000.0,0.215958490968,-0.00280180596747,-0.0340415127575,-102.793258667,0.349065840244,-0.00809688866138,-0.000757055473514,0.215803816915,-0.00827305950224,-0.00827305950224,0.00190277805086,0.000240140623646,1.01938092709,1.01938092709,0.0853755176067,89.6122589111,2015,2057,2091,2027,2027,2745,3334,3355,3163,3304,3024,2984,3071,3087,3174,2900,3384,3376,3209,3280,2928,3286,3313,3036,0.009998271,2.090013274,2.089638639,0.349065840244,4500.0,0.342318445444,0.0101511776447,-0.00674740690738,30.3633308411,0.0,6000.0,-0.000740279152524,0.00153973244596,0.0,0.0,0.349065840244,0.0240919683129,-0.000252123718383,0.325724333525,0.00931148324162,0.00931148324162,0.00505522545427,0.0385283567011,159.718048096,159.718048096,-0.0091547165066,107.816215515,2028,2034,2539,2022,2022,2941,3432,3436,3255,3372,3104,3066,3168,3159,3249,2864,3417,3421,3256,3376,3147,3360,3397,3202
1508410670755305282,210,1508410670754892662,plot_matl,0.25,-3000.0,0.215998873115,-0.00361317722127,-0.0340011194348,-102.878158569,0.349065840244,-0.00809688866138,-0.000757055473514,0.215803816915,-0.00827305950224,-0.00827305950224,0.00190277805086,0.000240140623646,1.01938092709,1.01938092709,0.0853755176067,89.6122589111,2009,2046,2091,2027,2027,2745,3334,3355,3163,3304,3024,2984,3070,3090,3174,2900,3381,3379,3207,3281,2930,3286,3313,3036,0.009985101,2.099998735,2.09687121,0.349065840244,4500.0,0.340968966484,-0.0165173280984,-0.00809688866138,36.4359970093,0.0,6000.0,-0.000777176115662,-0.0111403660849,0.0,0.0,0.349065840244,0.0240919683129,-0.000252123718383,0.325724333525,0.00931148324162,0.00931148324162,0.00505522545427,0.0385283567011,159.718048096,159.718048096,-0.0091547165066,107.816215515,2032,2032,2539,2022,2022,2941,3432,3436,3255,3372,3104,3066,3168,3161,3249,2863,3414,3423,3259,3375,3147,3360,3397,3202
1508410670765153210,211,1508410670764891346,plot_matl,0.25,-3000.0,0.215932130814,-0.00227435445413,-0.0340678654611,-102.738273621,0.349065840244,-0.00809688866138,-0.000724027515389,0.215972289443,-0.00849337689579,-0.00849337689579,0.0012177588651,0.0348616838455,1.27422690392,1.27422690392,0.329137325287,89.6035919189,2028,2046,2092,2029,2029,2742,3332,3353,3166,3303,3024,2984,3070,3090,3174,2900,3381,3379,3207,3281,2930,3286,3314,3035,0.009997415,2.109996879,2.109454565,0.349065840244,4500.0,0.340968966484,-0.0159371756017,-0.00809688866138,36.4359970093,0.0,6000.0,-0.000769319885876,0.00211439584382,0.0,0.0,0.349065840244,0.0216827709228,-0.000273063458735,0.325570315123,-0.0149811310694,-0.0149811310694,-0.00981158390641,0.0417379178107,159.533508301,159.533508301,0.0525565594435,107.591766357,2025,2014,2539,2025,2025,2941,3435,3433,3256,3373,3104,3066,3168,3161,3249,2863,3414,3423,3259,3375,3147,3360,3395,3203
1508410670775239586,212,1508410670774908530,plot_matl,0.25,-3000.0,0.215946927667,-0.00258284551091,-0.034053068608,-102.818023682,0.349065840244,-0.00809688866138,-0.000724027515389,0.215972289443,-0.00849337689579,-0.00849337689579,0.0012177588651,0.0348616838455,1.27422690392,1.27422690392,0.329137325287,89.6035919189,2022,2055,2092,2029,2029,2742,3332,3353,3166,3303,3022,2985,3068,3089,3173,2898,3381,3378,3207,3280,2930,3286,3314,3035,0.010017459,2.120014268,2.123701308,0.349065840244,4500.0,0.340968966484,-0.0154106561095,-0.00809688866138,36.4359970093,0.0,6000.0,-0.000750270031858,0.00173025485128,0.0,0.0,0.349065840244,0.0216827709228,-0.000273063458735,0.325570315123,-0.0149811310694,-0.0149811310694,-0.00981158390641,0.0417379178107,159.533508301,159.533508301,0.0525565594435,107.591766357,2021,2025,2539,2025,2025,2941,3435,3433,3256,3373,3102,3067,3168,3158,3250,2864,3417,3423,3258,3375,3147,3360,3395,3203
1508410670785406779,213,1508410670784943228,plot_matl,0.25,-3000.0,0.215931683779,-0.00220870412886,-0.0340683162212,-102.73525238,0.349065840244,-0.00809688866138,-0.000724027515389,0.215972289443,-0.00849337689579,-0.00849337689579,0.0012177588651,0.0348616838455,1.27422690392,1.27422690392,0.329137325287,89.6035919189,2025,2054,2091,2028,2028,2743,3332,3354,3166,3303,3022,2985,3068,3089,3173,2898,3381,3378,3207,3280,2931,3286,3315,3035,0.010035169,2.130049191,2.137490997,0.349065840244,4500.0,0.342318445444,0.0106159886345,-0.00674740690738,30.3633308411,0.0,6000.0,-0.000745426805224,0.00165638281032,0.0,0.0,0.349065840244,0.0216827709228,-0.000273063458735,0.325570315123,-0.0149811310694,-0.0149811310694,-0.00981158390641,0.0417379178107,159.533508301,159.533508301,0.0525565594435,107.591766357,2028,2021,2539,2025,2025,2940,3434,3433,3256,3373,3102,3067,3168,3158,3250,2864,3417,3423,3258,3375,3146,3363,3397,3201
1508410670795483672,214,1508410670794932939,plot_matl,0.25,-3000.0,0.215911567211,-0.00180986127816,-0.0340884327888,-102.706985474,0.349065840244,-0.00809688866138,-0.000724027515389,0.215972289443,-0.00849337689579,-0.00849337689579,0.0012177588651,0.0348616838455,1.27422690392,1.27422690392,0.329137325287,89.6035919189,2023,2056,2091,2028,2028,2743,3332,3354,3163,3301,3023,2986,3070,3089,3175,2900,3380,3377,3207,3280,2931,3286,3315,3035,0.009990231,2.140039498,2.137909434,0.349065840244,4500.0,0.340968966484,-0.0160632543266,-0.00809688866138,36.4359970093,0.0,6000.0,-0.000741743482649,0.0015888013877,0.0,0.0,0.349065840244,0.0216827709228,-0.000273063458735,0.325570315123,-0.0149811310694,-0.0149811310694,-0.00981158390641,0.0417379178107,159.533508301,159.533508301,0.0525565594435,107.591766357,2020,2017,2539,2025,2025,2940,3434,3433,3255,3375,3103,3067,3168,3159,3248,2863,3416,3424,3258,3375,3146,3363,3397,3201
1508410670805349537,215,1508410670804894150,plot_matl,0.25,-3000.0,0.215931773186,0.0356884598732,-0.0340682268143,-92.964302063,0.349065840244,-0.00809688866138,-0.000769319885876,0.215932130814,-0.00796858780086,-0.00796858780086,0.00211439584382,-0.00227435445413,1.25803816319,1.25803816319,0.47702986002,89.6087188721,2019,2053,2092,2029,2029,2743,3332,3354,3163,3301,3023,2986,3070,3089,3175,2900,3380,3377,3208,3282,2928,3287,3317,3036,0.009959342,2.150000032,2.14125853,0.349065840244,4500.0,0.340968966484,-0.016033437103,-0.00809688866138,36.4359970093,0.0,6000.0,-0.000765018281527,-0.0113607207313,0.0,0.0,0.349065840244,0.0240919683129,-0.00029259242001,0.325546771288,0.00832274276763,0.00832274276763,0.00592274870723,0.0421563945711,159.646102905,159.646102905,-0.0606739856303,107.627662659,2017,2024,2539,2026,2026,2940,3434,3433,3255,3375,3103,3067,3168,3159,3248,2863,3416,3424,3256,3375,3146,3362,3397,3203
1508410670815273734,216,1508410670814884467,plot_matl,0.25,-3000.0,0.21584546566,-0.000467210396891,-0.0341545306146,-102.586547852,0.349065840244,-0.00809688866138,-0.000769319885876,0.215932130814,-0.00796858780086,-0.00796858780086,0.00211439584382,-0.00227435445413,1.25803816319,1.25803816319,0.47702986002,89.6087188721,2012,2050,2092,2029,2029,2743,3334,3355,3162,3303,3022,2984,3068,3088,3174,2900,3380,3377,3208,3282,2928,3287,3317,3036,0.009990868,2.159990835,2.158027488,0.349065840244,4500.0,0.342318445444,0.011118224822,-0.00674740690738,30.3633308411,0.0,6000.0,-0.000746903126128,0.0016827643849,0.0,0.0,0.349065840244,0.0240919683129,-0.00029259242001,0.325546771288,0.00832274276763,0.00832274276763,0.00592274870723,0.0421563945711,159.646102905,159.646102905,-0.0606739856303,107.627662659,2022,2024,2539,2026,2026,2940,3432,3433,3253,3373,3102,3066,3167,3159,3248,2864,3416,3424,3256,3375,3146,3362,3397,3203
1508410670825253356,217,1508410670824880276,plot_matl,0.25,-3000.0,0.215841591358,-0.000372137874365,-0.0341584049165,-102.582221985,0.349065840244,-0.00809688866138,-0.000769319885876,0.215932130814,-0.00796858780086,-0.00796858780086,0.00211439584382,-0.00227435445413,1.25803816319,1.25803816319,0.47702986002,89.6087188721,2009,2066,2091,2028,2028,2743,3334,3355,3162,3303,3022,2984,3068,3088,3174,2900,3382,3379,3207,3282,2931,3285,3312,3036,0.00999411,2.169985743,2.16872187,0.349065840244,4500.0,0.342318445444,0.0100590223446,-0.00674740690738,30.3633308411,0.0,6000.0,-0.000731839449145,0.00137527636252,0.0,0.0,0.349065840244,0.0240919683129,-0.00029259242001,0.325546771288,0.00832274276763,0.00832274276763,0.00592274870723,0.0421563945711,159.646102905,159.646102905,-0.0606739856303,107.627662659,2025,2033,2539,2023,2023,2940,3432,3433,3253,3373,3102,3066,3167,3159,3248,2864,3417,3424,3257,3374,3146,3361,3396,3202
1508410670835337752,218,1508410670834922736,plot_matl,0.25,-3000.0,0.215864673257,-0.00086210668087,-0.0341353267431,-102.621383667,0.349065840244,-0.00809688866138,-0.000769319885876,0.215932130814,-0.00796858780086,-0.00796858780086,0.00211439584382,-0.00227435445413,1.25803816319,1.25803816319,0.47702986002,89.6087188721,2005,2046,2091,2028,2028,2742,3332,3355,3165,3303,3022,2985,3069,3089,3174,2900,3382,3379,3207,3282,2931,3285,3312,3036,0.010042736,2.180028729,2.189316448,0.349065840244,4500.0,0.340968966484,-0.0164628699422,-0.00809688866138,36.4359970093,0.0,6000.0,-0.000719726143871,0.00112801266368,0.0,0.0,0.349065840244,0.0240919683129,-0.00029259242001,0.325546771288,0.00832274276763,0.00832274276763,0.00592274870723,0.0421563945711,159.646102905,159.646102905,-0.0606739856303,107.627662659,2033,2030,2539,2023,2023,2942,3434,3432,3255,3374,3103,3065,3168,3159,3248,2864,3417,3424,3257,3374,3146,3361,3396,3202
1508410670845302561,219,1508410670844884523,plot_matl,0.25,-3000.0,0.215852677822,-0.000626943190582,-0.0341473184526,-102.600944519,0.349065840244,-0.00809688866138,-0.000765018281527,0.215931773186,-0.00801671855152,-0.00801671855152,-0.0113607207313,0.0356884598732,1.08092486858,1.08092486858,0.569170534611,89.4546051025,2022,2054,2091,2028,2028,2742,3332,3355,3165,3303,3022,2985,3069,3089,3173,2899,3383,3376,3207,3283,2928,3284,3313,3034,0.009961041,2.189990095,2.181467979,0.349065840244,4500.0,0.342318445444,0.0103234555572,-0.00674740690738,30.3633308411,0.0,6000.0,-0.000709704589099,0.000923446379602,0.0,0.0,0.349065840244,0.0240919683129,-0.000319726968883,0.325484126806,0.00742759089917,0.00742759089917,0.00645927572623,0.0433459244668,159.217849731,159.217849731,0.237570375204,107.475311279,2031,2024,2539,2023,2023,2942,3434,3432,3255,3374,3103,3065,3168,3159,3249,2864,3415,3423,3259,3376,3146,3363,3395,3201
1508410670855231389,220,1508410670854881400,plot_matl,0.25,-3000.0,0.215814784169,0.000151266722241,-0.0341852158308,-102.527748108,0.349065840244,-0.00809688866138,-0.000765018281527,0.215931773186,-0.00801671855152,-0.00801671855152,-0.0113607207313,0.0356884598732,1.08092486858,1.08092486858,0.569170534611,89.4546051025,2013,2049,2091,2030,2030,2744,3333,3354,3164,3300,3023,2984,3069,3089,3173,2899,3383,3376,3207,3283,2928,3284,3313,3034,0.009997418,2.199987573,2.19943196,0.349065840244,4500.0,0.342318445444,0.00892029050738,-0.00674740690738,30.3633308411,0.0,6000.0,-0.000715218833648,-0.0123960534111,0.0,0.0,0.349065840244,0.0240919683129,-0.000319726968883,0.325484126806,0.00742759089917,0.00742759089917,0.00645927572623,0.0433459244668,159.217849731,159.217849731,0.237570375204,107.475311279,2020,2025,2539,2024,2024,2941,3434,3435,3254,3374,3102,3067,3168,3159,3249,2864,3415,3423,3259,3376,3146,3363,3395,3201
1508410670865180061,221,1508410670864933868,plot_matl,0.25,-3000.0,0.215783372521,0.000778188346885,-0.0342166274786,-102.470375061,0.349065840244,-0.00809688866138,-0.000765018281527,0.215931773186,-0.00801671855152,-0.00801671855152,-0.0113607207313,0.0356884598732,1.08092486858,1.08092486858,0.569170534611,89.4546051025,2012,2050,2091,2030,2030,2744,3333,3354,3164,3300,3023,2984,3071,3090,3175,2899,3380,3375,3208,3281,2929,3285,3313,3034,0.010051515,2.210039625,2.221384815,0.349065840244,4500.0,0.342318445444,0.00772875733674,-0.00674740690738,30.3633308411,0.0,6000.0,-0.000717530783731,0.00107097160071,0.0,0.0,0.349065840244,0.0240919683129,-0.000319726968883,0.325484126806,0.00742759089917,0.00742759089917,0.00645927572623,0.0433459244668,159.217849731,159.217849731,0.237570375204,107.475311279,2023,2026,2539,2024,2024,2941,3434,3435,3254,3374,3102,3067,3169,3161,3249,2865,3417,3422,3257,3375,3146,3364,3395,3201
